country,state,city,station,last_update,latitude,longitude,pollutant_id,min_value,max_value,avg_value
India,Arunachal_Pradesh,Naharlagun,"Naharlagun, Naharlagun - APSPCB",22-01-2026 18:00:00,27.103358,93.679645,PM2.5,42,350,176
India,Assam,Byrnihat,"Central Academy for SFS, Byrnihat - PCBA",22-01-2026 18:00:00,26.071318,91.87488,PM10,68,179,102
India,Assam,Byrnihat,"Central Academy for SFS, Byrnihat - PCBA",22-01-2026 18:00:00,26.071318,91.87488,OZONE,13,43,32
India,Assam,Guwahati,"LGBI Airport, Guwahati - PCBA",22-01-2026 18:00:00,26.10887,91.589544,PM2.5,45,143,95
India,Assam,Guwahati,"LGBI Airport, Guwahati - PCBA",22-01-2026 18:00:00,26.10887,91.589544,CO,24,65,35
India,Assam,Guwahati,"Pan Bazaar, Guwahati - PCBA",22-01-2026 18:00:00,26.187500,91.744194,PM2.5,63,281,169
India,Assam,Guwahati,"Railway Colony, Guwahati - PCBA",22-01-2026 18:00:00,26.181742,91.78063,SO2,35,37,36
India,Assam,Guwahati,"Railway Colony, Guwahati - PCBA",22-01-2026 18:00:00,26.181742,91.78063,CO,38,104,55
India,Assam,Nagaon,"Christianpatty, Nagaon - PCBA",22-01-2026 18:00:00,26.349082,92.68449,NH3,1,4,4
India,Bihar,Patna,"DRM Office Danapur, Patna - BSPCB",22-01-2026 18:00:00,25.586562,85.043586,NO2,20,66,36
India,Bihar,Patna,"DRM Office Danapur, Patna - BSPCB",22-01-2026 18:00:00,25.586562,85.043586,SO2,4,8,6
India,Bihar,Patna,"DRM Office Danapur, Patna - BSPCB",22-01-2026 18:00:00,25.586562,85.043586,CO,10,66,26
India,Bihar,Patna,"Govt. High School Shikarpur, Patna - BSPCB",22-01-2026 18:00:00,25.592539,85.227158,PM10,97,110,105
India,Bihar,Patna,"Govt. High School Shikarpur, Patna - BSPCB",22-01-2026 18:00:00,25.592539,85.227158,NH3,4,5,5
India,Bihar,Patna,"IGSC Planetarium Complex, Patna - BSPCB",22-01-2026 18:00:00,25.610369,85.132568,NO2,1,24,13
India,Bihar,Patna,"Muradpur, Patna - BSPCB",22-01-2026 18:00:00,25.619651,85.147382,NO2,6,8,7
India,Bihar,Patna,"Muradpur, Patna - BSPCB",22-01-2026 18:00:00,25.619651,85.147382,NH3,4,5,5
India,Bihar,Patna,"Muradpur, Patna - BSPCB",22-01-2026 18:00:00,25.619651,85.147382,CO,48,62,56
India,Bihar,Patna,"Rajbansi Nagar, Patna - BSPCB",22-01-2026 18:00:00,25.599486,85.113666,PM2.5,50,88,70
India,Bihar,Patna,"Rajbansi Nagar, Patna - BSPCB",22-01-2026 18:00:00,25.599486,85.113666,PM10,33,113,82
India,Andhra_Pradesh,Tirupati,"Vaikuntapuram, Tirupati - APPCB",22-01-2026 18:00:00,13.615387,79.409230,OZONE,23,25,24
India,Andhra_Pradesh,Vijayawada,"HB Colony, Vijayawada - APPCB",22-01-2026 18:00:00,16.536107,80.594233,PM10,79,94,85
India,Andhra_Pradesh,Vijayawada,"HB Colony, Vijayawada - APPCB",22-01-2026 18:00:00,16.536107,80.594233,NH3,4,5,4
India,Andhra_Pradesh,Vijayawada,"Kanuru, Vijayawada - APPCB",22-01-2026 18:00:00,16.486692,80.699436,NH3,NA,NA,NA
India,Andhra_Pradesh,Vijayawada,"Rajiv Gandhi Park, Vijayawada - APPCB",22-01-2026 18:00:00,16.509717,80.612222,OZONE,1,48,38
India,Andhra_Pradesh,Vijayawada,"Rajiv Nagar, Vijayawada - APPCB",22-01-2026 18:00:00,16.554731,80.649110,PM2.5,90,100,95
India,Andhra_Pradesh,Vijayawada,"Rajiv Nagar, Vijayawada - APPCB",22-01-2026 18:00:00,16.554731,80.649110,NO2,16,23,18
India,Andhra_Pradesh,Visakhapatnam,"GVM Corporation, Visakhapatnam - APPCB",22-01-2026 18:00:00,17.72,83.3,SO2,1,16,7
India,Bihar,Manguraha,"Forest Rest House, Manguraha - BSPCB",22-01-2026 18:00:00,27.308328,84.531742,NO2,4,11,6
India,Bihar,Munger,"Town Hall, Munger - BSPCB",22-01-2026 18:00:00,25.376776,86.471523,NO2,4,5,5
India,Bihar,Munger,"Town Hall, Munger - BSPCB",22-01-2026 18:00:00,25.376776,86.471523,SO2,20,31,26
India,Bihar,Muzaffarpur,"Buddha Colony, Muzaffarpur - BSPCB",22-01-2026 18:00:00,26.11442,85.39813,OZONE,26,85,75
India,Bihar,Muzaffarpur,"MIT-Daudpur Kothi, Muzaffarpur - BSPCB",22-01-2026 18:00:00,26.1403345,85.3650192,PM2.5,87,113,101
India,Bihar,Muzaffarpur,"MIT-Daudpur Kothi, Muzaffarpur - BSPCB",22-01-2026 18:00:00,26.1403345,85.3650192,PM10,61,71,66
India,Bihar,Muzaffarpur,"MIT-Daudpur Kothi, Muzaffarpur - BSPCB",22-01-2026 18:00:00,26.1403345,85.3650192,CO,46,62,53
India,Bihar,Patna,"DRM Office Danapur, Patna - BSPCB",22-01-2026 18:00:00,25.586562,85.043586,PM2.5,58,176,97
India,Bihar,Bhagalpur,"DM Office_Kachari Chowk, Bhagalpur - BSPCB",22-01-2026 18:00:00,25.251013,86.989001,NO2,3,16,10
India,Bihar,Bhagalpur,"DM Office_Kachari Chowk, Bhagalpur - BSPCB",22-01-2026 18:00:00,25.251013,86.989001,NH3,1,1,1
India,Bihar,Bhagalpur,"Mayaganj, Bhagalpur - BSPCB",22-01-2026 18:00:00,25.265194,87.012947,NO2,6,8,7
India,Bihar,Bhagalpur,"Mayaganj, Bhagalpur - BSPCB",22-01-2026 18:00:00,25.265194,87.012947,NH3,11,13,12
India,Bihar,Bihar Sharif,"D M Colony, Bihar Sharif - BSPCB",22-01-2026 18:00:00,25.204762,85.514960,CO,47,62,55
India,Bihar,Buxar,"Charitra Van, Buxar - BSPCB",22-01-2026 18:00:00,25.567520,83.966379,CO,22,28,25
India,Bihar,Buxar,"Charitra Van, Buxar - BSPCB",22-01-2026 18:00:00,25.567520,83.966379,OZONE,6,35,27
India,Bihar,Chhapra,"Darshan Nagar, Chhapra - BSPCB",22-01-2026 18:00:00,25.7808257,84.7446768,OZONE,13,22,17
India,Andhra_Pradesh,Chittoor,"Gangineni Cheruvu, Chittoor - APPCB",22-01-2026 18:00:00,13.204880,79.097889,PM10,NA,NA,NA
India,Andhra_Pradesh,Chittoor,"Gangineni Cheruvu, Chittoor - APPCB",22-01-2026 18:00:00,13.204880,79.097889,NO2,NA,NA,NA
India,Andhra_Pradesh,Kadapa,"Yerramukkapalli, Kadapa - APPCB",22-01-2026 18:00:00,14.465052,78.824187,NO2,24,37,27
India,Andhra_Pradesh,Kadapa,"Yerramukkapalli, Kadapa - APPCB",22-01-2026 18:00:00,14.465052,78.824187,NH3,4,4,4
India,Andhra_Pradesh,Kadapa,"Yerramukkapalli, Kadapa - APPCB",22-01-2026 18:00:00,14.465052,78.824187,CO,4,8,6
India,Andhra_Pradesh,Rajamahendravaram,"Anand Kala Kshetram, Rajamahendravaram - APPCB",22-01-2026 18:00:00,16.9872867,81.7363176,CO,26,64,36
India,Andhra_Pradesh,Tirupati,"Vaikuntapuram, Tirupati - APPCB",22-01-2026 18:00:00,13.615387,79.409230,NH3,7,8,7
India,Assam,Nalbari,"Bata Chowk, Nalbari - PCBA",22-01-2026 18:00:00,26.446912,91.439057,PM2.5,112,167,143
India,Assam,Nalbari,"Bata Chowk, Nalbari - PCBA",22-01-2026 18:00:00,26.446912,91.439057,NH3,6,6,6
India,Assam,Silchar,"Tarapur, Silchar - PCBA",22-01-2026 18:00:00,24.82827,92.79525,SO2,5,9,6
India,Assam,Sivasagar,"Girls College, Sivasagar - PCBA",22-01-2026 18:00:00,26.987634,94.636574,OZONE,4,98,72
India,Bihar,Araria,"Kharahiya Basti, Araria - BSPCB",22-01-2026 18:00:00,26.146529,87.454184,PM10,45,151,103
India,Bihar,Araria,"Kharahiya Basti, Araria - BSPCB",22-01-2026 18:00:00,26.146529,87.454184,NH3,4,5,4
India,Bihar,Araria,"Kharahiya Basti, Araria - BSPCB",22-01-2026 18:00:00,26.146529,87.454184,OZONE,9,11,10
India,Bihar,Gaya,"Kareemganj, Gaya - BSPCB",22-01-2026 18:00:00,24.792403,84.992416,OZONE,1,24,11
India,Bihar,Hajipur,"Industrial Area, Hajipur - BSPCB",22-01-2026 18:00:00,25.697189,85.245900,PM2.5,69,134,100
India,Bihar,Katihar,"Mirchaibari, Katihar - BSPCB",22-01-2026 18:00:00,25.560083,87.553265,NH3,1,1,1
India,Bihar,Kishanganj,"SDM Office_Khagra, Kishanganj - BSPCB",22-01-2026 18:00:00,26.0881305,87.93840336,PM2.5,22,50,37
India,Bihar,Kishanganj,"SDM Office_Khagra, Kishanganj - BSPCB",22-01-2026 18:00:00,26.0881305,87.93840336,NH3,3,3,3
India,Bihar,Aurangabad,"Gurdeo Nagar, Aurangabad - BSPCB",22-01-2026 18:00:00,24.75746,84.366208,NO2,7,8,8
India,Bihar,Aurangabad,"Gurdeo Nagar, Aurangabad - BSPCB",22-01-2026 18:00:00,24.75746,84.366208,CO,101,104,102
India,Bihar,Begusarai,"Lohiyanagar, Begusarai - BSPCB",22-01-2026 18:00:00,25.42742023,86.13886079,PM10,66,157,97
India,Bihar,Begusarai,"Lohiyanagar, Begusarai - BSPCB",22-01-2026 18:00:00,25.42742023,86.13886079,NO2,10,15,13
India,Bihar,Bettiah,"Kamalnath Nagar, Bettiah - BSPCB",22-01-2026 18:00:00,26.80365,84.51954,CO,58,110,72
India,Andaman and Nicobar,Sri Vijaya Puram,"Police Line, Sri Vijaya Puram - ANPCC",22-01-2026 18:00:00,11.654054,92.734055,NO2,NA,NA,NA
India,Andaman and Nicobar,Sri Vijaya Puram,"Police Line, Sri Vijaya Puram - ANPCC",22-01-2026 18:00:00,11.654054,92.734055,CO,NA,NA,NA
India,Delhi,Delhi,"Ashok Vihar, Delhi - DPCC",22-01-2026 18:00:00,28.695381,77.181665,NH3,7,8,8
India,Delhi,Delhi,"Aya Nagar, Delhi - IMD",22-01-2026 18:00:00,28.4706914,77.1099364,PM10,134,432,275
India,Delhi,Delhi,"Aya Nagar, Delhi - IMD",22-01-2026 18:00:00,28.4706914,77.1099364,CO,6,123,46
India,Delhi,Delhi,"Bawana, Delhi - DPCC",22-01-2026 18:00:00,28.776200,77.051074,PM10,157,424,276
India,Delhi,Delhi,"Bawana, Delhi - DPCC",22-01-2026 18:00:00,28.776200,77.051074,NO2,17,89,42
India,Delhi,Delhi,"Bawana, Delhi - DPCC",22-01-2026 18:00:00,28.776200,77.051074,CO,78,92,85
India,Delhi,Delhi,"Bawana, Delhi - DPCC",22-01-2026 18:00:00,28.776200,77.051074,OZONE,1,233,135
India,Delhi,Delhi,"Burari Crossing, Delhi - IMD",22-01-2026 18:00:00,28.7256504,77.2011573,PM2.5,207,454,352
India,Delhi,Delhi,"Burari Crossing, Delhi - IMD",22-01-2026 18:00:00,28.7256504,77.2011573,NO2,3,229,107
India,Delhi,Delhi,"Burari Crossing, Delhi - IMD",22-01-2026 18:00:00,28.7256504,77.2011573,OZONE,4,249,116
India,Delhi,Delhi,"CRRI Mathura Road, Delhi - IMD",22-01-2026 18:00:00,28.5512005,77.2735737,PM2.5,97,371,287
India,Delhi,Delhi,"CRRI Mathura Road, Delhi - IMD",22-01-2026 18:00:00,28.5512005,77.2735737,OZONE,2,94,63
India,Delhi,Delhi,"Chandni Chowk, Delhi - IITM",22-01-2026 18:00:00,28.656756,77.227234,PM2.5,211,500,364
India,Delhi,Delhi,"IIT Delhi, Delhi - IITM",22-01-2026 18:00:00,28.542460,77.191651,NO2,22,111,49
India,Delhi,Delhi,"ITO, Delhi - CPCB",22-01-2026 18:00:00,28.628624,77.241060,PM2.5,32,380,288
India,Delhi,Delhi,"ITO, Delhi - CPCB",22-01-2026 18:00:00,28.628624,77.241060,NO2,39,113,81
India,Delhi,Delhi,"ITO, Delhi - CPCB",22-01-2026 18:00:00,28.628624,77.241060,CO,18,121,46
India,Delhi,Delhi,"ITO, Delhi - CPCB",22-01-2026 18:00:00,28.628624,77.241060,OZONE,3,36,21
India,Delhi,Delhi,"Jahangirpuri, Delhi - DPCC",22-01-2026 18:00:00,28.732820,77.170633,SO2,13,37,26
India,Delhi,Delhi,"Jawaharlal Nehru Stadium, Delhi - DPCC",22-01-2026 18:00:00,28.580280,77.233829,PM2.5,160,398,331
India,Delhi,Delhi,"Jawaharlal Nehru Stadium, Delhi - DPCC",22-01-2026 18:00:00,28.580280,77.233829,PM10,143,428,282
India,Delhi,Delhi,"Jawaharlal Nehru Stadium, Delhi - DPCC",22-01-2026 18:00:00,28.580280,77.233829,NH3,19,23,20
India,Delhi,Delhi,"Jawaharlal Nehru Stadium, Delhi - DPCC",22-01-2026 18:00:00,28.580280,77.233829,CO,57,134,71
India,Delhi,Delhi,"Lodhi Road, Delhi - IMD",22-01-2026 18:00:00,28.5918245,77.2273074,OZONE,8,187,114
India,Bihar,Purnia,"Mariam Nagar, Purnia - BSPCB",22-01-2026 18:00:00,25.366336,87.117468,PM2.5,NA,NA,NA
India,Bihar,Purnia,"Mariam Nagar, Purnia - BSPCB",22-01-2026 18:00:00,25.366336,87.117468,CO,53,60,59
India,Bihar,Purnia,"Mariam Nagar, Purnia - BSPCB",22-01-2026 18:00:00,25.366336,87.117468,OZONE,22,45,36
India,Bihar,Rajgir,"Dangi Tola, Rajgir - BSPCB",22-01-2026 18:00:00,25.03280,85.41948,PM2.5,NA,NA,NA
India,Bihar,Rajgir,"Dangi Tola, Rajgir - BSPCB",22-01-2026 18:00:00,25.03280,85.41948,NO2,NA,NA,NA
India,Bihar,Saharsa,"Police Line, Saharsa - BSPCB",22-01-2026 18:00:00,25.892357,86.590325,NH3,4,4,4
India,Bihar,Saharsa,"Police Line, Saharsa - BSPCB",22-01-2026 18:00:00,25.892357,86.590325,SO2,16,19,18
India,Bihar,Samastipur,"DM Office_Kasipur, Samastipur - BSPCB",22-01-2026 18:00:00,25.859655,85.77944,PM10,39,112,74
India,Bihar,Sasaram,"Dada Peer, Sasaram - BSPCB",22-01-2026 18:00:00,24.952822,84.002396,NO2,2,3,2
India,Bihar,Sasaram,"Dada Peer, Sasaram - BSPCB",22-01-2026 18:00:00,24.952822,84.002396,NH3,1,3,3
India,Bihar,Siwan,"Chitragupta Nagar, Siwan - BSPCB",22-01-2026 18:00:00,26.2271665,84.3570427,SO2,6,7,7
India,Chandigarh,Chandigarh,"Sector 22, Chandigarh - CPCC",22-01-2026 18:00:00,30.735567,76.775714,SO2,4,80,19
India,Chandigarh,Chandigarh,"Sector-25, Chandigarh - CPCC",22-01-2026 18:00:00,30.751462,76.762879,PM2.5,73,208,126
India,Chandigarh,Chandigarh,"Sector-25, Chandigarh - CPCC",22-01-2026 18:00:00,30.751462,76.762879,NO2,8,27,17
India,Chandigarh,Chandigarh,"Sector-25, Chandigarh - CPCC",22-01-2026 18:00:00,30.751462,76.762879,NH3,8,9,9
India,Chandigarh,Chandigarh,"Sector-25, Chandigarh - CPCC",22-01-2026 18:00:00,30.751462,76.762879,CO,16,74,25
India,Chandigarh,Chandigarh,"Sector-53, Chandigarh - CPCC",22-01-2026 18:00:00,30.719859,76.738637,NH3,NA,NA,NA
India,Chandigarh,Chandigarh,"Sector-53, Chandigarh - CPCC",22-01-2026 18:00:00,30.719859,76.738637,CO,34,79,44
India,Chhattisgarh,Bhilai,"32Bungalows, Bhilai - CECB",22-01-2026 18:00:00,21.194815,81.314770,NH3,5,7,6
India,Chhattisgarh,Korba,"Urja Nagar, Korba - CECB",22-01-2026 18:00:00,22.348441,82.549611,PM10,NA,NA,NA
India,Chhattisgarh,Kunjemura,"OP Jindal School, Kunjemura - CECB",22-01-2026 18:00:00,22.126650,83.483212,NH3,2,2,2
India,Chhattisgarh,Raipur,"AIIMS, Raipur - CECB",22-01-2026 18:00:00,21.258815,81.578979,PM2.5,35,116,71
India,Chhattisgarh,Raipur,"AIIMS, Raipur - CECB",22-01-2026 18:00:00,21.258815,81.578979,NO2,33,57,50
India,Chhattisgarh,Raipur,"AIIMS, Raipur - CECB",22-01-2026 18:00:00,21.258815,81.578979,OZONE,1,23,6
India,Chhattisgarh,Raipur,"Bhatagaon New ISBT, Raipur - CECB",22-01-2026 18:00:00,21.219665,81.630094,PM10,28,148,77
India,Chhattisgarh,Raipur,"Siltara Phase-II, Raipur - CECB",22-01-2026 18:00:00,21.371751,81.664929,NO2,51,65,57
India,Chhattisgarh,Raipur,"Siltara Phase-II, Raipur - CECB",22-01-2026 18:00:00,21.371751,81.664929,CO,34,36,35
India,Chhattisgarh,Raipur,"Siltara Phase-II, Raipur - CECB",22-01-2026 18:00:00,21.371751,81.664929,OZONE,3,3,3
India,Chhattisgarh,Tumidih,"OP Jindal Industrial Park, Tumidih - CECB",22-01-2026 18:00:00,22.06631475,83.33820077,NH3,1,3,2
India,Delhi,Delhi,"Alipur, Delhi - DPCC",22-01-2026 18:00:00,28.815329,77.153010,SO2,7,16,12
India,Delhi,Delhi,"Mundka, Delhi - DPCC",22-01-2026 18:00:00,28.684678,77.076574,SO2,7,23,16
India,Delhi,Delhi,"Mundka, Delhi - DPCC",22-01-2026 18:00:00,28.684678,77.076574,OZONE,11,147,98
India,Delhi,Delhi,"Najafgarh, Delhi - DPCC",22-01-2026 18:00:00,28.570173,76.933762,PM10,103,226,153
India,Delhi,Delhi,"Najafgarh, Delhi - DPCC",22-01-2026 18:00:00,28.570173,76.933762,NH3,10,13,11
India,Delhi,Delhi,"Nehru Nagar, Delhi - DPCC",22-01-2026 18:00:00,28.567890,77.250515,PM2.5,233,499,381
India,Delhi,Delhi,"Nehru Nagar, Delhi - DPCC",22-01-2026 18:00:00,28.567890,77.250515,PM10,197,453,323
India,Delhi,Delhi,"Dwarka-Sector 8, Delhi - DPCC ",22-01-2026 18:00:00,28.5710274,77.0719006,PM2.5,180,426,346
India,Delhi,Delhi,"Dwarka-Sector 8, Delhi - DPCC ",22-01-2026 18:00:00,28.5710274,77.0719006,NH3,14,25,19
India,Delhi,Delhi,"IGI Airport (T3), Delhi - IMD",22-01-2026 18:00:00,28.5627763,77.1180053,PM10,111,443,301
India,Delhi,Delhi,"IHBAS, Dilshad Garden, Delhi - CPCB",22-01-2026 18:00:00,28.6811736,77.3025234,PM2.5,187,352,310
India,Chhattisgarh,Bhilai,"32Bungalows, Bhilai - CECB",22-01-2026 18:00:00,21.194815,81.314770,CO,24,62,32
India,Chhattisgarh,Bhilai,"Civic Center, Bhilai - Bhilai Steel Plant",22-01-2026 18:00:00,21.185571,81.343175,PM2.5,NA,NA,NA
India,Chhattisgarh,Chhal,"Nawapara SECL Colony, Chhal - CECB",22-01-2026 18:00:00,22.118125,83.140608,PM10,39,201,84
India,Delhi,Delhi,"Vivek Vihar, Delhi - DPCC",22-01-2026 18:00:00,28.672342,77.315260,NH3,11,14,12
India,Delhi,Delhi,"Vivek Vihar, Delhi - DPCC",22-01-2026 18:00:00,28.672342,77.315260,SO2,6,28,13
India,Delhi,Delhi,"Wazirpur, Delhi - DPCC",22-01-2026 18:00:00,28.699793,77.165453,NH3,9,12,11
India,Delhi,Delhi,"Wazirpur, Delhi - DPCC",22-01-2026 18:00:00,28.699793,77.165453,OZONE,45,63,60
India,Gujarat,Ahmedabad,"Chandkheda, Ahmedabad - IITM",22-01-2026 18:00:00,23.107969,72.574648,PM2.5,69,163,102
India,Gujarat,Ahmedabad,"Chandkheda, Ahmedabad - IITM",22-01-2026 18:00:00,23.107969,72.574648,PM10,112,182,146
India,Gujarat,Ahmedabad,"Chandkheda, Ahmedabad - IITM",22-01-2026 18:00:00,23.107969,72.574648,NO2,22,67,40
India,Gujarat,Ahmedabad,"Chandkheda, Ahmedabad - IITM",22-01-2026 18:00:00,23.107969,72.574648,NH3,4,7,5
India,Gujarat,Ahmedabad,"Gyaspur, Ahmedabad - IITM",22-01-2026 18:00:00,22.977134,72.553024,PM2.5,99,272,201
India,Gujarat,Ahmedabad,"Gyaspur, Ahmedabad - IITM",22-01-2026 18:00:00,22.977134,72.553024,CO,26,113,34
India,Gujarat,Ahmedabad,"Gyaspur, Ahmedabad - IITM",22-01-2026 18:00:00,22.977134,72.553024,OZONE,1,118,65
India,Delhi,Delhi,"Nehru Nagar, Delhi - DPCC",22-01-2026 18:00:00,28.567890,77.250515,SO2,3,25,15
India,Delhi,Delhi,"Nehru Nagar, Delhi - DPCC",22-01-2026 18:00:00,28.567890,77.250515,CO,4,128,69
India,Delhi,Delhi,"Okhla Phase-2, Delhi - DPCC",22-01-2026 18:00:00,28.530785,77.271255,PM2.5,177,414,345
India,Delhi,Delhi,"Okhla Phase-2, Delhi - DPCC",22-01-2026 18:00:00,28.530785,77.271255,SO2,10,68,22
India,Delhi,Delhi,"Patparganj, Delhi - DPCC",22-01-2026 18:00:00,28.623763,77.287209,NO2,46,170,103
India,Delhi,Delhi,"Patparganj, Delhi - DPCC",22-01-2026 18:00:00,28.623763,77.287209,NH3,12,17,14
India,Delhi,Delhi,"Punjabi Bagh, Delhi - DPCC",22-01-2026 18:00:00,28.674045,77.131023,PM10,130,431,319
India,Delhi,Delhi,"Pusa, Delhi - DPCC",22-01-2026 18:00:00,28.639652,77.146275,PM2.5,230,399,340
India,Delhi,Delhi,"Pusa, Delhi - DPCC",22-01-2026 18:00:00,28.639652,77.146275,OZONE,2,69,42
India,Delhi,Delhi,"Pusa, Delhi - IMD",22-01-2026 18:00:00,28.636110,77.173332,PM2.5,81,346,271
India,Delhi,Delhi,"R K Puram, Delhi - DPCC",22-01-2026 18:00:00,28.563262,77.186937,PM2.5,203,480,370
India,Delhi,Delhi,"Rohini, Delhi - DPCC",22-01-2026 18:00:00,28.732528,77.119920,NO2,32,115,61
India,Delhi,Delhi,"Rohini, Delhi - DPCC",22-01-2026 18:00:00,28.732528,77.119920,OZONE,3,300,165
India,Delhi,Delhi,"Shadipur, Delhi - CPCB",22-01-2026 18:00:00,28.6514781,77.1473105,PM2.5,251,348,313
India,Delhi,Delhi,"Sonia Vihar, Delhi - DPCC",22-01-2026 18:00:00,28.710508,77.249485,PM2.5,113,440,350
India,Delhi,Delhi,"Sonia Vihar, Delhi - DPCC",22-01-2026 18:00:00,28.710508,77.249485,NH3,7,10,8
India,Delhi,Delhi,"Sonia Vihar, Delhi - DPCC",22-01-2026 18:00:00,28.710508,77.249485,CO,50,168,50
India,Haryana,Charkhi Dadri,"Mini Secretariat, Charkhi Dadri - HSPCB",22-01-2026 18:00:00,28.593883,76.270653,SO2,9,11,10
India,Haryana,Dharuhera,"Municipal Corporation Office, Dharuhera -  HSPCB",22-01-2026 18:00:00,28.206800,76.799700,PM2.5,38,403,319
India,Haryana,Dharuhera,"Municipal Corporation Office, Dharuhera -  HSPCB",22-01-2026 18:00:00,28.206800,76.799700,PM10,41,407,272
India,Haryana,Dharuhera,"Municipal Corporation Office, Dharuhera -  HSPCB",22-01-2026 18:00:00,28.206800,76.799700,SO2,7,8,7
India,Haryana,Faridabad,"Sector 11, Faridabad - HSPCB",22-01-2026 18:00:00,28.376058,77.315741,NH3,10,10,10
India,Haryana,Faridabad,"Sector 30, Faridabad - HSPCB",22-01-2026 18:00:00,28.4417,77.3217,PM2.5,223,259,238
India,Gujarat,Ahmedabad,"Raikhad, Ahmedabad - IITM",22-01-2026 18:00:00,23.020509,72.579261,NO2,30,133,70
India,Gujarat,Ahmedabad,"Raikhad, Ahmedabad - IITM",22-01-2026 18:00:00,23.020509,72.579261,NH3,15,32,21
India,Gujarat,Ahmedabad,"Raikhad, Ahmedabad - IITM",22-01-2026 18:00:00,23.020509,72.579261,SO2,11,103,37
India,Gujarat,Ahmedabad,"Rakhial, Ahmedabad - IITM",22-01-2026 18:00:00,23.016834,72.625775,PM10,101,187,138
India,Gujarat,Ahmedabad,"SAC ISRO Bopal, Ahmedabad - IITM",22-01-2026 18:00:00,23.041137,72.456691,SO2,2,44,10
India,Gujarat,Ahmedabad,"SAC ISRO Bopal, Ahmedabad - IITM",22-01-2026 18:00:00,23.041137,72.456691,CO,23,54,39
India,Gujarat,Ahmedabad,"SAC ISRO Satellite, Ahmedabad - IITM",22-01-2026 18:00:00,23.023389,72.515201,NO2,10,38,20
India,Gujarat,Vatva,"Phase-4 GIDC, Vatva - GPCB",22-01-2026 18:00:00,22.969611,72.643500,PM10,123,277,166
India,Gujarat,Vatva,"Phase-4 GIDC, Vatva - GPCB",22-01-2026 18:00:00,22.969611,72.643500,SO2,35,42,37
India,Gujarat,Vatva,"Phase-4 GIDC, Vatva - GPCB",22-01-2026 18:00:00,22.969611,72.643500,CO,16,16,16
India,Haryana,Ambala,"Patti Mehar, Ambala - HSPCB",22-01-2026 18:00:00,30.379589,76.778328,NO2,20,25,22
India,Haryana,Ambala,"Patti Mehar, Ambala - HSPCB",22-01-2026 18:00:00,30.379589,76.778328,OZONE,10,21,14
India,Haryana,Ballabgarh,"Nathu Colony, Ballabgarh - HSPCB",22-01-2026 18:00:00,28.3419248,77.319699,SO2,1,7,5
India,Gujarat,Ankleshwar,"GIDC, Ankleshwar - GPCB",22-01-2026 18:00:00,21.613267,73.010555,OZONE,4,89,62
India,Gujarat,Gandhinagar,"GIFT City, Gandhinagar - IITM",22-01-2026 18:00:00,23.163798,72.677768,PM10,118,214,144
India,Gujarat,Gandhinagar,"Sector-10, Gandhinagar - GPCB",22-01-2026 18:00:00,23.221714,72.654328,PM2.5,78,162,102
India,Gujarat,Gandhinagar,"Sector-10, Gandhinagar - GPCB",22-01-2026 18:00:00,23.221714,72.654328,OZONE,3,127,79
India,Gujarat,Vapi,"Phase-1 GIDC, Vapi - GPCB",22-01-2026 18:00:00,20.362421,72.918013,PM10,NA,NA,NA
India,Haryana,Gurugram,"Sector-51, Gurugram - HSPCB",22-01-2026 18:00:00,28.4227,77.0667,OZONE,3,15,14
India,Haryana,Hisar,"Urban Estate-II, Hisar - HSPCB",22-01-2026 18:00:00,29.140560,75.744941,PM2.5,70,200,127
India,Haryana,Kurukshetra,"Sector-7, Kurukshetra - HSPCB",22-01-2026 18:00:00,29.966942,76.875879,PM2.5,91,287,169
India,Haryana,Manesar,"Sector-2 IMT, Manesar - HSPCB",22-01-2026 18:00:00,28.360699,76.936090,PM10,103,500,246
India,Karnataka,Mysuru,"Hebbal 1st Stage, Mysuru - KSPCB",22-01-2026 18:00:00,12.21041,76.37376,CO,8,104,15
India,Karnataka,Mysuru,"Hebbal 1st Stage, Mysuru - KSPCB",22-01-2026 18:00:00,12.21041,76.37376,OZONE,5,90,68
India,Karnataka,Ramanagara,"Vijay Nagar, Ramanagara - KSPCB",22-01-2026 18:00:00,12.733409,77.298051,NO2,18,49,31
India,Karnataka,Ramanagara,"Vijay Nagar, Ramanagara - KSPCB",22-01-2026 18:00:00,12.733409,77.298051,SO2,15,30,21
India,Karnataka,Shivamogga,"Vinoba Nagara, Shivamogga - KSPCB",22-01-2026 18:00:00,13.940000,75.555917,PM2.5,21,40,29
India,Karnataka,Shivamogga,"Vinoba Nagara, Shivamogga - KSPCB",22-01-2026 18:00:00,13.940000,75.555917,NO2,27,28,27
India,Karnataka,Shivamogga,"Vinoba Nagara, Shivamogga - KSPCB",22-01-2026 18:00:00,13.940000,75.555917,SO2,4,6,4
India,Karnataka,Shivamogga,"Vinoba Nagara, Shivamogga - KSPCB",22-01-2026 18:00:00,13.940000,75.555917,OZONE,7,68,61
India,Karnataka,Tumakuru,"Thimmalapura, Tumakuru - KSPCB",22-01-2026 18:00:00,13.377516,77.099072,CO,52,54,54
India,Karnataka,Vijayapura,"Ibrahimpur, Vijayapura - KSPCB",22-01-2026 18:00:00,16.802639,75.722694,OZONE,16,17,16
India,Haryana,Narnaul,"Shastri Nagar, Narnaul - HSPCB",22-01-2026 18:00:00,28.060249,76.113115,PM2.5,230,396,337
India,Haryana,Narnaul,"Shastri Nagar, Narnaul - HSPCB",22-01-2026 18:00:00,28.060249,76.113115,NO2,99,141,111
India,Haryana,Palwal,"Shyam Nagar, Palwal - HSPCB",22-01-2026 18:00:00,28.1485564,77.3320667,SO2,9,17,15
India,Haryana,Palwal,"Shyam Nagar, Palwal - HSPCB",22-01-2026 18:00:00,28.1485564,77.3320667,CO,19,51,27
India,Haryana,Panchkula,"Sector-6, Panchkula - HSPCB ",22-01-2026 18:00:00,30.7057778,76.8531805555555,PM2.5,61,294,150
India,Haryana,Panipat,"Sector-18, Panipat - HSPCB",22-01-2026 18:00:00,29.432304,76.972765,NH3,2,3,2
India,Haryana,Rohtak,"MD University, Rohtak - HSPCB",22-01-2026 18:00:00,28.52123,76.37138,SO2,10,13,12
India,Karnataka,Dharwad,"Kalabhavan, Dharwad - KSPCB",22-01-2026 18:00:00,15.459706,75.008381,OZONE,17,17,17
India,Karnataka,Hubballi,"Lingaraj Nagar, Hubballi - KSPCB",22-01-2026 18:00:00,15.3714823,75.1160168,PM2.5,45,50,47
India,Karnataka,Hubballi,"Lingaraj Nagar, Hubballi - KSPCB",22-01-2026 18:00:00,15.3714823,75.1160168,NH3,2,3,2
India,Karnataka,Kalaburagi,"Mahatma Basaveswar Colony, Kalaburgi - KSPCB",22-01-2026 18:00:00,17.336318,76.847397,NO2,12,22,16
India,Karnataka,Koppal,"Diwator Nagar, Koppal - KSPCB",22-01-2026 18:00:00,15.347630,76.181767,NO2,NA,NA,NA
India,Karnataka,Madikeri,"Stuart Hill, Madikeri - KSPCB",22-01-2026 18:00:00,12.415911,75.735050,SO2,7,7,7
India,Haryana,Sirsa,"F-Block, Sirsa - HSPCB",22-01-2026 18:00:00,29.536400,75.015800,PM10,95,135,120
India,Haryana,Sirsa,"F-Block, Sirsa - HSPCB",22-01-2026 18:00:00,29.536400,75.015800,SO2,5,18,12
India,Haryana,Sirsa,"F-Block, Sirsa - HSPCB",22-01-2026 18:00:00,29.536400,75.015800,CO,35,90,53
India,Haryana,Sonipat,"Murthal, Sonipat - HSPCB",22-01-2026 18:00:00,29.027200,77.062100,PM2.5,55,265,139
India,Haryana,Sonipat,"Murthal, Sonipat - HSPCB",22-01-2026 18:00:00,29.027200,77.062100,NO2,20,47,34
India,Jammu_and_Kashmir,Pampore,"Khrew, Pampore - JKPCC",22-01-2026 18:00:00,34.031606,75.009712,PM10,36,164,95
India,Jammu_and_Kashmir,Pampore,"Khrew, Pampore - JKPCC",22-01-2026 18:00:00,34.031606,75.009712,NO2,23,59,38
India,Jammu_and_Kashmir,Pampore,"Khrew, Pampore - JKPCC",22-01-2026 18:00:00,34.031606,75.009712,SO2,2,3,2
India,Karnataka,Chamarajanagar,"Urban, Chamarajanagar - KSPCB",22-01-2026 18:00:00,11.55358,76.55521,NO2,14,29,25
India,Karnataka,Chamarajanagar,"Urban, Chamarajanagar - KSPCB",22-01-2026 18:00:00,11.55358,76.55521,NH3,1,3,2
India,Karnataka,Chikkamagaluru,"Kalyana Nagara, Chikkamagaluru - KSPCB",22-01-2026 18:00:00,13.328028,75.797056,NH3,2,4,3
India,Karnataka,Chikkamagaluru,"Kalyana Nagara, Chikkamagaluru - KSPCB",22-01-2026 18:00:00,13.328028,75.797056,CO,11,143,39
India,Karnataka,Davanagere,"Devaraj Urs Badavane, Davanagere - KSPCB",22-01-2026 18:00:00,14.475800,75.905200,PM2.5,40,117,64
India,Karnataka,Davanagere,"Devaraj Urs Badavane, Davanagere - KSPCB",22-01-2026 18:00:00,14.475800,75.905200,NO2,23,41,30
India,Karnataka,Davanagere,"Devaraj Urs Badavane, Davanagere - KSPCB",22-01-2026 18:00:00,14.475800,75.905200,OZONE,20,21,20
India,Karnataka,Bengaluru,"Kasturi Nagar, Bengaluru - KSPCB",22-01-2026 18:00:00,13.003872,77.664217,SO2,NA,NA,NA
India,Karnataka,Bengaluru,"Peenya, Bengaluru - CPCB",22-01-2026 18:00:00,13.0270199,77.494094,PM2.5,20,66,33
India,Karnataka,Bengaluru,"Peenya, Bengaluru - CPCB",22-01-2026 18:00:00,13.0270199,77.494094,CO,6,26,7
India,Karnataka,Bengaluru,"Sanegurava Halli, Bengaluru - KSPCB",22-01-2026 18:00:00,12.990328,77.5431385,CO,18,74,28
India,Karnataka,Bengaluru,"Shivapura_Peenya, Bengaluru - KSPCB",22-01-2026 18:00:00,13.0246342,77.5080115,SO2,3,6,4
India,Karnataka,Bengaluru,"Silk Board, Bengaluru - KSPCB",22-01-2026 18:00:00,12.917348,77.622813,PM2.5,35,83,60
India,Karnataka,Bengaluru,"BWSSB Kadabesanahalli, Bengaluru - CPCB",22-01-2026 18:00:00,12.9352049,77.6814488,PM10,76,244,156
India,Karnataka,Bengaluru,"Bapuji Nagar, Bengaluru - KSPCB",22-01-2026 18:00:00,12.951913,77.539784,PM10,57,150,112
India,Karnataka,Bengaluru,"Bapuji Nagar, Bengaluru - KSPCB",22-01-2026 18:00:00,12.951913,77.539784,CO,2,38,4
India,Karnataka,Bengaluru,"City Railway Station, Bengaluru - KSPCB",22-01-2026 18:00:00,12.9756843,77.5660749,NO2,30,34,33
India,Karnataka,Bengaluru,"Hebbal, Bengaluru - KSPCB",22-01-2026 18:00:00,13.029152,77.585901,PM10,44,123,74
India,Jammu_and_Kashmir,Srinagar,"Rajbagh, Srinagar - JKPCC",22-01-2026 18:00:00,34.066206,74.819820,SO2,3,4,3
India,Karnataka,Bagalkot,"Vidayagiri, Bagalkot - KSPCB",22-01-2026 18:00:00,16.172806,75.659694,PM10,45,46,46
India,Karnataka,Bengaluru,"BTM Layout, Bengaluru - CPCB",22-01-2026 18:00:00,12.9135218,77.5950804,OZONE,22,23,23
India,Karnataka,Bengaluru,"Hebbal, Bengaluru - KSPCB",22-01-2026 18:00:00,13.029152,77.585901,CO,9,94,19
India,Karnataka,Bengaluru,"Hombegowda Nagar, Bengaluru - KSPCB",22-01-2026 18:00:00,12.938539,77.590100,NH3,2,4,3
India,Karnataka,Bengaluru,"Hombegowda Nagar, Bengaluru - KSPCB",22-01-2026 18:00:00,12.938539,77.590100,SO2,7,36,18
India,Kerala,Thiruvananthapuram,"Plammoodu, Thiruvananthapuram - Kerala PCB",22-01-2026 18:00:00,8.5149093,76.9435879,PM10,62,116,84
India,Kerala,Thrissur,"Corporation Ground, Thrissur - Kerala PCB",22-01-2026 18:00:00,10.532400,76.215900,NO2,7,8,8
India,Madhya Pradesh,Bhopal,"Idgah Hills, Bhopal - MPPCB",22-01-2026 18:00:00,23.264759,77.381568,CO,18,63,32
India,Madhya Pradesh,Bhopal,"Paryavaran Parisar, Bhopal - MPPCB",22-01-2026 18:00:00,23.210494,77.425409,PM2.5,63,243,121
India,Madhya Pradesh,Bhopal,"Paryavaran Parisar, Bhopal - MPPCB",22-01-2026 18:00:00,23.210494,77.425409,NO2,37,93,59
India,Madhya Pradesh,Bhopal,"Paryavaran Parisar, Bhopal - MPPCB",22-01-2026 18:00:00,23.210494,77.425409,SO2,2,12,8
India,Madhya Pradesh,Bhopal,"T T Nagar, Bhopal - MPPCB",22-01-2026 18:00:00,23.233584,77.400574,PM2.5,57,110,78
India,Madhya Pradesh,Bhopal,"T T Nagar, Bhopal - MPPCB",22-01-2026 18:00:00,23.233584,77.400574,NH3,7,8,8
India,Madhya Pradesh,Indore,"Residency Area, Indore - IMC",22-01-2026 18:00:00,22.7084,75.8815,SO2,3,7,5
India,Madhya Pradesh,Indore,"Residency Area, Indore - IMC",22-01-2026 18:00:00,22.7084,75.8815,OZONE,6,8,7
India,Madhya Pradesh,Jabalpur,"Govindh Bhavan Colony, Jabalpur - JMC",22-01-2026 18:00:00,23.163174,79.973061,NH3,1,1,1
India,Madhya Pradesh,Jabalpur,"Govindh Bhavan Colony, Jabalpur - JMC",22-01-2026 18:00:00,23.163174,79.973061,SO2,4,7,5
India,Madhya Pradesh,Jabalpur,"Gupteshwar, Jabalpur - JMC",22-01-2026 18:00:00,23.142888,79.916147,PM10,NA,NA,NA
India,Madhya Pradesh,Jabalpur,"Marhatal, Jabalpur - MPPCB",22-01-2026 18:00:00,23.168606,79.932247,NH3,2,3,2
India,Madhya Pradesh,Katni,"Gole Bazar, Katni - MPPCB",22-01-2026 18:00:00,23.50016,80.23284,PM10,46,307,125
India,Madhya Pradesh,Katni,"Gole Bazar, Katni - MPPCB",22-01-2026 18:00:00,23.50016,80.23284,NO2,12,73,42
India,Madhya Pradesh,Katni,"Gole Bazar, Katni - MPPCB",22-01-2026 18:00:00,23.50016,80.23284,NH3,3,5,4
India,Madhya Pradesh,Gwalior,"Maharaj Bada, Gwalior - MPPCB",22-01-2026 18:00:00,26.200388,78.147714,CO,1,162,46
India,Madhya Pradesh,Indore,"Airport Area, Indore - IMC",22-01-2026 18:00:00,22.7289,75.8076,NO2,8,93,39
India,Madhya Pradesh,Indore,"Chhoti Gwaltoli, Indore - MPPCB",22-01-2026 18:00:00,22.4310,75.5213,NH3,1,6,4
India,Madhya Pradesh,Indore,"Maguda Nagar, Indore - IMC",22-01-2026 18:00:00,22.7524,75.8872,PM10,NA,NA,NA
India,Madhya Pradesh,Indore,"Maguda Nagar, Indore - IMC",22-01-2026 18:00:00,22.7524,75.8872,CO,8,45,25
India,Madhya Pradesh,Indore,"Regional Park, Indore - IMC",22-01-2026 18:00:00,22.6780,75.8559,CO,4,48,16
India,Madhya Pradesh,Indore,"Regional Park, Indore - IMC",22-01-2026 18:00:00,22.6780,75.8559,OZONE,5,22,10
India,Madhya Pradesh,Indore,"Residency Area, Indore - IMC",22-01-2026 18:00:00,22.7084,75.8815,PM10,40,103,63
India,Madhya Pradesh,Mandideep,"Sector-D Industrial Area, Mandideep - MPPCB",22-01-2026 18:00:00,23.108440,77.511428,PM2.5,84,428,230
India,Madhya Pradesh,Pithampur,"Sector-2 Industrial Area, Pithampur - MPPCB",22-01-2026 18:00:00,22.624758,75.675238,PM2.5,118,303,210
India,Madhya Pradesh,Pithampur,"Sector-2 Industrial Area, Pithampur - MPPCB",22-01-2026 18:00:00,22.624758,75.675238,NO2,10,26,18
India,Madhya Pradesh,Ratlam,"Shasthri Nagar, Ratlam - IPCA Lab",22-01-2026 18:00:00,23.331731,75.045981,SO2,30,33,32
India,Madhya Pradesh,Sagar,"Deen Dayal Nagar, Sagar - MPPCB",22-01-2026 18:00:00,23.8640158,78.80289321,PM10,40,145,90
India,Madhya Pradesh,Sagar,"Deen Dayal Nagar, Sagar - MPPCB",22-01-2026 18:00:00,23.8640158,78.80289321,NO2,1,125,34
India,Madhya Pradesh,Singrauli,"Suryakiran Bhawan NCL, Singrauli - MPPCB",22-01-2026 18:00:00,24.108970,82.645580,SO2,25,135,55
India,Madhya Pradesh,Ujjain,"Mahashweta Nagar, Ujjain - MPPCB",22-01-2026 18:00:00,23.1633321,75.800225,PM10,51,172,93
India,Madhya Pradesh,Ujjain,"Mahashweta Nagar, Ujjain - MPPCB",22-01-2026 18:00:00,23.1633321,75.800225,NH3,4,15,11
India,Maharashtra,Akola,"Ramdaspeth, Akola - MPCB",22-01-2026 18:00:00,20.719516,77.000253,NO2,11,115,45
India,Maharashtra,Akola,"Ramdaspeth, Akola - MPCB",22-01-2026 18:00:00,20.719516,77.000253,OZONE,5,66,58
India,Maharashtra,Amravati,"Shivneri Colony, Amravati - MPCB",22-01-2026 18:00:00,20.9402359,77.7895248,SO2,28,36,31
India,Maharashtra,Aurangabad,"MIDC Chilkalthana, Aurangabad - MPCB",22-01-2026 18:00:00,19.875620,75.387310,NO2,23,84,48
India,Maharashtra,Aurangabad,"MIDC Chilkalthana, Aurangabad - MPCB",22-01-2026 18:00:00,19.875620,75.387310,OZONE,14,74,68
India,Maharashtra,Badlapur,"Katrap, Badlapur - MPCB",22-01-2026 18:00:00,19.16485,73.23409,NO2,12,37,25
India,Maharashtra,Badlapur,"Katrap, Badlapur - MPCB",22-01-2026 18:00:00,19.16485,73.23409,SO2,4,9,7
India,Maharashtra,Badlapur,"Katrap, Badlapur - MPCB",22-01-2026 18:00:00,19.16485,73.23409,CO,10,46,31
India,Maharashtra,Belapur,"CBD Belapur, Belapur - MPCB",22-01-2026 18:00:00,19.0243902,73.0406721,PM10,110,213,134
India,Maharashtra,Belapur,"CBD Belapur, Belapur - MPCB",22-01-2026 18:00:00,19.0243902,73.0406721,NH3,2,2,2
India,Maharashtra,Boisar,"Khaira, Boisar - MPCB",22-01-2026 18:00:00,19.786089,72.757971,PM10,80,134,100
India,Maharashtra,Boisar,"Khaira, Boisar - MPCB",22-01-2026 18:00:00,19.786089,72.757971,CO,12,86,29
India,Maharashtra,Chandrapur,"Chauhan Colony, Chandrapur - MPCB",22-01-2026 18:00:00,19.962900,79.298714,PM2.5,56,95,78
India,Maharashtra,Chandrapur,"Chauhan Colony, Chandrapur - MPCB",22-01-2026 18:00:00,19.962900,79.298714,PM10,103,289,156
India,Maharashtra,Chandrapur,"MIDC Khutala, Chandrapur - MPCB",22-01-2026 18:00:00,19.9775302,79.2337086,NH3,2,10,6
India,Maharashtra,Jalgaon,"Prabhat Colony, Jalgaon - MPCB",22-01-2026 18:00:00,21.001264,75.565602,PM10,32,422,124
India,Madhya Pradesh,Dewas,"Bhopal Chauraha, Dewas - MPPCB",22-01-2026 18:00:00,22.9682591,76.064118,OZONE,25,87,27
India,Madhya Pradesh,Gwalior,"City Center, Gwalior - MPPCB",22-01-2026 18:00:00,26.203442,78.193251,NH3,4,6,5
India,Madhya Pradesh,Gwalior,"City Center, Gwalior - MPPCB",22-01-2026 18:00:00,26.203442,78.193251,CO,27,133,43
India,Madhya Pradesh,Gwalior,"Deen Dayal Nagar, Gwalior - MPPCB",22-01-2026 18:00:00,26.259242,78.216432,NH3,8,14,11
India,Madhya Pradesh,Gwalior,"Deen Dayal Nagar, Gwalior - MPPCB",22-01-2026 18:00:00,26.259242,78.216432,SO2,2,27,7
India,Kerala,Eloor,"Udyogamandal, Eloor - Kerala PCB",22-01-2026 18:00:00,10.073232,76.302765,NO2,6,7,6
India,Kerala,Kollam,"Polayathode, Kollam - Kerala PCB",22-01-2026 18:00:00,8.8787,76.6073,PM10,85,119,102
India,Kerala,Thiruvananthapuram,"Plammoodu, Thiruvananthapuram - Kerala PCB",22-01-2026 18:00:00,8.5149093,76.9435879,PM2.5,41,83,57
India,Maharashtra,Kolhapur,"Sinchan Bhavan, Kolhapur - MPCB",22-01-2026 18:00:00,16.7143745,74.2426398,CO,28,84,38
India,Maharashtra,Latur,"Sawe Wadi, Latur - MPCB",22-01-2026 18:00:00,18.39963,76.57452,PM2.5,71,105,82
India,Maharashtra,Mahad,"Kamble Tarf Birwadi, Mahad - MPCB",22-01-2026 18:00:00,18.1023399,73.4783687,PM2.5,62,208,97
India,Maharashtra,Mahad,"Kamble Tarf Birwadi, Mahad - MPCB",22-01-2026 18:00:00,18.1023399,73.4783687,PM10,65,262,105
India,Maharashtra,Malegaon,"Mahesh Nagar, Malegaon - MPCB",22-01-2026 18:00:00,20.555712,74.529236,SO2,NA,NA,NA
India,Maharashtra,Mira-Bhayandar,"Bhayandar West, Mira-Bhayandar - MPCB",22-01-2026 18:00:00,19.296481,72.840923,PM2.5,81,254,150
India,Maharashtra,Mira-Bhayandar,"Bhayandar West, Mira-Bhayandar - MPCB",22-01-2026 18:00:00,19.296481,72.840923,NO2,22,127,69
India,Maharashtra,Mira-Bhayandar,"Bhayandar West, Mira-Bhayandar - MPCB",22-01-2026 18:00:00,19.296481,72.840923,NH3,1,9,5
India,Maharashtra,Mira-Bhayandar,"Bhayandar West, Mira-Bhayandar - MPCB",22-01-2026 18:00:00,19.296481,72.840923,SO2,12,15,13
India,Maharashtra,Mira-Bhayandar,"Bhayandar West, Mira-Bhayandar - MPCB",22-01-2026 18:00:00,19.296481,72.840923,CO,16,96,29
India,Maharashtra,Mumbai,"Sewri, Mumbai - BMC",22-01-2026 18:00:00,19.000084,72.856730,PM10,98,193,134
India,Maharashtra,Mumbai,"Sewri, Mumbai - BMC",22-01-2026 18:00:00,19.000084,72.856730,OZONE,1,20,18
India,Maharashtra,Mumbai,"Shivaji Nagar, Mumbai - BMC",22-01-2026 18:00:00,19.060498,72.923356,PM10,113,147,131
India,Maharashtra,Mumbai,"Shivaji Nagar, Mumbai - BMC",22-01-2026 18:00:00,19.060498,72.923356,SO2,1,41,12
India,Maharashtra,Mumbai,"Siddharth Nagar-Worli, Mumbai - IITM",22-01-2026 18:00:00,19.000083,72.813993,PM2.5,89,304,217
India,Maharashtra,Mumbai,"Siddharth Nagar-Worli, Mumbai - IITM",22-01-2026 18:00:00,19.000083,72.813993,PM10,74,206,147
India,Maharashtra,Mumbai,"Siddharth Nagar-Worli, Mumbai - IITM",22-01-2026 18:00:00,19.000083,72.813993,NH3,6,14,10
India,Maharashtra,Mumbai,"Sion, Mumbai - MPCB",22-01-2026 18:00:00,19.047000,72.874600,SO2,4,14,8
India,Maharashtra,Mumbai,"Vile Parle West, Mumbai - MPCB",22-01-2026 18:00:00,19.10861,72.83622,PM10,95,149,115
India,Maharashtra,Mumbai,"Vile Parle West, Mumbai - MPCB",22-01-2026 18:00:00,19.10861,72.83622,CO,91,103,102
India,Maharashtra,Nagpur,"Ambazari, Nagpur - MPCB",22-01-2026 18:00:00,21.121801,79.04952,SO2,10,26,18
India,Maharashtra,Nagpur,"Mahal, Nagpur - MPCB",22-01-2026 18:00:00,21.14472,79.107595,PM2.5,95,305,168
India,Maharashtra,Nagpur,"Opp GPO Civil Lines, Nagpur - MPCB",22-01-2026 18:00:00,21.152875,79.0517531,NH3,3,22,13
India,Maharashtra,Nagpur,"Opp GPO Civil Lines, Nagpur - MPCB",22-01-2026 18:00:00,21.152875,79.0517531,CO,18,128,30
India,Maharashtra,Nanded,"Sneh Nagar, Nanded - MPCB",22-01-2026 18:00:00,19.173852,77.296291,PM10,92,141,117
India,Maharashtra,Nanded,"Sneh Nagar, Nanded - MPCB",22-01-2026 18:00:00,19.173852,77.296291,NH3,4,5,4
India,Maharashtra,Nanded,"Sneh Nagar, Nanded - MPCB",22-01-2026 18:00:00,19.173852,77.296291,SO2,1,17,4
India,Maharashtra,Nashik,"Gangapur Road, Nashik - MPCB",22-01-2026 18:00:00,20.0073285,73.7762427,PM10,62,199,103
India,Maharashtra,Mumbai,"Bandra Kurla Complex, Mumbai - MPCB",22-01-2026 18:00:00,19.065931,72.862131,PM10,94,258,147
India,Maharashtra,Mumbai,"Bandra Kurla Complex, Mumbai - MPCB",22-01-2026 18:00:00,19.065931,72.862131,SO2,5,16,7
India,Maharashtra,Mumbai,"Bandra Kurla Complex, Mumbai - MPCB",22-01-2026 18:00:00,19.065931,72.862131,CO,12,18,16
India,Maharashtra,Mumbai,"Borivali East, Mumbai - IITM",22-01-2026 18:00:00,19.23241,72.86895,NO2,NA,NA,NA
India,Maharashtra,Mumbai,"Borivali East, Mumbai - IITM",22-01-2026 18:00:00,19.23241,72.86895,NH3,NA,NA,NA
India,Maharashtra,Mumbai,"Borivali East, Mumbai - MPCB",22-01-2026 18:00:00,19.2243333,72.8658113,PM2.5,30,65,41
India,Maharashtra,Mumbai,"Borivali East, Mumbai - MPCB",22-01-2026 18:00:00,19.2243333,72.8658113,CO,14,18,16
India,Maharashtra,Mumbai,"Byculla, Mumbai - BMC",22-01-2026 18:00:00,18.9767,72.8380,PM2.5,69,216,139
India,Maharashtra,Mumbai,"Byculla, Mumbai - BMC",22-01-2026 18:00:00,18.9767,72.8380,OZONE,1,41,33
India,Maharashtra,Nashik,"Hirawadi, Nashik - MPCB",22-01-2026 18:00:00,20.021503,73.813844,NH3,3,11,5
India,Maharashtra,Nashik,"Hirawadi, Nashik - MPCB",22-01-2026 18:00:00,20.021503,73.813844,CO,66,101,71
India,Maharashtra,Nashik,"MIDC Ambad, Nashik - MPCB",22-01-2026 18:00:00,19.950220,73.731480,SO2,17,22,19
India,Maharashtra,Nashik,"MIDC Ambad, Nashik - MPCB",22-01-2026 18:00:00,19.950220,73.731480,OZONE,7,62,55
India,Maharashtra,Nashik,"Pandav Nagari, Nashik - MPCB",22-01-2026 18:00:00,19.9591346,73.7788008,PM10,67,139,108
India,Maharashtra,Nashik,"Pandav Nagari, Nashik - MPCB",22-01-2026 18:00:00,19.9591346,73.7788008,NH3,3,7,5
India,Maharashtra,Navi Mumbai,"Mahape, Navi Mumbai - MPCB",22-01-2026 18:00:00,19.1135051,73.008978,PM10,65,187,135
India,Maharashtra,Mumbai,"Kandivali East, Mumbai - MPCB",22-01-2026 18:00:00,19.205800,72.868200,SO2,24,26,25
India,Maharashtra,Mumbai,"Kandivali West, Mumbai - BMC",22-01-2026 18:00:00,19.215859,72.831718,OZONE,1,88,69
India,Maharashtra,Mumbai,"Kherwadi_Bandra East, Mumbai - MPCB",22-01-2026 18:00:00,19.0632143,72.8456324,CO,6,60,21
India,Maharashtra,Mumbai,"Khindipada-Bhandup West, Mumbai - IITM",22-01-2026 18:00:00,19.1653323,72.922099,NH3,7,8,8
India,Maharashtra,Mumbai,"Kurla, Mumbai - MPCB",22-01-2026 18:00:00,19.0863,72.8888,PM2.5,99,210,142
India,Maharashtra,Mumbai,"Kurla, Mumbai - MPCB",22-01-2026 18:00:00,19.0863,72.8888,OZONE,28,29,28
India,Maharashtra,Mumbai,"Malad West, Mumbai - IITM",22-01-2026 18:00:00,19.19709,72.82204,NO2,NA,NA,NA
India,Maharashtra,Mumbai,"Malad West, Mumbai - IITM",22-01-2026 18:00:00,19.19709,72.82204,CO,26,99,39
India,Maharashtra,Mumbai,"Mazgaon, Mumbai - IITM",22-01-2026 18:00:00,18.96702,72.84214,NH3,NA,NA,NA
India,Maharashtra,Mumbai,"Mindspace-Malad West, Mumbai - MPCB",22-01-2026 18:00:00,19.1878657,72.8304069,NO2,22,136,69
India,Maharashtra,Mumbai,"Mindspace-Malad West, Mumbai - MPCB",22-01-2026 18:00:00,19.1878657,72.8304069,NH3,1,63,24
India,Maharashtra,Mumbai,"Mindspace-Malad West, Mumbai - MPCB",22-01-2026 18:00:00,19.1878657,72.8304069,CO,16,122,29
India,Maharashtra,Mumbai,"Navy Nagar-Colaba, Mumbai - IITM",22-01-2026 18:00:00,18.897756,72.813320,PM10,98,198,140
India,Maharashtra,Jalgaon,"Prabhat Colony, Jalgaon - MPCB",22-01-2026 18:00:00,21.001264,75.565602,SO2,4,12,7
India,Maharashtra,Jalgaon,"Prabhat Colony, Jalgaon - MPCB",22-01-2026 18:00:00,21.001264,75.565602,OZONE,3,76,71
India,Maharashtra,Kalyan,"Khadakpada, Kalyan - MPCB",22-01-2026 18:00:00,19.25292,73.142019,NO2,36,36,36
India,Maharashtra,Kalyan,"Pimpleshwar Mandir, Kalyan - MPCB",22-01-2026 18:00:00,19.192056,72.9585188,CO,26,26,26
India,Maharashtra,Kolhapur,"Sinchan Bhavan, Kolhapur - MPCB",22-01-2026 18:00:00,16.7143745,74.2426398,PM10,51,136,85
India,Maharashtra,Mumbai,"Chembur, Mumbai - MPCB",22-01-2026 18:00:00,19.0364585,72.8954371,CO,28,84,38
India,Maharashtra,Mumbai,"Chhatrapati Shivaji Intl. Airport (T2), Mumbai - MPCB",22-01-2026 18:00:00,19.10078,72.87462,PM10,86,197,135
India,Maharashtra,Mumbai,"Chhatrapati Shivaji Intl. Airport (T2), Mumbai - MPCB",22-01-2026 18:00:00,19.10078,72.87462,NO2,1,1,1
India,Maharashtra,Parbhani,"Masoom Colony, Parbhani - MPCB",22-01-2026 18:00:00,19.265594,76.761463,SO2,2,14,9
India,Maharashtra,Pimpri-Chinchwad,"Gavalinagar, Pimpri Chinchwad - MPCB",22-01-2026 18:00:00,18.63673,73.82487,CO,20,75,26
India,Maharashtra,Pimpri-Chinchwad,"Park Street Wakad, Pimpri Chinchwad - MPCB",22-01-2026 18:00:00,18.59051,73.77946,PM2.5,43,184,110
India,Maharashtra,Pimpri-Chinchwad,"Park Street Wakad, Pimpri Chinchwad - MPCB",22-01-2026 18:00:00,18.59051,73.77946,NH3,4,10,6
India,Maharashtra,Pimpri-Chinchwad,"Park Street Wakad, Pimpri Chinchwad - MPCB",22-01-2026 18:00:00,18.59051,73.77946,SO2,3,8,5
India,Maharashtra,Pimpri-Chinchwad,"Thergaon, Pimpri Chinchwad - MPCB",22-01-2026 18:00:00,18.616318,73.765797,PM2.5,44,139,85
India,Maharashtra,Pimpri-Chinchwad,"Thergaon, Pimpri Chinchwad - MPCB",22-01-2026 18:00:00,18.616318,73.765797,NH3,5,6,6
India,Maharashtra,Pimpri-Chinchwad,"Thergaon, Pimpri Chinchwad - MPCB",22-01-2026 18:00:00,18.616318,73.765797,SO2,2,5,3
India,Maharashtra,Pimpri-Chinchwad,"Thergaon, Pimpri Chinchwad - MPCB",22-01-2026 18:00:00,18.616318,73.765797,CO,24,100,37
India,Maharashtra,Pune,"Bhosari, Pune - IITM",22-01-2026 18:00:00,18.640051,73.848956,PM2.5,39,195,109
India,Maharashtra,Pune,"Bhosari, Pune - IITM",22-01-2026 18:00:00,18.640051,73.848956,PM10,58,161,115
India,Maharashtra,Pune,"Bhumkar Nagar, Pune - IITM",22-01-2026 18:00:00,18.605770,73.749976,PM2.5,203,317,291
India,Maharashtra,Pune,"Bhumkar Nagar, Pune - IITM",22-01-2026 18:00:00,18.605770,73.749976,CO,11,86,27
India,Maharashtra,Pune,"Bhumkar Nagar, Pune - IITM",22-01-2026 18:00:00,18.605770,73.749976,OZONE,1,121,74
India,Maharashtra,Navi Mumbai,"Mahape, Navi Mumbai - MPCB",22-01-2026 18:00:00,19.1135051,73.008978,NH3,3,3,3
India,Maharashtra,Navi Mumbai,"Mahape, Navi Mumbai - MPCB",22-01-2026 18:00:00,19.1135051,73.008978,SO2,20,23,21
India,Maharashtra,Navi Mumbai,"Mahape, Navi Mumbai - MPCB",22-01-2026 18:00:00,19.1135051,73.008978,CO,18,20,19
India,Maharashtra,Navi Mumbai,"Mahape, Navi Mumbai - MPCB",22-01-2026 18:00:00,19.1135051,73.008978,OZONE,8,12,10
India,Maharashtra,Navi Mumbai,"Nerul, Navi Mumbai - MPCB",22-01-2026 18:00:00,19.008751,73.016620,SO2,NA,NA,NA
India,Maharashtra,Navi Mumbai,"Sanpada, Navi Mumbai - MPCB",22-01-2026 18:00:00,19.0575752,73.0151367,NO2,23,40,32
India,Maharashtra,Navi Mumbai,"Sanpada, Navi Mumbai - MPCB",22-01-2026 18:00:00,19.0575752,73.0151367,SO2,11,23,16
India,Maharashtra,Navi Mumbai,"Sector-2E Kalamboli, Navi Mumbai - MPCB",22-01-2026 18:00:00,19.02579,73.10297,PM2.5,39,95,69
India,Maharashtra,Navi Mumbai,"Sector-2E Kalamboli, Navi Mumbai - MPCB",22-01-2026 18:00:00,19.02579,73.10297,SO2,3,23,8
India,Maharashtra,Navi Mumbai,"Tondare-Taloja, Navi Mumbai - MPCB",22-01-2026 18:00:00,19.0630,73.1209,PM2.5,64,218,121
India,Maharashtra,Parbhani,"Masoom Colony, Parbhani - MPCB",22-01-2026 18:00:00,19.265594,76.761463,PM10,82,136,107
India,Maharashtra,Parbhani,"Masoom Colony, Parbhani - MPCB",22-01-2026 18:00:00,19.265594,76.761463,NO2,51,99,59
India,Maharashtra,Parbhani,"Masoom Colony, Parbhani - MPCB",22-01-2026 18:00:00,19.265594,76.761463,NH3,3,5,4
India,Odisha,Balasore,"Kalidaspur, Balasore - OSPCB",22-01-2026 18:00:00,21.51161,86.89088,PM2.5,92,328,177
India,Odisha,Balasore,"Kalidaspur, Balasore - OSPCB",22-01-2026 18:00:00,21.51161,86.89088,PM10,104,194,132
India,Odisha,Balasore,"Kalidaspur, Balasore - OSPCB",22-01-2026 18:00:00,21.51161,86.89088,NO2,13,45,28
India,Odisha,Baripada,"Meher Colony, Baripada - OSPCB",22-01-2026 18:00:00,21.941841,86.728318,NH3,1,7,5
India,Odisha,Baripada,"Meher Colony, Baripada - OSPCB",22-01-2026 18:00:00,21.941841,86.728318,CO,19,107,23
India,Odisha,Baripada,"Meher Colony, Baripada - OSPCB",22-01-2026 18:00:00,21.941841,86.728318,OZONE,1,93,80
India,Odisha,Bhubaneswar,"Lingraj Mandir, Bhubaneswar - OSPCB",22-01-2026 18:00:00,20.240790,85.836784,PM2.5,60,260,170
India,Odisha,Bhubaneswar,"Lingraj Mandir, Bhubaneswar - OSPCB",22-01-2026 18:00:00,20.240790,85.836784,CO,68,122,80
India,Odisha,Bhubaneswar,"Patia, Bhubaneswar - OSPCB",22-01-2026 18:00:00,20.34652,85.81630,NH3,6,9,8
India,Odisha,Bileipada,"Tata Township, Bileipada - OSPCB",22-01-2026 18:00:00,22.06156703,85.47409613,PM2.5,94,288,192
India,Maharashtra,Thane,"Upvan Fort, Thane - MPCB",22-01-2026 18:00:00,19.222279,72.957979,CO,46,92,58
India,Maharashtra,Ulhasnagar,"Sidhi Vinayak Nagar, Ulhasnagar - MPCB",22-01-2026 18:00:00,19.235581,73.159121,SO2,10,29,16
India,Maharashtra,Virar,"Bolinj, Virar - MPCB",22-01-2026 18:00:00,19.4458210,72.7988231,PM10,82,369,199
India,Meghalaya,Shillong,"Lumpyngngad, Shillong - Meghalaya PCB",22-01-2026 18:00:00,25.5586,91.8985,SO2,10,13,12
India,Nagaland,Kohima,"PWD Junction, Kohima - NPCB",22-01-2026 18:00:00,25.6635413,94.0989878,PM2.5,23,83,45
India,Nagaland,Kohima,"PWD Junction, Kohima - NPCB",22-01-2026 18:00:00,25.6635413,94.0989878,SO2,76,78,77
India,Odisha,Angul,"Hakimapada, Angul - OSPCB",22-01-2026 18:00:00,20.832874,85.104082,NH3,8,15,12
India,Odisha,Angul,"Hakimapada, Angul - OSPCB",22-01-2026 18:00:00,20.832874,85.104082,CO,7,127,30
India,Odisha,Keonjhar,"Jagamohanpur, Keonjhar - OSPCB",22-01-2026 18:00:00,21.643900,85.599355,PM2.5,62,262,145
India,Odisha,Keonjhar,"Jagamohanpur, Keonjhar - OSPCB",22-01-2026 18:00:00,21.643900,85.599355,SO2,NA,NA,NA
India,Odisha,Rourkela,"Raghunathpali, Rourkela - OSPCB",22-01-2026 18:00:00,22.220833,84.809444,NO2,15,22,16
India,Odisha,Rourkela,"Raghunathpali, Rourkela - OSPCB",22-01-2026 18:00:00,22.220833,84.809444,NH3,1,2,1
India,Odisha,Rourkela,"Sector-2, Rourkela - OSPCB",22-01-2026 18:00:00,22.24500000,84.88111111,PM10,43,215,112
India,Odisha,Rourkela,"Sector-2, Rourkela - OSPCB",22-01-2026 18:00:00,22.24500000,84.88111111,CO,30,70,33
India,Odisha,Suakati,"OMC Colony, Suakati - OSPCB",22-01-2026 18:00:00,21.606865,85.510538,PM2.5,58,258,164
India,Odisha,Suakati,"OMC Colony, Suakati - OSPCB",22-01-2026 18:00:00,21.606865,85.510538,PM10,104,191,143
India,Maharashtra,Pune,"Katraj Dairy, Pune - MPCB",22-01-2026 18:00:00,18.454450,73.854155,OZONE,3,19,16
India,Maharashtra,Pune,"Mhada Colony, Pune - IITM",22-01-2026 18:00:00,18.573040,73.927715,CO,2,2,2
India,Maharashtra,Pune,"Panchawati_Pashan, Pune - IITM",22-01-2026 18:00:00,18.536457,73.805454,PM2.5,69,229,141
India,Maharashtra,Pune,"Revenue Colony-Shivajinagar, Pune - IITM",22-01-2026 18:00:00,18.530085,73.849598,NO2,38,136,71
India,Maharashtra,Pune,"Revenue Colony-Shivajinagar, Pune - IITM",22-01-2026 18:00:00,18.530085,73.849598,CO,66,110,84
India,Maharashtra,Pune,"Savitribai Phule Pune University, Pune - MPCB",22-01-2026 18:00:00,18.547056,73.826908,CO,12,90,18
India,Maharashtra,Pune,"Savitribai Phule Pune University, Pune - MPCB",22-01-2026 18:00:00,18.547056,73.826908,OZONE,3,61,54
India,Odisha,Suakati,"OMC Colony, Suakati - OSPCB",22-01-2026 18:00:00,21.606865,85.510538,SO2,6,44,22
India,Odisha,Talcher,"Talcher Coalfields,Talcher - OSPCB",22-01-2026 18:00:00,20.9360711,85.1707021,NH3,6,8,7
India,Puducherry,Puducherry,"Jawahar Nagar, Puducherry - PPCC",22-01-2026 18:00:00,11.9309,79.8027,OZONE,29,62,59
India,Punjab,Amritsar,"Golden Temple, Amritsar - PPCB",22-01-2026 18:00:00,31.620000,74.876512,PM2.5,51,240,119
India,Punjab,Amritsar,"Golden Temple, Amritsar - PPCB",22-01-2026 18:00:00,31.620000,74.876512,CO,27,62,44
India,Odisha,Bileipada,"Tata Township, Bileipada - OSPCB",22-01-2026 18:00:00,22.06156703,85.47409613,NO2,6,7,6
India,Odisha,Brajrajnagar,"GM Office, Brajrajnagar - OSPCB",22-01-2026 18:00:00,21.8004996,83.8396977,PM10,30,418,135
India,Odisha,Brajrajnagar,"GM Office, Brajrajnagar - OSPCB",22-01-2026 18:00:00,21.8004996,83.8396977,SO2,19,21,20
India,Odisha,Brajrajnagar,"GM Office, Brajrajnagar - OSPCB",22-01-2026 18:00:00,21.8004996,83.8396977,OZONE,28,33,28
India,Odisha,Cuttack,"CDA Area, Cuttack - OSPCB",22-01-2026 18:00:00,20.48891     ,85.84768     ,PM2.5,83,263,146
India,Maharashtra,Pune,"Transport Nagar-Nigdi, Pune - IITM",22-01-2026 18:00:00,18.664282,73.763966,PM10,133,241,171
India,Maharashtra,Pune,"Transport Nagar-Nigdi, Pune - IITM",22-01-2026 18:00:00,18.664282,73.763966,OZONE,1,46,31
India,Maharashtra,Solapur,"Ratandeep Housing Society, Solapur - MPCB",22-01-2026 18:00:00,17.65439,75.90649,PM2.5,NA,NA,NA
India,Maharashtra,Thane,"Kasarvadavali, Thane - MPCB",22-01-2026 18:00:00,19.26777,72.97182,PM2.5,7,104,73
India,Punjab,Khanna,"Kalal Majra, Khanna - PPCB",22-01-2026 18:00:00,30.736056 ,76.209694,CO,40,89,54
India,Punjab,Ludhiana,"Punjab Agricultural University, Ludhiana - PPCB",22-01-2026 18:00:00,30.9028,75.8086,SO2,15,51,30
India,Punjab,Ludhiana,"Punjab Agricultural University, Ludhiana - PPCB",22-01-2026 18:00:00,30.9028,75.8086,OZONE,14,25,18
India,Punjab,Mandi Gobindgarh,"RIMT University, Mandi Gobindgarh - PPCB",22-01-2026 18:00:00,30.649961,76.331442,NH3,6,6,6
India,Punjab,Mandi Gobindgarh,"RIMT University, Mandi Gobindgarh - PPCB",22-01-2026 18:00:00,30.649961,76.331442,SO2,17,61,33
India,Punjab,Patiala,"Model Town, Patiala - PPCB",22-01-2026 18:00:00,30.349388,76.366642,NH3,6,7,6
India,Punjab,Rupnagar,"Ratanpura, Rupnagar - Ambuja Cements",22-01-2026 18:00:00,31.0325454,76.5623046,PM2.5,5,33,21
India,Punjab,Rupnagar,"Ratanpura, Rupnagar - Ambuja Cements",22-01-2026 18:00:00,31.0325454,76.5623046,CO,37,48,42
India,Rajasthan,Ajmer,"Civil Lines,  Ajmer - RSPCB",22-01-2026 18:00:00,26.470859,74.646594,NH3,4,4,4
India,Rajasthan,Ajmer,"Civil Lines,  Ajmer - RSPCB",22-01-2026 18:00:00,26.470859,74.646594,SO2,3,16,7
India,Rajasthan,Ajmer,"Civil Lines,  Ajmer - RSPCB",22-01-2026 18:00:00,26.470859,74.646594,CO,21,30,23
India,Rajasthan,Alwar,"Moti Doongri, Alwar - RSPCB",22-01-2026 18:00:00,27.554793,76.611536,PM10,108,168,132
India,Rajasthan,Bhiwadi,"RIICO Ind. Area III, Bhiwadi - RSPCB",22-01-2026 18:00:00,28.194909,76.862296,NO2,23,91,54
India,Rajasthan,Bhiwadi,"RIICO Ind. Area III, Bhiwadi - RSPCB",22-01-2026 18:00:00,28.194909,76.862296,SO2,1,28,14
India,Rajasthan,Bhiwadi,"Vasundhara Nagar_UIT, Bhiwadi - RSPCB",22-01-2026 18:00:00,28.207266,76.829265,PM2.5,103,471,311
India,Rajasthan,Bhiwadi,"Vasundhara Nagar_UIT, Bhiwadi - RSPCB",22-01-2026 18:00:00,28.207266,76.829265,OZONE,3,97,81
India,Rajasthan,Bikaner,"MM Ground, Bikaner - RSPCB",22-01-2026 18:00:00,28.018792,73.292658,PM2.5,63,242,137
India,Rajasthan,Bikaner,"MM Ground, Bikaner - RSPCB",22-01-2026 18:00:00,28.018792,73.292658,PM10,106,404,228
India,Rajasthan,Bikaner,"MM Ground, Bikaner - RSPCB",22-01-2026 18:00:00,28.018792,73.292658,NO2,12,133,47
India,Rajasthan,Bundi,"New Colony, Bundi - RSPCB",22-01-2026 18:00:00,25.435774,75.644272,PM10,70,170,103
India,Rajasthan,Chittorgarh,"Shastri Nagar, Chittorgarh - RSPCB",22-01-2026 18:00:00,24.892047,74.623527,PM10,84,257,140
India,Rajasthan,Chittorgarh,"Shastri Nagar, Chittorgarh - RSPCB",22-01-2026 18:00:00,24.892047,74.623527,NH3,6,7,6
India,Rajasthan,Jaisalmer,"Sadar Bazar, Jaisalmer - RSPCB",22-01-2026 18:00:00,26.912329,70.909168,NO2,15,65,27
India,Rajasthan,Jalore,"Mudtra Sili, Jalore - RSPCB",22-01-2026 18:00:00,25.344694,72.626208,PM2.5,82,321,145
India,Rajasthan,Jalore,"Mudtra Sili, Jalore - RSPCB",22-01-2026 18:00:00,25.344694,72.626208,CO,34,126,40
India,Rajasthan,Jhalawar,"Rajlaxmi Nagar, Jhalawar - RSPCB",22-01-2026 18:00:00,24.588397,76.172782,NO2,73,122,97
India,Rajasthan,Jhalawar,"Rajlaxmi Nagar, Jhalawar - RSPCB",22-01-2026 18:00:00,24.588397,76.172782,NH3,3,10,5
India,Rajasthan,Jhunjhunu,"Indra Nagar, Jhunjhunu - RSPCB",22-01-2026 18:00:00,28.108988,75.386577,OZONE,39,119,100
India,Rajasthan,Jodhpur,"Collectorate, Jodhpur - RSPCB",22-01-2026 18:00:00,26.268249,73.0193853,PM10,53,165,85
India,Rajasthan,Jodhpur,"Collectorate, Jodhpur - RSPCB",22-01-2026 18:00:00,26.268249,73.0193853,NH3,7,41,15
India,Rajasthan,Churu,"Subash Chowk, Churu - RSPCB",22-01-2026 18:00:00,28.296139,74.961696,NH3,13,27,17
India,Rajasthan,Churu,"Subash Chowk, Churu - RSPCB",22-01-2026 18:00:00,28.296139,74.961696,CO,26,59,32
India,Rajasthan,Dausa,"Khatikan Mohalla, Dausa - RSPCB",22-01-2026 18:00:00,26.895552,76.334753,NO2,9,116,45
India,Rajasthan,Dausa,"Khatikan Mohalla, Dausa - RSPCB",22-01-2026 18:00:00,26.895552,76.334753,SO2,1,26,5
India,Rajasthan,Dholpur,"Raja Ganj, Dholpur - RSPCB",22-01-2026 18:00:00,26.699557,77.898881,NO2,54,104,66
India,Rajasthan,Dholpur,"Raja Ganj, Dholpur - RSPCB",22-01-2026 18:00:00,26.699557,77.898881,NH3,9,15,11
India,Rajasthan,Dholpur,"Raja Ganj, Dholpur - RSPCB",22-01-2026 18:00:00,26.699557,77.898881,CO,56,100,87
India,Rajasthan,Hanumangarh,"Housing Board, Hanumangarh - RSPCB",22-01-2026 18:00:00,29.610750,74.283608,NH3,15,26,19
India,Rajasthan,Hanumangarh,"Housing Board, Hanumangarh - RSPCB",22-01-2026 18:00:00,29.610750,74.283608,SO2,4,10,6
India,Rajasthan,Jodhpur,"Digari Kalan, Jodhpur - RSPCB",22-01-2026 18:00:00,26.295810,73.082283,SO2,2,15,6
India,Rajasthan,Jodhpur,"Jhalamand, Jodhpur - RSPCB",22-01-2026 18:00:00,26.215415,73.070156,NH3,6,17,13
India,Rajasthan,Jodhpur,"Jhalamand, Jodhpur - RSPCB",22-01-2026 18:00:00,26.215415,73.070156,OZONE,2,90,80
India,Rajasthan,Jodhpur,"Mandor, Jodhpur - RSPCB",22-01-2026 18:00:00,26.358805,73.047444,PM2.5,60,277,118
India,Rajasthan,Jodhpur,"Mandor, Jodhpur - RSPCB",22-01-2026 18:00:00,26.358805,73.047444,NO2,14,45,25
India,Rajasthan,Jodhpur,"Mandor, Jodhpur - RSPCB",22-01-2026 18:00:00,26.358805,73.047444,NH3,4,7,5
India,Rajasthan,Jodhpur,"Samrat Ashok Udhyan, Jodhpur - RSPCB",22-01-2026 18:00:00,26.253384,72.976571,OZONE,4,163,160
India,Rajasthan,Karauli,"Satyawati Vihar, Karauli - RSPCB",22-01-2026 18:00:00,26.506177,77.025989,CO,34,67,44
India,Rajasthan,Alwar,"Moti Doongri, Alwar - RSPCB",22-01-2026 18:00:00,27.554793,76.611536,NH3,10,13,12
India,Rajasthan,Alwar,"Moti Doongri, Alwar - RSPCB",22-01-2026 18:00:00,27.554793,76.611536,OZONE,9,92,29
India,Rajasthan,Banswara,"Rati Talai, Banswara - RSPCB",22-01-2026 18:00:00,23.555190,74.440010,PM10,50,230,110
India,Rajasthan,Barmer,"Railway Colony, Barmer - RSPCB",22-01-2026 18:00:00,25.747299,71.393989,PM10,68,482,158
India,Rajasthan,Bhilwara,"Pratap Nagar, Bhilwara - RSPCB",22-01-2026 18:00:00,25.339605,74.618883,PM10,76,328,117
India,Rajasthan,Bhilwara,"Pratap Nagar, Bhilwara - RSPCB",22-01-2026 18:00:00,25.339605,74.618883,SO2,5,64,19
India,Rajasthan,Kota,"Dhanmandi, Kota - RSPCB",22-01-2026 18:00:00,25.164090,75.858137,NH3,8,12,10
India,Rajasthan,Kota,"Dhanmandi, Kota - RSPCB",22-01-2026 18:00:00,25.164090,75.858137,OZONE,3,124,87
India,Rajasthan,Kota,"Nayapura, Kota - RSPCB",22-01-2026 18:00:00,25.196024,75.855668,PM10,65,188,140
India,Rajasthan,Kota,"Shrinath Puram, Kota - RSPCB",22-01-2026 18:00:00,25.14389,75.821256,CO,7,105,44
India,Rajasthan,Pali,"Indira Colony Vistar, Pali - RSPCB",22-01-2026 18:00:00,25.771061, 73.340227,NH3,4,18,7
India,Rajasthan,Pali,"Indira Colony Vistar, Pali - RSPCB",22-01-2026 18:00:00,25.771061, 73.340227,SO2,8,16,12
India,Rajasthan,Pratapgarh,"Pragati Nagar, Pratapgarh - RSPCB",22-01-2026 18:00:00,24.041198,74.780702,NH3,4,9,6
India,Rajasthan,Sawai Madhopur,"Sahu Nagar, Sawai Madhopur - RSPCB",22-01-2026 18:00:00,26.031443,76.359327,NO2,1,67,22
India,Rajasthan,Sawai Madhopur,"Sahu Nagar, Sawai Madhopur - RSPCB",22-01-2026 18:00:00,26.031443,76.359327,NH3,2,6,4
India,Rajasthan,Sawai Madhopur,"Sahu Nagar, Sawai Madhopur - RSPCB",22-01-2026 18:00:00,26.031443,76.359327,SO2,1,8,4
India,Rajasthan,Sikar,"Radhakishan Pura, Sikar - RSPCB",22-01-2026 18:00:00,27.608912,75.153302,NH3,8,13,11
India,Rajasthan,Jaipur,"Mansarovar Sector-12, Jaipur - RSPCB",22-01-2026 18:00:00,26.843698,75.766894,NH3,12,20,15
India,Rajasthan,Jaipur,"Police Commissionerate, Jaipur - RSPCB",22-01-2026 18:00:00,26.9164092,75.7994901,NH3,4,32,13
India,Rajasthan,Jaipur,"Police Commissionerate, Jaipur - RSPCB",22-01-2026 18:00:00,26.9164092,75.7994901,CO,52,75,69
India,Rajasthan,Jaipur,"RIICO Sitapura, Jaipur - RSPCB",22-01-2026 18:00:00,26.786682,75.827928,OZONE,26,139,115
India,TamilNadu,Madurai,"Uchapatti, Madurai - TNPCB",22-01-2026 18:00:00,9.865935,78.022669,PM10,NA,NA,NA
India,TamilNadu,Madurai,"Uchapatti, Madurai - TNPCB",22-01-2026 18:00:00,9.865935,78.022669,NO2,NA,NA,NA
India,TamilNadu,Madurai,"Uchapatti, Madurai - TNPCB",22-01-2026 18:00:00,9.865935,78.022669,CO,24,26,26
India,TamilNadu,Nagapattinam,"Velippalayam, Nagapattinam - TNPCB",22-01-2026 18:00:00,10.798548,79.838212,PM10,NA,NA,NA
India,TamilNadu,Nagapattinam,"Velippalayam, Nagapattinam - TNPCB",22-01-2026 18:00:00,10.798548,79.838212,NH3,NA,NA,NA
India,TamilNadu,Nagapattinam,"Velippalayam, Nagapattinam - TNPCB",22-01-2026 18:00:00,10.798548,79.838212,SO2,NA,NA,NA
India,TamilNadu,Nagapattinam,"Velippalayam, Nagapattinam - TNPCB",22-01-2026 18:00:00,10.798548,79.838212,CO,22,28,25
India,TamilNadu,Ooty,"Bombay Castel, Ooty - TNPCB",22-01-2026 18:00:00,11.4068288,76.7138973,PM10,48,159,83
India,TamilNadu,Ooty,"Bombay Castel, Ooty - TNPCB",22-01-2026 18:00:00,11.4068288,76.7138973,SO2,13,15,14
India,TamilNadu,Ooty,"Bombay Castel, Ooty - TNPCB",22-01-2026 18:00:00,11.4068288,76.7138973,OZONE,5,7,6
India,TamilNadu,Perundurai,"SIPCOT Industrial Park, Perundurai - TNPCB",22-01-2026 18:00:00,11.258242,77.552761,PM10,21,119,67
India,TamilNadu,Perundurai,"SIPCOT Industrial Park, Perundurai - TNPCB",22-01-2026 18:00:00,11.258242,77.552761,NO2,13,15,14
India,TamilNadu,Pudukottai,"SIPCOT Nathampannai, Pudukottai - TNPCB",22-01-2026 18:00:00,10.423417,78.784889,PM2.5,22,66,46
India,Telangana,Hyderabad,"ICRISAT Patancheru, Hyderabad - TSPCB",22-01-2026 18:00:00,17.518400,78.278777,NH3,2,16,7
India,Telangana,Hyderabad,"IDA Pashamylaram, Hyderabad - TSPCB",22-01-2026 18:00:00,17.5316895,78.218939,OZONE,12,15,12
India,Telangana,Hyderabad,"IITH Kandi, Hyderabad - TSPCB",22-01-2026 18:00:00,17.585705,78.126199,NO2,11,17,15
India,Telangana,Hyderabad,"IITH Kandi, Hyderabad - TSPCB",22-01-2026 18:00:00,17.585705,78.126199,NH3,3,5,4
India,Telangana,Hyderabad,"Kokapet, Hyderabad - TSPCB",22-01-2026 18:00:00,17.393559,78.339194,NO2,13,15,14
India,Telangana,Hyderabad,"Kompally Municipal Office, Hyderabad - TSPCB",22-01-2026 18:00:00,17.544899,78.486949,PM2.5,45,57,50
India,Telangana,Hyderabad,"Kompally Municipal Office, Hyderabad - TSPCB",22-01-2026 18:00:00,17.544899,78.486949,PM10,59,92,73
India,Telangana,Hyderabad,"Kompally Municipal Office, Hyderabad - TSPCB",22-01-2026 18:00:00,17.544899,78.486949,SO2,8,47,12
India,Rajasthan,Sikar,"Radhakishan Pura, Sikar - RSPCB",22-01-2026 18:00:00,27.608912,75.153302,SO2,4,15,8
India,Rajasthan,Sirohi,"Vedhaynath Colony, Sirohi - RSPCB",22-01-2026 18:00:00,24.885261,72.857549,PM2.5,37,92,57
India,Rajasthan,Sirohi,"Vedhaynath Colony, Sirohi - RSPCB",22-01-2026 18:00:00,24.885261,72.857549,NO2,12,91,37
India,Rajasthan,Sirohi,"Vedhaynath Colony, Sirohi - RSPCB",22-01-2026 18:00:00,24.885261,72.857549,OZONE,21,107,100
India,Rajasthan,Tonk,"Shastri Nagar, Tonk - RSPCB",22-01-2026 18:00:00,26.159933,75.780517,PM10,118,500,215
India,Rajasthan,Udaipur,"Ashok Nagar, Udaipur - RSPCB",22-01-2026 18:00:00,24.5886166,73.6321397,PM10,103,179,138
India,Rajasthan,Udaipur,"Ashok Nagar, Udaipur - RSPCB",22-01-2026 18:00:00,24.5886166,73.6321397,CO,14,116,49
India,TamilNadu,Chennai,"Royapuram, Chennai - TNPCB",22-01-2026 18:00:00,13.1036,80.2909,NO2,1,14,2
India,TamilNadu,Chennai,"Velachery Res. Area, Chennai - CPCB",22-01-2026 18:00:00,13.0052189,80.2398125,OZONE,2,8,8
India,TamilNadu,Coimbatore,"PSG College of Arts and Science, Coimbatore - TNPCB",22-01-2026 18:00:00,11.0328,77.0349,PM2.5,46,213,103
India,TamilNadu,Coimbatore,"SIDCO Kurichi, Coimbatore - TNPCB",22-01-2026 18:00:00,10.942451,76.978996,CO,40,54,41
India,TamilNadu,Coimbatore,"SIDCO Kurichi, Coimbatore - TNPCB",22-01-2026 18:00:00,10.942451,76.978996,OZONE,10,10,10
India,TamilNadu,Cuddalore,"Semmandalam, Cuddalore - TNPCB",22-01-2026 18:00:00,11.7637683,79.7499835,NH3,1,3,2
India,Telangana,Hyderabad,"Nacharam_TSIIC IALA, Hyderabad - TSPCB",22-01-2026 18:00:00,17.429398,78.569354,NO2,9,16,11
India,Telangana,Hyderabad,"Nacharam_TSIIC IALA, Hyderabad - TSPCB",22-01-2026 18:00:00,17.429398,78.569354,OZONE,15,37,35
India,Telangana,Hyderabad,"Ramachandrapuram, Hyderabad - TSPCB",22-01-2026 18:00:00,17.528544,78.286195,PM10,64,84,71
India,Telangana,Hyderabad,"Ramachandrapuram, Hyderabad - TSPCB",22-01-2026 18:00:00,17.528544,78.286195,OZONE,22,36,31
India,Telangana,Hyderabad,"Sanathnagar, Hyderabad - TSPCB",22-01-2026 18:00:00,17.4559458,78.4332152,SO2,3,60,15
India,Telangana,Hyderabad,"Somajiguda, Hyderabad - TSPCB",22-01-2026 18:00:00,17.417094,78.457437,SO2,14,16,15
India,Telangana,Hyderabad,"Somajiguda, Hyderabad - TSPCB",22-01-2026 18:00:00,17.417094,78.457437,CO,12,34,15
India,Telangana,Hyderabad,"Somajiguda, Hyderabad - TSPCB",22-01-2026 18:00:00,17.417094,78.457437,OZONE,9,38,30
India,TamilNadu,Chennai,"Arumbakkam, Chennai - TNPCB",22-01-2026 18:00:00,13.0664,80.2112 ,PM2.5,45,177,81
India,TamilNadu,Chennai,"Arumbakkam, Chennai - TNPCB",22-01-2026 18:00:00,13.0664,80.2112 ,NO2,8,17,13
India,TamilNadu,Chennai,"Manali, Chennai - CPCB",22-01-2026 18:00:00,13.164544,80.26285,NO2,NA,NA,NA
India,TamilNadu,Chennai,"Manali, Chennai - CPCB",22-01-2026 18:00:00,13.164544,80.26285,CO,20,36,27
India,TamilNadu,Chennai,"Perungudi, Chennai - TNPCB",22-01-2026 18:00:00,12.9533,80.2357,PM2.5,18,207,66
India,TamilNadu,Chennai,"Perungudi, Chennai - TNPCB",22-01-2026 18:00:00,12.9533,80.2357,NH3,1,2,1
India,TamilNadu,Chennai,"Perungudi, Chennai - TNPCB",22-01-2026 18:00:00,12.9533,80.2357,SO2,3,9,5
India,TamilNadu,Chennai,"Perungudi, Chennai - TNPCB",22-01-2026 18:00:00,12.9533,80.2357,CO,28,62,38
India,TamilNadu,Thoothukudi,"Meelavittan, Thoothukudi - TNPCB",22-01-2026 18:00:00,8.816428 ,78.099039,PM10,34,113,56
India,TamilNadu,Thoothukudi,"Meelavittan, Thoothukudi - TNPCB",22-01-2026 18:00:00,8.816428 ,78.099039,CO,20,68,36
India,TamilNadu,Thoothukudi,"Meelavittan, Thoothukudi - TNPCB",22-01-2026 18:00:00,8.816428 ,78.099039,OZONE,1,34,10
India,Telangana,Hyderabad,"Bollaram Industrial Area, Hyderabad - TSPCB",22-01-2026 18:00:00,17.540891,78.358528,CO,8,66,35
India,Telangana,Hyderabad,"Central University, Hyderabad - TSPCB",22-01-2026 18:00:00,17.460103,78.334361,CO,25,52,29
India,Uttar_Pradesh,Agra,"Manoharpur, Agra - UPPCB",22-01-2026 18:00:00,27.23711,78.01936,NH3,4,4,4
India,Uttar_Pradesh,Agra,"Rohta, Agra - UPPCB",22-01-2026 18:00:00,27.106972,78.000111,NO2,13,13,13
India,Uttar_Pradesh,Agra,"Shahjahan Garden, Agra - UPPCB",22-01-2026 18:00:00,27.169338,78.03582,NO2,7,12,10
India,Uttar_Pradesh,Agra,"Shastripuram, Agra - UPPCB",22-01-2026 18:00:00,27.19862,77.92066,NH3,3,3,3
India,Uttar_Pradesh,Agra,"Shastripuram, Agra - UPPCB",22-01-2026 18:00:00,27.19862,77.92066,CO,18,63,23
India,Uttar_Pradesh,Agra,"Manoharpur, Agra - UPPCB",22-01-2026 18:00:00,27.23711,78.01936,PM2.5,76,309,163
India,Uttar_Pradesh,Noida,"Sector - 125, Noida - UPPCB",22-01-2026 18:00:00,28.5447608,77.3231257,PM10,132,500,271
India,Uttar_Pradesh,Noida,"Sector - 125, Noida - UPPCB",22-01-2026 18:00:00,28.5447608,77.3231257,NO2,36,230,94
India,Uttar_Pradesh,Noida,"Sector - 62, Noida - IMD",22-01-2026 18:00:00,28.6245479,77.3577104,OZONE,16,132,80
India,Uttar_Pradesh,Noida,"Sector-1, Noida - UPPCB",22-01-2026 18:00:00,28.5898,77.3101,PM10,153,312,237
India,Uttar_Pradesh,Noida,"Sector-1, Noida - UPPCB",22-01-2026 18:00:00,28.5898,77.3101,NO2,16,27,19
India,Uttar_Pradesh,Noida,"Sector-1, Noida - UPPCB",22-01-2026 18:00:00,28.5898,77.3101,NH3,7,8,7
India,Uttar_Pradesh,Noida,"Sector-116, Noida - UPPCB",22-01-2026 18:00:00,28.569230,77.393848,CO,8,148,14
India,Uttar_Pradesh,Noida,"Sector-116, Noida - UPPCB",22-01-2026 18:00:00,28.569230,77.393848,OZONE,7,177,106
India,Uttar_Pradesh,Prayagraj,"Jhunsi, Prayagraj - UPPCB",22-01-2026 18:00:00,25.425602,81.917152,NH3,5,5,5
India,Uttar_Pradesh,Prayagraj,"Motilal Nehru NIT, Prayagraj - UPPCB",22-01-2026 18:00:00,25.494,81.863,PM10,46,86,65
India,Uttar_Pradesh,Prayagraj,"Motilal Nehru NIT, Prayagraj - UPPCB",22-01-2026 18:00:00,25.494,81.863,NH3,7,9,8
India,Uttar_Pradesh,Gorakhpur,"Madan Mohan Malaviya University of Technology, Gorakhpur - UPPCB",22-01-2026 18:00:00,26.730136,83.433859,PM10,2,160,89
India,Uttar_Pradesh,Gorakhpur,"Madan Mohan Malaviya University of Technology, Gorakhpur - UPPCB",22-01-2026 18:00:00,26.730136,83.433859,CO,4,6,5
India,Uttar_Pradesh,Greater Noida,"Knowledge Park - III, Greater Noida - UPPCB",22-01-2026 18:00:00,28.47272,77.482000,OZONE,3,88,68
India,Uttar_Pradesh,Greater Noida,"Knowledge Park - V, Greater Noida - UPPCB",22-01-2026 18:00:00,28.557054,77.453663,PM2.5,139,457,338
India,Uttar_Pradesh,Greater Noida,"Knowledge Park - V, Greater Noida - UPPCB",22-01-2026 18:00:00,28.557054,77.453663,NH3,16,27,19
India,Uttar_Pradesh,Greater Noida,"Knowledge Park - V, Greater Noida - UPPCB",22-01-2026 18:00:00,28.557054,77.453663,SO2,8,24,14
India,Uttar_Pradesh,Greater Noida,"Knowledge Park - V, Greater Noida - UPPCB",22-01-2026 18:00:00,28.557054,77.453663,CO,31,128,39
India,Uttar_Pradesh,Jhansi,"Shivaji Nagar, Jhansi - UPPCB",22-01-2026 18:00:00,25.4547,78.6039,PM10,50,144,74
India,Uttar_Pradesh,Jhansi,"Shivaji Nagar, Jhansi - UPPCB",22-01-2026 18:00:00,25.4547,78.6039,NO2,6,6,6
India,Uttar_Pradesh,Prayagraj,"Nagar Nigam, Prayagraj - UPPCB",22-01-2026 18:00:00,25.44919916 ,81.82735986 ,PM2.5,34,94,59
India,Uttar_Pradesh,Prayagraj,"Nagar Nigam, Prayagraj - UPPCB",22-01-2026 18:00:00,25.44919916 ,81.82735986 ,CO,26,96,31
India,Uttar_Pradesh,Varanasi,"Ardhali Bazar, Varanasi - UPPCB",22-01-2026 18:00:00,25.3505986,82.9083074,PM10,42,96,67
India,Uttar_Pradesh,Varanasi,"Ardhali Bazar, Varanasi - UPPCB",22-01-2026 18:00:00,25.3505986,82.9083074,SO2,9,11,10
India,Uttar_Pradesh,Varanasi,"Bhelupur, Varanasi - UPPCB",22-01-2026 18:00:00,25.301778,82.996789,PM2.5,49,338,139
India,Uttar_Pradesh,Varanasi,"IESD Banaras Hindu University, Varanasi - UPPCB",22-01-2026 18:00:00,25.262326,82.995408,PM2.5,11,80,46
India,Uttar_Pradesh,Varanasi,"Maldahiya, Varanasi - UPPCB",22-01-2026 18:00:00,25.32393,82.99687,NO2,2,2,2
India,Uttar_Pradesh,Vrindavan,"Omex Eternity, Vrindavan - UPPCB",22-01-2026 18:00:00,27.5714090,77.6557570,PM2.5,NA,NA,NA
India,Uttar_Pradesh,Firozabad,"Nagla Bhau, Firozabad - UPPCB",22-01-2026 18:00:00,27.168897,78.376960,OZONE,14,16,14
India,Uttar_Pradesh,Firozabad,"Vibhab Nagar, Firozabad - UPPCB",22-01-2026 18:00:00,27.1594,78.3953,PM10,38,121,75
India,Uttar_Pradesh,Ghaziabad,"Indirapuram, Ghaziabad - UPPCB",22-01-2026 18:00:00,28.646233,77.358075,PM2.5,222,487,348
India,Uttar_Pradesh,Ghaziabad,"Indirapuram, Ghaziabad - UPPCB",22-01-2026 18:00:00,28.646233,77.358075,CO,10,155,55
India,Uttar_Pradesh,Ghaziabad,"Loni, Ghaziabad - UPPCB",22-01-2026 18:00:00,28.757294,77.278792,PM2.5,280,498,412
India,Uttar_Pradesh,Ghaziabad,"Sanjay Nagar, Ghaziabad - UPPCB",22-01-2026 18:00:00,28.685382,77.453839,PM2.5,97,378,309
India,Uttar_Pradesh,Ghaziabad,"Sanjay Nagar, Ghaziabad - UPPCB",22-01-2026 18:00:00,28.685382,77.453839,NH3,6,36,12
India,Uttar_Pradesh,Ghaziabad,"Vasundhara, Ghaziabad - UPPCB",22-01-2026 18:00:00,28.6603346,77.3572563,NH3,10,21,15
India,Uttar_Pradesh,Lucknow,"Gomti Nagar, Lucknow - UPPCB",22-01-2026 18:00:00,26.868120,81.005119,NO2,6,9,7
India,Uttar_Pradesh,Lucknow,"Kendriya Vidyalaya, Lucknow - CPCB",22-01-2026 18:00:00,26.906111,80.948222,CO,2,120,47
India,Uttar_Pradesh,Lucknow,"Lalbagh, Lucknow - CPCB",22-01-2026 18:00:00,26.8458805,80.9365541,PM2.5,63,319,211
India,Uttar_Pradesh,Lucknow,"Talkatora District Industries Center, Lucknow - CPCB",22-01-2026 18:00:00,26.83399722,80.8917361,PM2.5,88,327,214
India,Uttar_Pradesh,Lucknow,"Talkatora District Industries Center, Lucknow - CPCB",22-01-2026 18:00:00,26.83399722,80.8917361,SO2,4,21,10
India,Uttar_Pradesh,Meerut,"Ganga Nagar, Meerut - UPPCB",22-01-2026 18:00:00,28.999264,77.7590354,PM2.5,100,273,164
India,Uttar_Pradesh,Jhansi,"Shivaji Nagar, Jhansi - UPPCB",22-01-2026 18:00:00,25.4547,78.6039,OZONE,1,31,8
India,Uttar_Pradesh,Kanpur,"NSI Kalyanpur, Kanpur - UPPCB",22-01-2026 18:00:00,26.509954,80.249612,SO2,22,45,24
India,Uttar_Pradesh,Kanpur,"Nehru Nagar, Kanpur - UPPCB",22-01-2026 18:00:00,26.4703136,80.3229863,NO2,49,56,53
India,Uttar_Pradesh,Lucknow,"B R Ambedkar University, Lucknow - UPPCB",22-01-2026 18:00:00,26.766433,80.927299,PM2.5,47,123,82
India,Uttar_Pradesh,Lucknow,"B R Ambedkar University, Lucknow - UPPCB",22-01-2026 18:00:00,26.766433,80.927299,NO2,4,5,5
India,Uttar_Pradesh,Lucknow,"B R Ambedkar University, Lucknow - UPPCB",22-01-2026 18:00:00,26.766433,80.927299,NH3,4,6,5
India,Uttar_Pradesh,Lucknow,"B R Ambedkar University, Lucknow - UPPCB",22-01-2026 18:00:00,26.766433,80.927299,OZONE,17,86,74
India,Uttar_Pradesh,Moradabad,"Employment Office, Moradabad - UPPCB",22-01-2026 18:00:00,28.88528,78.73880,CO,1,50,38
India,Uttar_Pradesh,Moradabad,"Jigar Colony, Moradabad - UPPCB",22-01-2026 18:00:00,28.856664,78.772638,NH3,6,6,6
India,Uttar_Pradesh,Moradabad,"Kashiram Nagar, Moradabad - UPPCB",22-01-2026 18:00:00,28.849399,78.742362,CO,24,48,29
India,Uttar_Pradesh,Moradabad,"Transport Nagar, Moradabad - UPPCB",22-01-2026 18:00:00,28.802625,78.753728,PM2.5,41,114,66
India,Uttar_Pradesh,Muzaffarnagar,"New Mandi, Muzaffarnagar - UPPCB",22-01-2026 18:00:00,29.4723508,77.7194031,NO2,30,103,53
India,Uttar_Pradesh,Muzaffarnagar,"New Mandi, Muzaffarnagar - UPPCB",22-01-2026 18:00:00,29.4723508,77.7194031,CO,29,92,43
India,Uttar_Pradesh,Meerut,"Jai Bhim Nagar, Meerut - UPPCB",22-01-2026 18:00:00,28.9535882,77.7622941,CO,36,100,44
India,Uttar_Pradesh,Meerut,"Jai Bhim Nagar, Meerut - UPPCB",22-01-2026 18:00:00,28.9535882,77.7622941,OZONE,11,178,145
India,Uttar_Pradesh,Meerut,"Pallavpuram Phase 2, Meerut - UPPCB",22-01-2026 18:00:00,29.063510,77.709723,PM2.5,153,367,283
India,Uttar_Pradesh,Meerut,"Pallavpuram Phase 2, Meerut - UPPCB",22-01-2026 18:00:00,29.063510,77.709723,OZONE,6,152,103
India,Uttar_Pradesh,Moradabad,"Eco Herbal Park, Moradabad - UPPCB",22-01-2026 18:00:00,28.840739,78.697531,PM10,99,182,130
India,Uttar_Pradesh,Bareilly,"Civil Lines, Bareilly - UPPCB",22-01-2026 18:00:00,28.359581,79.414455,PM2.5,12,59,35
India,Uttar_Pradesh,Bareilly,"Civil Lines, Bareilly - UPPCB",22-01-2026 18:00:00,28.359581,79.414455,PM10,48,88,64
India,Uttar_Pradesh,Bareilly,"Civil Lines, Bareilly - UPPCB",22-01-2026 18:00:00,28.359581,79.414455,NH3,1,1,1
India,Uttar_Pradesh,Bareilly,"Civil Lines, Bareilly - UPPCB",22-01-2026 18:00:00,28.359581,79.414455,CO,47,78,54
India,Uttar_Pradesh,Bareilly,"Rajendra Nagar, Bareilly - UPPCB",22-01-2026 18:00:00,28.38910936,79.42963708,NO2,9,10,9
India,Uttar_Pradesh,Vrindavan,"Omex Eternity, Vrindavan - UPPCB",22-01-2026 18:00:00,27.5714090,77.6557570,CO,24,53,25
India,Uttarakhand,Kashipur,"Govt. Girls Inter College, Kashipur - UKPCB",22-01-2026 18:00:00,29.2124114,78.9611753,PM10,NA,NA,NA
India,Uttarakhand,Kashipur,"Govt. Girls Inter College, Kashipur - UKPCB",22-01-2026 18:00:00,29.2124114,78.9611753,SO2,NA,NA,NA
India,West_Bengal,Asansol,"Evelyn Lodge, Asansol - WBPCB",22-01-2026 18:00:00,23.6979360,86.9443950,SO2,6,18,9
India,West_Bengal,Asansol,"Mahabir Colliery, Asansol - WBPCB",22-01-2026 18:00:00,23.6181830,87.1057180,PM10,64,164,127
India,West_Bengal,Asansol,"Mahabir Colliery, Asansol - WBPCB",22-01-2026 18:00:00,23.6181830,87.1057180,NH3,1,2,1
India,West_Bengal,Durgapur,"PCBL Residential Complex, Durgapur - WBPCB",22-01-2026 18:00:00,23.5087640,87.3544400,SO2,5,9,5
India,West_Bengal,Durgapur,"PCBL Residential Complex, Durgapur - WBPCB",22-01-2026 18:00:00,23.5087640,87.3544400,OZONE,5,6,6
India,West_Bengal,Durgapur,"Womens College_City Center, Durgapur - WBPCB",22-01-2026 18:00:00,23.549395,87.300496,PM10,80,176,133
India,West_Bengal,Howrah,"Belur Math, Howrah - WBPCB",22-01-2026 18:00:00,22.629801,88.352017,CO,17,111,22
India,West_Bengal,Howrah,"Ghusuri, Howrah - WBPCB",22-01-2026 18:00:00,22.611968,88.347422,NH3,8,27,17
India,West_Bengal,Kolkata,"Ballygunge, Kolkata - WBPCB",22-01-2026 18:00:00,22.5367507,88.3638022,NO2,32,143,78
India,West_Bengal,Kolkata,"Bidhannagar, Kolkata - WBPCB",22-01-2026 18:00:00,22.58157048,88.41002457,PM2.5,49,93,67
India,West_Bengal,Kolkata,"Bidhannagar, Kolkata - WBPCB",22-01-2026 18:00:00,22.58157048,88.41002457,NO2,14,25,20
India,West_Bengal,Kolkata,"Bidhannagar, Kolkata - WBPCB",22-01-2026 18:00:00,22.58157048,88.41002457,CO,12,84,16
India,West_Bengal,Kolkata,"Fort William, Kolkata - WBPCB",22-01-2026 18:00:00,22.556640,88.342674,NH3,9,11,10
India,West_Bengal,Kolkata,"Fort William, Kolkata - WBPCB",22-01-2026 18:00:00,22.556640,88.342674,OZONE,32,79,72
India,West_Bengal,Kolkata,"Jadavpur, Kolkata - WBPCB",22-01-2026 18:00:00,22.49929,88.36917,PM2.5,85,346,223
India,West_Bengal,Kolkata,"Rabindra Sarobar, Kolkata - WBPCB",22-01-2026 18:00:00,22.51106,88.35142,PM2.5,46,219,118
India,West_Bengal,Kolkata,"Victoria, Kolkata - WBPCB",22-01-2026 18:00:00,22.5448082,88.3403691,SO2,7,29,19
India,West_Bengal,Siliguri,"Ward-32 Bapupara, Siliguri - WBPCB",22-01-2026 18:00:00,26.6879226,88.4152495,NH3,10,10,10
India,West_Bengal,Siliguri,"Ward-32 Bapupara, Siliguri - WBPCB",22-01-2026 18:00:00,26.6879226,88.4152495,CO,34,100,54
India,Assam,Guwahati,"LGBI Airport, Guwahati - PCBA",22-01-2026 18:00:00,26.10887,91.589544,OZONE,12,15,14
India,Assam,Guwahati,"Pan Bazaar, Guwahati - PCBA",22-01-2026 18:00:00,26.187500,91.744194,SO2,24,46,33
India,Assam,Guwahati,"Pan Bazaar, Guwahati - PCBA",22-01-2026 18:00:00,26.187500,91.744194,OZONE,17,18,17
India,Assam,Guwahati,"Railway Colony, Guwahati - PCBA",22-01-2026 18:00:00,26.181742,91.78063,PM2.5,124,387,286
India,Assam,Nagaon,"Christianpatty, Nagaon - PCBA",22-01-2026 18:00:00,26.349082,92.68449,NO2,1,7,2
India,Assam,Nalbari,"Bata Chowk, Nalbari - PCBA",22-01-2026 18:00:00,26.446912,91.439057,PM10,102,120,112
India,Assam,Nalbari,"Bata Chowk, Nalbari - PCBA",22-01-2026 18:00:00,26.446912,91.439057,SO2,6,8,8
India,Assam,Silchar,"Tarapur, Silchar - PCBA",22-01-2026 18:00:00,24.82827,92.79525,NH3,1,1,1
India,Assam,Silchar,"Tarapur, Silchar - PCBA",22-01-2026 18:00:00,24.82827,92.79525,OZONE,2,6,4
India,Assam,Sivasagar,"Girls College, Sivasagar - PCBA",22-01-2026 18:00:00,26.987634,94.636574,PM2.5,NA,NA,NA
India,Bihar,Patna,"Muradpur, Patna - BSPCB",22-01-2026 18:00:00,25.619651,85.147382,OZONE,4,15,14
India,Bihar,Patna,"Rajbansi Nagar, Patna - BSPCB",22-01-2026 18:00:00,25.599486,85.113666,NO2,10,106,44
India,Bihar,Patna,"Rajbansi Nagar, Patna - BSPCB",22-01-2026 18:00:00,25.599486,85.113666,NH3,5,8,7
India,Bihar,Patna,"Rajbansi Nagar, Patna - BSPCB",22-01-2026 18:00:00,25.599486,85.113666,OZONE,19,29,25
India,Bihar,Patna,"Samanpura, Patna - BSPCB",22-01-2026 18:00:00,25.596727,85.085624,PM10,85,180,144
India,Bihar,Patna,"Samanpura, Patna - BSPCB",22-01-2026 18:00:00,25.596727,85.085624,OZONE,9,139,104
India,Bihar,Purnia,"Mariam Nagar, Purnia - BSPCB",22-01-2026 18:00:00,25.366336,87.117468,PM10,NA,NA,NA
India,Bihar,Rajgir,"Dangi Tola, Rajgir - BSPCB",22-01-2026 18:00:00,25.03280,85.41948,CO,77,104,97
India,Bihar,Rajgir,"Dangi Tola, Rajgir - BSPCB",22-01-2026 18:00:00,25.03280,85.41948,OZONE,26,35,31
India,Bihar,Saharsa,"Police Line, Saharsa - BSPCB",22-01-2026 18:00:00,25.892357,86.590325,PM2.5,45,272,120
India,Bihar,Muzaffarpur,"Buddha Colony, Muzaffarpur - BSPCB",22-01-2026 18:00:00,26.11442,85.39813,PM2.5,56,149,102
India,Bihar,Muzaffarpur,"Buddha Colony, Muzaffarpur - BSPCB",22-01-2026 18:00:00,26.11442,85.39813,PM10,80,117,101
India,Bihar,Muzaffarpur,"Buddha Colony, Muzaffarpur - BSPCB",22-01-2026 18:00:00,26.11442,85.39813,NH3,2,14,10
India,Bihar,Muzaffarpur,"MIT-Daudpur Kothi, Muzaffarpur - BSPCB",22-01-2026 18:00:00,26.1403345,85.3650192,OZONE,16,65,43
India,Bihar,Muzaffarpur,"Muzaffarpur Collectorate, Muzaffarpur - BSPCB",22-01-2026 18:00:00,26.1209,85.3647,PM2.5,88,117,103
India,Bihar,Patna,"DRM Office Danapur, Patna - BSPCB",22-01-2026 18:00:00,25.586562,85.043586,NH3,6,11,8
India,Bihar,Patna,"IGSC Planetarium Complex, Patna - BSPCB",22-01-2026 18:00:00,25.610369,85.132568,PM2.5,33,89,64
India,Bihar,Patna,"IGSC Planetarium Complex, Patna - BSPCB",22-01-2026 18:00:00,25.610369,85.132568,SO2,1,39,20
India,Bihar,Patna,"IGSC Planetarium Complex, Patna - BSPCB",22-01-2026 18:00:00,25.610369,85.132568,CO,34,82,34
India,Bihar,Chhapra,"Darshan Nagar, Chhapra - BSPCB",22-01-2026 18:00:00,25.7808257,84.7446768,PM2.5,38,147,79
India,Bihar,Chhapra,"Darshan Nagar, Chhapra - BSPCB",22-01-2026 18:00:00,25.7808257,84.7446768,NO2,1,2,1
India,Bihar,Gaya,"Kareemganj, Gaya - BSPCB",22-01-2026 18:00:00,24.792403,84.992416,PM10,103,270,148
India,Bihar,Gaya,"SFTI Kusdihra, Gaya - BSPCB",22-01-2026 18:00:00,24.762518,84.982348,PM2.5,45,55,49
India,Bihar,Gaya,"SFTI Kusdihra, Gaya - BSPCB",22-01-2026 18:00:00,24.762518,84.982348,NO2,19,23,21
India,Bihar,Gaya,"SFTI Kusdihra, Gaya - BSPCB",22-01-2026 18:00:00,24.762518,84.982348,NH3,3,5,4
India,Bihar,Hajipur,"Industrial Area, Hajipur - BSPCB",22-01-2026 18:00:00,25.697189,85.245900,PM10,82,121,104
India,Bihar,Hajipur,"Industrial Area, Hajipur - BSPCB",22-01-2026 18:00:00,25.697189,85.245900,NH3,12,15,13
India,Bihar,Hajipur,"Industrial Area, Hajipur - BSPCB",22-01-2026 18:00:00,25.697189,85.245900,SO2,5,8,7
India,Andhra_Pradesh,Vijayawada,"Rajiv Gandhi Park, Vijayawada - APPCB",22-01-2026 18:00:00,16.509717,80.612222,NH3,1,5,4
India,Andhra_Pradesh,Vijayawada,"Rajiv Gandhi Park, Vijayawada - APPCB",22-01-2026 18:00:00,16.509717,80.612222,SO2,11,16,13
India,Andhra_Pradesh,Vijayawada,"Rajiv Nagar, Vijayawada - APPCB",22-01-2026 18:00:00,16.554731,80.649110,SO2,14,30,16
India,Andhra_Pradesh,Vijayawada,"Rajiv Nagar, Vijayawada - APPCB",22-01-2026 18:00:00,16.554731,80.649110,CO,4,12,8
India,Andhra_Pradesh,Vijayawada,"Rajiv Nagar, Vijayawada - APPCB",22-01-2026 18:00:00,16.554731,80.649110,OZONE,25,27,25
India,Arunachal_Pradesh,Naharlagun,"Naharlagun, Naharlagun - APSPCB",22-01-2026 18:00:00,27.103358,93.679645,OZONE,5,6,6
India,Assam,Byrnihat,"Central Academy for SFS, Byrnihat - PCBA",22-01-2026 18:00:00,26.071318,91.87488,NO2,3,9,7
India,Assam,Sivasagar,"Girls College, Sivasagar - PCBA",22-01-2026 18:00:00,26.987634,94.636574,SO2,13,15,14
India,Assam,Sivasagar,"Girls College, Sivasagar - PCBA",22-01-2026 18:00:00,26.987634,94.636574,CO,20,108,29
India,Bihar,Arrah,"New DM Office, Arrah - BSPCB",22-01-2026 18:00:00,25.5626095,84.663264,PM10,37,79,56
India,Bihar,Begusarai,"Lohiyanagar, Begusarai - BSPCB",22-01-2026 18:00:00,25.42742023,86.13886079,PM2.5,2,75,34
India,Bihar,Begusarai,"Lohiyanagar, Begusarai - BSPCB",22-01-2026 18:00:00,25.42742023,86.13886079,NH3,10,11,11
India,Bihar,Begusarai,"Lohiyanagar, Begusarai - BSPCB",22-01-2026 18:00:00,25.42742023,86.13886079,CO,27,36,28
India,Bihar,Bettiah,"Kamalnath Nagar, Bettiah - BSPCB",22-01-2026 18:00:00,26.80365,84.51954,PM2.5,32,253,113
India,Bihar,Katihar,"Mirchaibari, Katihar - BSPCB",22-01-2026 18:00:00,25.560083,87.553265,SO2,16,26,21
India,Bihar,Kishanganj,"SDM Office_Khagra, Kishanganj - BSPCB",22-01-2026 18:00:00,26.0881305,87.93840336,PM10,37,87,63
India,Bihar,Kishanganj,"SDM Office_Khagra, Kishanganj - BSPCB",22-01-2026 18:00:00,26.0881305,87.93840336,NO2,9,15,10
India,Bihar,Kishanganj,"SDM Office_Khagra, Kishanganj - BSPCB",22-01-2026 18:00:00,26.0881305,87.93840336,SO2,6,8,7
India,Bihar,Manguraha,"Forest Rest House, Manguraha - BSPCB",22-01-2026 18:00:00,27.308328,84.531742,PM10,50,173,99
India,Bihar,Manguraha,"Forest Rest House, Manguraha - BSPCB",22-01-2026 18:00:00,27.308328,84.531742,CO,32,33,32
India,Andhra_Pradesh,Rajamahendravaram,"Anand Kala Kshetram, Rajamahendravaram - APPCB",22-01-2026 18:00:00,16.9872867,81.7363176,SO2,7,23,13
India,Andhra_Pradesh,Tirumala,"Toll Gate, Tirumala - APPCB",22-01-2026 18:00:00,13.67,79.35,SO2,6,25,14
India,Andhra_Pradesh,Tirumala,"Toll Gate, Tirumala - APPCB",22-01-2026 18:00:00,13.67,79.35,CO,2,31,13
India,Andhra_Pradesh,Vijayawada,"Kanuru, Vijayawada - APPCB",22-01-2026 18:00:00,16.486692,80.699436,PM2.5,NA,NA,NA
India,Andhra_Pradesh,Vijayawada,"Kanuru, Vijayawada - APPCB",22-01-2026 18:00:00,16.486692,80.699436,SO2,NA,NA,NA
India,Bihar,Bhagalpur,"DM Office_Kachari Chowk, Bhagalpur - BSPCB",22-01-2026 18:00:00,25.251013,86.989001,PM2.5,42,73,58
India,Bihar,Bhagalpur,"DM Office_Kachari Chowk, Bhagalpur - BSPCB",22-01-2026 18:00:00,25.251013,86.989001,CO,11,25,18
India,Bihar,Bhagalpur,"Mayaganj, Bhagalpur - BSPCB",22-01-2026 18:00:00,25.265194,87.012947,CO,78,99,88
India,Bihar,Buxar,"Charitra Van, Buxar - BSPCB",22-01-2026 18:00:00,25.567520,83.966379,PM2.5,68,117,88
India,Andhra_Pradesh,Anantapur,"Gulzarpet, Anantapur - APPCB",22-01-2026 18:00:00,14.675886,77.593027,NO2,14,22,16
India,Andhra_Pradesh,Anantapur,"Gulzarpet, Anantapur - APPCB",22-01-2026 18:00:00,14.675886,77.593027,OZONE,11,23,22
India,Andhra_Pradesh,Chittoor,"Gangineni Cheruvu, Chittoor - APPCB",22-01-2026 18:00:00,13.204880,79.097889,SO2,NA,NA,NA
India,Andhra_Pradesh,Chittoor,"Gangineni Cheruvu, Chittoor - APPCB",22-01-2026 18:00:00,13.204880,79.097889,OZONE,60,67,64
India,Delhi,Delhi,"Jawaharlal Nehru Stadium, Delhi - DPCC",22-01-2026 18:00:00,28.580280,77.233829,NO2,45,186,94
India,Delhi,Delhi,"Jawaharlal Nehru Stadium, Delhi - DPCC",22-01-2026 18:00:00,28.580280,77.233829,OZONE,5,162,110
India,Delhi,Delhi,"Lodhi Road, Delhi - IMD",22-01-2026 18:00:00,28.5918245,77.2273074,PM2.5,NA,NA,NA
India,Delhi,Delhi,"Major Dhyan Chand National Stadium, Delhi - DPCC",22-01-2026 18:00:00,28.611281,77.237738,NO2,41,200,89
India,Delhi,Delhi,"Major Dhyan Chand National Stadium, Delhi - DPCC",22-01-2026 18:00:00,28.611281,77.237738,NH3,17,20,18
India,Delhi,Delhi,"Major Dhyan Chand National Stadium, Delhi - DPCC",22-01-2026 18:00:00,28.611281,77.237738,CO,28,128,35
India,Delhi,Delhi,"Mandir Marg, Delhi - DPCC",22-01-2026 18:00:00,28.636429,77.201067,PM10,135,348,235
India,Delhi,Delhi,"Mandir Marg, Delhi - DPCC",22-01-2026 18:00:00,28.636429,77.201067,OZONE,9,145,100
India,Delhi,Delhi,"Mundka, Delhi - DPCC",22-01-2026 18:00:00,28.684678,77.076574,PM2.5,127,439,363
India,Delhi,Delhi,"Mundka, Delhi - DPCC",22-01-2026 18:00:00,28.684678,77.076574,NO2,63,106,83
India,Chhattisgarh,Milupara,"Govt. Higher Secondary School, Milupara - CECB",22-01-2026 18:00:00,22.1910172,83.5197009,SO2,13,17,14
India,Chhattisgarh,Milupara,"Govt. Higher Secondary School, Milupara - CECB",22-01-2026 18:00:00,22.1910172,83.5197009,OZONE,3,103,92
India,Chhattisgarh,Raipur,"AIIMS, Raipur - CECB",22-01-2026 18:00:00,21.258815,81.578979,NH3,3,5,4
India,Chhattisgarh,Raipur,"Bhatagaon New ISBT, Raipur - CECB",22-01-2026 18:00:00,21.219665,81.630094,NO2,1,55,27
India,Chhattisgarh,Raipur,"Krishak Nagar, Raipur - CECB",22-01-2026 18:00:00,21.237755,81.705301,PM10,NA,NA,NA
India,Chhattisgarh,Raipur,"Krishak Nagar, Raipur - CECB",22-01-2026 18:00:00,21.237755,81.705301,CO,16,23,19
India,Bihar,Saharsa,"Police Line, Saharsa - BSPCB",22-01-2026 18:00:00,25.892357,86.590325,PM10,72,212,129
India,Bihar,Saharsa,"Police Line, Saharsa - BSPCB",22-01-2026 18:00:00,25.892357,86.590325,CO,38,43,41
India,Bihar,Samastipur,"DM Office_Kasipur, Samastipur - BSPCB",22-01-2026 18:00:00,25.859655,85.77944,NO2,8,9,8
India,Bihar,Samastipur,"DM Office_Kasipur, Samastipur - BSPCB",22-01-2026 18:00:00,25.859655,85.77944,OZONE,7,9,8
India,Chandigarh,Chandigarh,"Sector 22, Chandigarh - CPCC",22-01-2026 18:00:00,30.735567,76.775714,NO2,37,135,76
India,Chhattisgarh,Korba,"Rampur, Korba - CECB",22-01-2026 18:00:00,22.368195,82.746431,PM10,44,88,72
India,Chhattisgarh,Korba,"Rampur, Korba - CECB",22-01-2026 18:00:00,22.368195,82.746431,SO2,7,83,20
India,Chhattisgarh,Kunjemura,"OP Jindal School, Kunjemura - CECB",22-01-2026 18:00:00,22.126650,83.483212,PM2.5,32,88,62
India,Chhattisgarh,Kunjemura,"OP Jindal School, Kunjemura - CECB",22-01-2026 18:00:00,22.126650,83.483212,PM10,51,187,122
India,Chhattisgarh,Kunjemura,"OP Jindal School, Kunjemura - CECB",22-01-2026 18:00:00,22.126650,83.483212,OZONE,1,62,48
India,Chhattisgarh,Tumidih,"OP Jindal Industrial Park, Tumidih - CECB",22-01-2026 18:00:00,22.06631475,83.33820077,CO,12,49,19
India,Delhi,Delhi,"Alipur, Delhi - DPCC",22-01-2026 18:00:00,28.815329,77.153010,CO,36,101,60
India,Delhi,Delhi,"Ashok Vihar, Delhi - DPCC",22-01-2026 18:00:00,28.695381,77.181665,PM2.5,107,454,365
India,Chandigarh,Chandigarh,"Sector-53, Chandigarh - CPCC",22-01-2026 18:00:00,30.719859,76.738637,PM10,NA,NA,NA
India,Chandigarh,Chandigarh,"Sector-53, Chandigarh - CPCC",22-01-2026 18:00:00,30.719859,76.738637,NO2,NA,NA,NA
India,Chhattisgarh,Bhilai,"Civic Center, Bhilai - Bhilai Steel Plant",22-01-2026 18:00:00,21.185571,81.343175,SO2,NA,NA,NA
India,Chhattisgarh,Bhilai,"Hathkhoj, Bhilai - CECB",22-01-2026 18:00:00,21.224231,81.408350,NO2,29,97,56
India,Delhi,Delhi,"IGI Airport (T3), Delhi - IMD",22-01-2026 18:00:00,28.5627763,77.1180053,NO2,63,160,97
India,Delhi,Delhi,"IGI Airport (T3), Delhi - IMD",22-01-2026 18:00:00,28.5627763,77.1180053,OZONE,3,62,50
India,Delhi,Delhi,"IHBAS, Dilshad Garden, Delhi - CPCB",22-01-2026 18:00:00,28.6811736,77.3025234,NO2,41,235,80
India,Delhi,Delhi,"IHBAS, Dilshad Garden, Delhi - CPCB",22-01-2026 18:00:00,28.6811736,77.3025234,CO,50,103,66
India,Delhi,Delhi,"Dr. Karni Singh Shooting Range, Delhi - DPCC",22-01-2026 18:00:00,28.498571,77.264840,NO2,8,96,56
India,Delhi,Delhi,"Dr. Karni Singh Shooting Range, Delhi - DPCC",22-01-2026 18:00:00,28.498571,77.264840,CO,23,112,40
India,Chhattisgarh,Raipur,"Siltara Phase-II, Raipur - CECB",22-01-2026 18:00:00,21.371751,81.664929,NH3,2,2,2
India,Chhattisgarh,Raipur,"Siltara Phase-II, Raipur - CECB",22-01-2026 18:00:00,21.371751,81.664929,SO2,1,12,4
India,Delhi,Delhi,"Shadipur, Delhi - CPCB",22-01-2026 18:00:00,28.6514781,77.1473105,PM10,167,459,310
India,Delhi,Delhi,"Shadipur, Delhi - CPCB",22-01-2026 18:00:00,28.6514781,77.1473105,NO2,53,267,134
India,Delhi,Delhi,"Sonia Vihar, Delhi - DPCC",22-01-2026 18:00:00,28.710508,77.249485,PM10,122,435,304
India,Delhi,Delhi,"Sonia Vihar, Delhi - DPCC",22-01-2026 18:00:00,28.710508,77.249485,NO2,32,129,63
India,Delhi,Delhi,"Sri Aurobindo Marg, Delhi - DPCC",22-01-2026 18:00:00,28.531346,77.190156,NO2,21,104,45
India,Delhi,Delhi,"Sri Aurobindo Marg, Delhi - DPCC",22-01-2026 18:00:00,28.531346,77.190156,NH3,3,7,5
India,Delhi,Delhi,"Sri Aurobindo Marg, Delhi - DPCC",22-01-2026 18:00:00,28.531346,77.190156,CO,23,110,37
India,Delhi,Delhi,"Vivek Vihar, Delhi - DPCC",22-01-2026 18:00:00,28.672342,77.315260,NO2,43,186,82
India,Delhi,Delhi,"Vivek Vihar, Delhi - DPCC",22-01-2026 18:00:00,28.672342,77.315260,CO,25,118,46
India,Delhi,Delhi,"Wazirpur, Delhi - DPCC",22-01-2026 18:00:00,28.699793,77.165453,PM2.5,133,500,369
India,Delhi,Delhi,"Wazirpur, Delhi - DPCC",22-01-2026 18:00:00,28.699793,77.165453,PM10,187,491,380
India,Delhi,Delhi,"Wazirpur, Delhi - DPCC",22-01-2026 18:00:00,28.699793,77.165453,NO2,127,235,183
India,Delhi,Delhi,"Punjabi Bagh, Delhi - DPCC",22-01-2026 18:00:00,28.674045,77.131023,OZONE,5,84,61
India,Delhi,Delhi,"Pusa, Delhi - DPCC",22-01-2026 18:00:00,28.639652,77.146275,PM10,159,409,260
India,Delhi,Delhi,"Pusa, Delhi - DPCC",22-01-2026 18:00:00,28.639652,77.146275,NO2,29,172,80
India,Delhi,Delhi,"Pusa, Delhi - IMD",22-01-2026 18:00:00,28.636110,77.173332,PM10,88,372,246
India,Delhi,Delhi,"Pusa, Delhi - IMD",22-01-2026 18:00:00,28.636110,77.173332,CO,102,176,104
India,Delhi,Delhi,"Pusa, Delhi - IMD",22-01-2026 18:00:00,28.636110,77.173332,OZONE,8,308,215
India,Delhi,Delhi,"R K Puram, Delhi - DPCC",22-01-2026 18:00:00,28.563262,77.186937,PM10,140,432,300
India,Delhi,Delhi,"R K Puram, Delhi - DPCC",22-01-2026 18:00:00,28.563262,77.186937,SO2,1,55,32
India,Delhi,Delhi,"R K Puram, Delhi - DPCC",22-01-2026 18:00:00,28.563262,77.186937,OZONE,7,177,122
India,Delhi,Delhi,"Rohini, Delhi - DPCC",22-01-2026 18:00:00,28.732528,77.119920,SO2,5,16,9
India,Gujarat,Ahmedabad,"Chandkheda, Ahmedabad - IITM",22-01-2026 18:00:00,23.107969,72.574648,OZONE,8,81,53
India,Gujarat,Ahmedabad,"Gyaspur, Ahmedabad - IITM",22-01-2026 18:00:00,22.977134,72.553024,NO2,73,189,116
India,Gujarat,Ahmedabad,"Maninagar, Ahmedabad - GPCB",22-01-2026 18:00:00,23.002657,72.591912,NO2,98,124,113
India,Gujarat,Ahmedabad,"Maninagar, Ahmedabad - GPCB",22-01-2026 18:00:00,23.002657,72.591912,SO2,26,41,34
India,Gujarat,Ahmedabad,"Maninagar, Ahmedabad - GPCB",22-01-2026 18:00:00,23.002657,72.591912,CO,28,47,38
India,Gujarat,Ahmedabad,"Raikhad, Ahmedabad - IITM",22-01-2026 18:00:00,23.020509,72.579261,PM10,121,193,163
India,Gujarat,Ahmedabad,"Rakhial, Ahmedabad - IITM",22-01-2026 18:00:00,23.016834,72.625775,PM2.5,90,208,148
India,Gujarat,Ahmedabad,"Rakhial, Ahmedabad - IITM",22-01-2026 18:00:00,23.016834,72.625775,NH3,6,11,8
India,Gujarat,Ahmedabad,"Rakhial, Ahmedabad - IITM",22-01-2026 18:00:00,23.016834,72.625775,SO2,26,67,40
India,Gujarat,Ahmedabad,"SAC ISRO Bopal, Ahmedabad - IITM",22-01-2026 18:00:00,23.041137,72.456691,NH3,11,17,14
India,Gujarat,Ahmedabad,"SAC ISRO Bopal, Ahmedabad - IITM",22-01-2026 18:00:00,23.041137,72.456691,OZONE,1,157,106
India,Gujarat,Ahmedabad,"SVPI Airport Hansol, Ahmedabad - IITM",22-01-2026 18:00:00,23.076793,72.627874,NO2,30,88,53
India,Gujarat,Ankleshwar,"GIDC, Ankleshwar - GPCB",22-01-2026 18:00:00,21.613267,73.010555,PM10,81,250,141
India,Gujarat,Ankleshwar,"GIDC, Ankleshwar - GPCB",22-01-2026 18:00:00,21.613267,73.010555,CO,40,86,44
India,Gujarat,Gandhinagar,"GIFT City, Gandhinagar - IITM",22-01-2026 18:00:00,23.163798,72.677768,NO2,24,52,34
India,Gujarat,Gandhinagar,"IIPHG Lekawada, Gandhinagar - IITM",22-01-2026 18:00:00,23.243639,72.68994,PM2.5,64,163,116
India,Haryana,Gurugram,"Vikas Sadan, Gurugram - HSPCB",22-01-2026 18:00:00,28.4501238,77.0263051,NO2,9,45,26
India,Haryana,Gurugram,"Vikas Sadan, Gurugram - HSPCB",22-01-2026 18:00:00,28.4501238,77.0263051,CO,63,115,90
India,Haryana,Kaithal,"Rishi Nagar, Kaithal - HSPCB",22-01-2026 18:00:00,29.8006,76.4155,CO,26,98,39
India,Haryana,Karnal,"Sector-12, Karnal - HSPCB",22-01-2026 18:00:00,29.695300,77.002700,PM2.5,81,311,185
India,Haryana,Karnal,"Sector-12, Karnal - HSPCB",22-01-2026 18:00:00,29.695300,77.002700,PM10,85,191,133
India,Haryana,Karnal,"Sector-12, Karnal - HSPCB",22-01-2026 18:00:00,29.695300,77.002700,NH3,6,7,6
India,Haryana,Kurukshetra,"Sector-7, Kurukshetra - HSPCB",22-01-2026 18:00:00,29.966942,76.875879,NO2,16,21,18
India,Haryana,Kurukshetra,"Sector-7, Kurukshetra - HSPCB",22-01-2026 18:00:00,29.966942,76.875879,NH3,5,5,5
India,Haryana,Faridabad,"Sector 11, Faridabad - HSPCB",22-01-2026 18:00:00,28.376058,77.315741,PM2.5,133,405,283
India,Haryana,Fatehabad,"Huda Sector, Fatehabad - HSPCB",22-01-2026 18:00:00,29.503664,75.467934,NH3,13,15,14
India,Haryana,Fatehabad,"Huda Sector, Fatehabad - HSPCB",22-01-2026 18:00:00,29.503664,75.467934,CO,25,36,29
India,Haryana,Fatehabad,"Huda Sector, Fatehabad - HSPCB",22-01-2026 18:00:00,29.503664,75.467934,OZONE,47,68,63
India,Haryana,Gurugram,"NISE Gwal Pahari, Gurugram - IMD",22-01-2026 18:00:00,28.422681,77.148944,PM2.5,173,379,304
India,Delhi,Delhi,"Narela, Delhi - DPCC",22-01-2026 18:00:00,28.822836,77.101981,PM10,144,416,289
India,Delhi,Delhi,"North Campus, DU, Delhi - IMD",22-01-2026 18:00:00,28.6573814,77.1585447,PM10,159,410,269
India,Delhi,Delhi,"Okhla Phase-2, Delhi - DPCC",22-01-2026 18:00:00,28.530785,77.271255,PM10,163,423,310
India,Delhi,Delhi,"Okhla Phase-2, Delhi - DPCC",22-01-2026 18:00:00,28.530785,77.271255,NH3,14,33,20
India,Delhi,Delhi,"Okhla Phase-2, Delhi - DPCC",22-01-2026 18:00:00,28.530785,77.271255,OZONE,1,262,157
India,Gujarat,Gandhinagar,"IIPHG Lekawada, Gandhinagar - IITM",22-01-2026 18:00:00,23.243639,72.68994,CO,4,81,32
India,Gujarat,Surat,"Science Center, Surat - SMC",22-01-2026 18:00:00,21.170046,72.795405,PM2.5,NA,NA,NA
India,Gujarat,Vapi,"Phase-1 GIDC, Vapi - GPCB",22-01-2026 18:00:00,20.362421,72.918013,NH3,NA,NA,NA
India,Haryana,Ambala,"Patti Mehar, Ambala - HSPCB",22-01-2026 18:00:00,30.379589,76.778328,CO,26,43,34
India,Haryana,Ballabgarh,"Nathu Colony, Ballabgarh - HSPCB",22-01-2026 18:00:00,28.3419248,77.319699,CO,15,102,28
India,Haryana,Bhiwani,"H.B. Colony, Bhiwani - HSPCB",22-01-2026 18:00:00,28.806223,76.141105,OZONE,5,11,9
India,Karnataka,Bagalkot,"Vidayagiri, Bagalkot - KSPCB",22-01-2026 18:00:00,16.172806,75.659694,OZONE,12,12,12
India,Karnataka,Belgaum,"Ramteerth Nagar, Belgaum - KSPCB",22-01-2026 18:00:00,15.888653,74.541751,PM10,34,116,74
India,Karnataka,Belgaum,"Ramteerth Nagar, Belgaum - KSPCB",22-01-2026 18:00:00,15.888653,74.541751,CO,1,4,2
India,Karnataka,Bengaluru,"BTM Layout, Bengaluru - CPCB",22-01-2026 18:00:00,12.9135218,77.5950804,PM2.5,79,304,117
India,Karnataka,Bengaluru,"BWSSB Kadabesanahalli, Bengaluru - CPCB",22-01-2026 18:00:00,12.9352049,77.6814488,PM2.5,73,303,138
India,Karnataka,Bengaluru,"BWSSB Kadabesanahalli, Bengaluru - CPCB",22-01-2026 18:00:00,12.9352049,77.6814488,NO2,12,34,21
India,Karnataka,Bengaluru,"BWSSB Kadabesanahalli, Bengaluru - CPCB",22-01-2026 18:00:00,12.9352049,77.6814488,NH3,NA,NA,NA
India,Karnataka,Bengaluru,"BWSSB Kadabesanahalli, Bengaluru - CPCB",22-01-2026 18:00:00,12.9352049,77.6814488,OZONE,11,42,32
India,Karnataka,Bengaluru,"Bapuji Nagar, Bengaluru - KSPCB",22-01-2026 18:00:00,12.951913,77.539784,NO2,10,23,14
India,Karnataka,Bengaluru,"Bapuji Nagar, Bengaluru - KSPCB",22-01-2026 18:00:00,12.951913,77.539784,NH3,1,2,2
India,Karnataka,Bengaluru,"Bapuji Nagar, Bengaluru - KSPCB",22-01-2026 18:00:00,12.951913,77.539784,OZONE,14,35,31
India,Karnataka,Bengaluru,"City Railway Station, Bengaluru - KSPCB",22-01-2026 18:00:00,12.9756843,77.5660749,PM10,97,99,98
India,Karnataka,Bengaluru,"City Railway Station, Bengaluru - KSPCB",22-01-2026 18:00:00,12.9756843,77.5660749,SO2,21,22,22
India,Karnataka,Bengaluru,"City Railway Station, Bengaluru - KSPCB",22-01-2026 18:00:00,12.9756843,77.5660749,CO,72,79,75
India,Karnataka,Bengaluru,"Hebbal, Bengaluru - KSPCB",22-01-2026 18:00:00,13.029152,77.585901,PM2.5,25,92,57
India,Karnataka,Bengaluru,"RVCE-Mailasandra, Bengaluru - KSPCB",22-01-2026 18:00:00,12.921418,77.502466,PM2.5,27,273,120
India,Karnataka,Bengaluru,"RVCE-Mailasandra, Bengaluru - KSPCB",22-01-2026 18:00:00,12.921418,77.502466,PM10,68,156,112
India,Karnataka,Bengaluru,"RVCE-Mailasandra, Bengaluru - KSPCB",22-01-2026 18:00:00,12.921418,77.502466,SO2,6,6,6
India,Karnataka,Bengaluru,"Sanegurava Halli, Bengaluru - KSPCB",22-01-2026 18:00:00,12.990328,77.5431385,PM10,50,62,58
India,Karnataka,Bengaluru,"Shivapura_Peenya, Bengaluru - KSPCB",22-01-2026 18:00:00,13.0246342,77.5080115,PM2.5,23,40,30
India,Karnataka,Bengaluru,"Silk Board, Bengaluru - KSPCB",22-01-2026 18:00:00,12.917348,77.622813,SO2,5,15,10
India,Karnataka,Bengaluru,"Silk Board, Bengaluru - KSPCB",22-01-2026 18:00:00,12.917348,77.622813,CO,18,100,27
India,Karnataka,Chamarajanagar,"Urban, Chamarajanagar - KSPCB",22-01-2026 18:00:00,11.55358,76.55521,PM10,34,46,43
India,Karnataka,Chikkaballapur,"Chikkaballapur Rural, Chikkaballapur - KSPCB",22-01-2026 18:00:00,13.428828,77.731418,PM10,41,126,90
India,Karnataka,Chikkaballapur,"Chikkaballapur Rural, Chikkaballapur - KSPCB",22-01-2026 18:00:00,13.428828,77.731418,NO2,7,100,32
India,Karnataka,Chikkaballapur,"Chikkaballapur Rural, Chikkaballapur - KSPCB",22-01-2026 18:00:00,13.428828,77.731418,CO,4,22,15
India,Haryana,Yamuna Nagar,"Gobind Pura, Yamuna Nagar - HSPCB",22-01-2026 18:00:00,30.1480566,77.2893471,PM10,20,363,154
India,Himachal Pradesh,Baddi,"HIMUDA Complex Phase-1, Baddi - HPPCB",22-01-2026 18:00:00,30.943887,76.801991,PM2.5,37,370,159
India,Jammu_and_Kashmir,Pampore,"Khrew, Pampore - JKPCC",22-01-2026 18:00:00,34.031606,75.009712,PM2.5,11,177,74
India,Jammu_and_Kashmir,Srinagar,"Khunmoh, Srinagar - JKPCC",22-01-2026 18:00:00,34.06313,74.96017,PM2.5,42,314,75
India,Jammu_and_Kashmir,Srinagar,"Khunmoh, Srinagar - JKPCC",22-01-2026 18:00:00,34.06313,74.96017,PM10,NA,NA,NA
India,Jammu_and_Kashmir,Srinagar,"Khunmoh, Srinagar - JKPCC",22-01-2026 18:00:00,34.06313,74.96017,NO2,3,22,6
India,Jammu_and_Kashmir,Srinagar,"Rajbagh, Srinagar - JKPCC",22-01-2026 18:00:00,34.066206,74.819820,PM2.5,15,27,20
India,Jammu_and_Kashmir,Srinagar,"Rajbagh, Srinagar - JKPCC",22-01-2026 18:00:00,34.066206,74.819820,OZONE,NA,NA,NA
India,Jharkhand,Dhanbad,"Sardar Patel Nagar, Dhanbad - JSPCB",22-01-2026 18:00:00,23.80569,86.44268,NO2,50,78,51
India,Haryana,Panchkula,"Sector-6, Panchkula - HSPCB ",22-01-2026 18:00:00,30.7057778,76.8531805555555,NO2,23,26,25
India,Haryana,Panipat,"Sector-18, Panipat - HSPCB",22-01-2026 18:00:00,29.432304,76.972765,PM10,155,386,204
India,Haryana,Panipat,"Sector-18, Panipat - HSPCB",22-01-2026 18:00:00,29.432304,76.972765,NO2,31,32,31
India,Haryana,Panipat,"Sector-18, Panipat - HSPCB",22-01-2026 18:00:00,29.432304,76.972765,CO,24,26,25
India,Haryana,Sirsa,"F-Block, Sirsa - HSPCB",22-01-2026 18:00:00,29.536400,75.015800,NH3,10,16,13
India,Haryana,Sirsa,"F-Block, Sirsa - HSPCB",22-01-2026 18:00:00,29.536400,75.015800,OZONE,37,59,52
India,Haryana,Sonipat,"Murthal, Sonipat - HSPCB",22-01-2026 18:00:00,29.027200,77.062100,NH3,15,33,25
India,Haryana,Yamuna Nagar,"Gobind Pura, Yamuna Nagar - HSPCB",22-01-2026 18:00:00,30.1480566,77.2893471,PM2.5,17,362,188
India,Karnataka,Bengaluru,"Hombegowda Nagar, Bengaluru - KSPCB",22-01-2026 18:00:00,12.938539,77.590100,PM10,33,83,49
India,Karnataka,Bengaluru,"Hombegowda Nagar, Bengaluru - KSPCB",22-01-2026 18:00:00,12.938539,77.590100,NO2,18,109,40
India,Karnataka,Bengaluru,"Hombegowda Nagar, Bengaluru - KSPCB",22-01-2026 18:00:00,12.938539,77.590100,OZONE,4,44,36
India,Karnataka,Bengaluru,"Jigani, Bengaluru - KSPCB",22-01-2026 18:00:00,12.7816279,77.6299145,CO,32,34,32
India,Karnataka,Bengaluru,"Jigani, Bengaluru - KSPCB",22-01-2026 18:00:00,12.7816279,77.6299145,OZONE,23,24,23
India,Karnataka,Bengaluru,"Kasturi Nagar, Bengaluru - KSPCB",22-01-2026 18:00:00,13.003872,77.664217,NH3,NA,NA,NA
India,Karnataka,Bengaluru,"Peenya, Bengaluru - CPCB",22-01-2026 18:00:00,13.0270199,77.494094,NH3,3,5,4
India,Karnataka,Bengaluru,"Peenya, Bengaluru - CPCB",22-01-2026 18:00:00,13.0270199,77.494094,SO2,6,19,11
India,Karnataka,Chikkamagaluru,"Kalyana Nagara, Chikkamagaluru - KSPCB",22-01-2026 18:00:00,13.328028,75.797056,PM2.5,14,86,39
India,Karnataka,Chikkamagaluru,"Kalyana Nagara, Chikkamagaluru - KSPCB",22-01-2026 18:00:00,13.328028,75.797056,SO2,1,12,2
India,Karnataka,Hubballi,"Lingaraj Nagar, Hubballi - KSPCB",22-01-2026 18:00:00,15.3714823,75.1160168,PM10,63,67,64
India,Karnataka,Hubballi,"Lingaraj Nagar, Hubballi - KSPCB",22-01-2026 18:00:00,15.3714823,75.1160168,SO2,2,5,3
India,Karnataka,Hubballi,"Lingaraj Nagar, Hubballi - KSPCB",22-01-2026 18:00:00,15.3714823,75.1160168,CO,23,35,27
India,Karnataka,Hubballi,"Lingaraj Nagar, Hubballi - KSPCB",22-01-2026 18:00:00,15.3714823,75.1160168,OZONE,18,33,31
India,Karnataka,Kalaburagi,"Mahatma Basaveswar Colony, Kalaburgi - KSPCB",22-01-2026 18:00:00,17.336318,76.847397,PM2.5,11,55,39
India,Haryana,Mandikhera,"General Hospital, Mandikhera(Nuh) - HSPCB",22-01-2026 18:00:00,27.9002,76.9938,PM2.5,90,187,145
India,Haryana,Manesar,"Sector-2 IMT, Manesar - HSPCB",22-01-2026 18:00:00,28.360699,76.936090,NO2,34,42,39
India,Haryana,Narnaul,"Shastri Nagar, Narnaul - HSPCB",22-01-2026 18:00:00,28.060249,76.113115,OZONE,8,39,33
