country,state,city,station,last_update,latitude,longitude,pollutant_id,min_value,max_value,avg_value
India,Bihar,Katihar,"Mirchaibari, Katihar - BSPCB",09-06-2026 13:00:00,25.560083,87.553265,OZONE,12,68,34
India,Bihar,Kishanganj,"SDM Office_Khagra, Kishanganj - BSPCB",09-06-2026 13:00:00,26.0881305,87.93840336,NO2,7,8,7
India,Bihar,Manguraha,"Forest Rest House, Manguraha - BSPCB",09-06-2026 13:00:00,27.308328,84.531742,PM10,NA,NA,NA
India,Bihar,Manguraha,"Forest Rest House, Manguraha - BSPCB",09-06-2026 13:00:00,27.308328,84.531742,CO,NA,NA,NA
India,Bihar,Motihari,"Gandak Colony, Motihari - BSPCB",09-06-2026 13:00:00,26.63086,84.90051,PM2.5,NA,NA,NA
India,Bihar,Motihari,"Gandak Colony, Motihari - BSPCB",09-06-2026 13:00:00,26.63086,84.90051,NH3,3,3,3
India,Bihar,Munger,"Town Hall, Munger - BSPCB",09-06-2026 13:00:00,25.376776,86.471523,OZONE,1,9,3
India,Bihar,Muzaffarpur,"Buddha Colony, Muzaffarpur - BSPCB",09-06-2026 13:00:00,26.11442,85.39813,NH3,NA,NA,NA
India,Bihar,Muzaffarpur,"Buddha Colony, Muzaffarpur - BSPCB",09-06-2026 13:00:00,26.11442,85.39813,OZONE,25,107,43
India,Bihar,Muzaffarpur,"MIT-Daudpur Kothi, Muzaffarpur - BSPCB",09-06-2026 13:00:00,26.1403345,85.3650192,OZONE,12,84,28
India,Bihar,Muzaffarpur,"Muzaffarpur Collectorate, Muzaffarpur - BSPCB",09-06-2026 13:00:00,26.1209,85.3647,NO2,6,12,8
India,Bihar,Patna,"DRM Office Danapur, Patna - BSPCB",09-06-2026 13:00:00,25.586562,85.043586,CO,29,51,44
India,Bihar,Patna,"Govt. High School Shikarpur, Patna - BSPCB",09-06-2026 13:00:00,25.592539,85.227158,PM10,87,165,119
India,Bihar,Patna,"IGSC Planetarium Complex, Patna - BSPCB",09-06-2026 13:00:00,25.610369,85.132568,OZONE,59,61,59
India,Bihar,Patna,"Muradpur, Patna - BSPCB",09-06-2026 13:00:00,25.619651,85.147382,PM2.5,71,83,76
India,Andhra_Pradesh,Vijayawada,"Rajiv Gandhi Park, Vijayawada - APPCB",09-06-2026 13:00:00,16.509717,80.612222,SO2,10,14,12
India,Andhra_Pradesh,Visakhapatnam,"GVM Corporation, Visakhapatnam - APPCB",09-06-2026 13:00:00,17.72,83.3,PM2.5,16,182,64
India,Andhra_Pradesh,Visakhapatnam,"GVM Corporation, Visakhapatnam - APPCB",09-06-2026 13:00:00,17.72,83.3,PM10,95,321,141
India,Andhra_Pradesh,Visakhapatnam,"GVM Corporation, Visakhapatnam - APPCB",09-06-2026 13:00:00,17.72,83.3,OZONE,4,100,38
India,Arunachal_Pradesh,Naharlagun,"Naharlagun, Naharlagun - APSPCB",09-06-2026 13:00:00,27.103358,93.679645,OZONE,6,7,6
India,Assam,Byrnihat,"Central Academy for SFS, Byrnihat - PCBA",09-06-2026 13:00:00,26.071318,91.87488,NH3,4,4,4
India,Assam,Byrnihat,"Central Academy for SFS, Byrnihat - PCBA",09-06-2026 13:00:00,26.071318,91.87488,SO2,16,32,30
India,Assam,Guwahati,"IITG, Guwahati - PCBA",09-06-2026 13:00:00,26.2028636,91.70046436,PM2.5,20,46,29
India,Assam,Guwahati,"IITG, Guwahati - PCBA",09-06-2026 13:00:00,26.2028636,91.70046436,OZONE,2,21,15
India,Assam,Guwahati,"LGBI Airport, Guwahati - PCBA",09-06-2026 13:00:00,26.10887,91.589544,PM10,18,60,38
India,Assam,Guwahati,"LGBI Airport, Guwahati - PCBA",09-06-2026 13:00:00,26.10887,91.589544,NH3,2,71,7
India,Assam,Guwahati,"Railway Colony, Guwahati - PCBA",09-06-2026 13:00:00,26.181742,91.78063,PM10,37,119,69
India,Assam,Nagaon,"Christianpatty, Nagaon - PCBA",09-06-2026 13:00:00,26.349082,92.68449,NH3,4,4,4
India,Assam,Nalbari,"Bata Chowk, Nalbari - PCBA",09-06-2026 13:00:00,26.446912,91.439057,NO2,14,16,14
India,Assam,Nalbari,"Bata Chowk, Nalbari - PCBA",09-06-2026 13:00:00,26.446912,91.439057,SO2,4,8,8
India,Bihar,Bettiah,"Kamalnath Nagar, Bettiah - BSPCB",09-06-2026 13:00:00,26.80365,84.51954,NH3,NA,NA,NA
India,Bihar,Bettiah,"Kamalnath Nagar, Bettiah - BSPCB",09-06-2026 13:00:00,26.80365,84.51954,OZONE,21,23,22
India,Bihar,Bhagalpur,"DM Office_Kachari Chowk, Bhagalpur - BSPCB",09-06-2026 13:00:00,25.251013,86.989001,PM10,36,241,85
India,Bihar,Bhagalpur,"DM Office_Kachari Chowk, Bhagalpur - BSPCB",09-06-2026 13:00:00,25.251013,86.989001,OZONE,15,21,18
India,Bihar,Bhagalpur,"Mayaganj, Bhagalpur - BSPCB",09-06-2026 13:00:00,25.265194,87.012947,CO,14,50,19
India,Bihar,Buxar,"Charitra Van, Buxar - BSPCB",09-06-2026 13:00:00,25.567520,83.966379,CO,18,26,24
India,Bihar,Chhapra,"Darshan Nagar, Chhapra - BSPCB",09-06-2026 13:00:00,25.7808257,84.7446768,CO,79,111,90
India,Bihar,Gaya,"Collectorate, Gaya - BSPCB",09-06-2026 13:00:00,24.7955,84.9994,NO2,9,9,9
India,Bihar,Gaya,"Collectorate, Gaya - BSPCB",09-06-2026 13:00:00,24.7955,84.9994,OZONE,27,29,28
India,Bihar,Gaya,"Kareemganj, Gaya - BSPCB",09-06-2026 13:00:00,24.792403,84.992416,CO,12,36,28
India,Bihar,Gaya,"SFTI Kusdihra, Gaya - BSPCB",09-06-2026 13:00:00,24.762518,84.982348,SO2,8,9,9
India,Bihar,Hajipur,"Industrial Area, Hajipur - BSPCB",09-06-2026 13:00:00,25.697189,85.245900,PM2.5,58,123,83
India,Bihar,Katihar,"Mirchaibari, Katihar - BSPCB",09-06-2026 13:00:00,25.560083,87.553265,PM10,11,32,22
India,Bihar,Katihar,"Mirchaibari, Katihar - BSPCB",09-06-2026 13:00:00,25.560083,87.553265,NO2,8,10,9
India,Chhattisgarh,Kunjemura,"OP Jindal School, Kunjemura - CECB",09-06-2026 13:00:00,22.126650,83.483212,CO,24,48,28
India,Chhattisgarh,Milupara,"Govt. Higher Secondary School, Milupara - CECB",09-06-2026 13:00:00,22.1910172,83.5197009,OZONE,36,222,46
India,Chhattisgarh,Raipur,"Bhatagaon New ISBT, Raipur - CECB",09-06-2026 13:00:00,21.219665,81.630094,PM10,16,82,43
India,Chhattisgarh,Raipur,"Krishak Nagar, Raipur - CECB",09-06-2026 13:00:00,21.237755,81.705301,PM2.5,19,54,34
India,Chhattisgarh,Raipur,"Krishak Nagar, Raipur - CECB",09-06-2026 13:00:00,21.237755,81.705301,NO2,2,24,8
India,Chhattisgarh,Tumidih,"OP Jindal Industrial Park, Tumidih - CECB",09-06-2026 13:00:00,22.06631475,83.33820077,PM10,21,156,61
India,Chhattisgarh,Tumidih,"OP Jindal Industrial Park, Tumidih - CECB",09-06-2026 13:00:00,22.06631475,83.33820077,SO2,6,20,10
India,Delhi,Delhi,"Alipur, Delhi - DPCC",09-06-2026 13:00:00,28.815329,77.153010,PM2.5,50,305,102
India,Delhi,Delhi,"Alipur, Delhi - DPCC",09-06-2026 13:00:00,28.815329,77.153010,PM10,119,450,205
India,Delhi,Delhi,"Alipur, Delhi - DPCC",09-06-2026 13:00:00,28.815329,77.153010,NH3,11,17,13
India,Delhi,Delhi,"Anand Vihar, Delhi - DPCC",09-06-2026 13:00:00,28.647622,77.3158090,PM2.5,44,321,167
India,Delhi,Delhi,"Anand Vihar, Delhi - DPCC",09-06-2026 13:00:00,28.647622,77.3158090,PM10,235,500,407
India,Delhi,Delhi,"Ashok Vihar, Delhi - DPCC",09-06-2026 13:00:00,28.695381,77.181665,NO2,13,142,43
India,Bihar,Patna,"Muradpur, Patna - BSPCB",09-06-2026 13:00:00,25.619651,85.147382,SO2,12,13,12
India,Bihar,Patna,"Rajbansi Nagar, Patna - BSPCB",09-06-2026 13:00:00,25.599486,85.113666,CO,14,123,24
India,Bihar,Patna,"Samanpura, Patna - BSPCB",09-06-2026 13:00:00,25.596727,85.085624,NO2,14,22,18
India,Bihar,Purnia,"Mariam Nagar, Purnia - BSPCB",09-06-2026 13:00:00,25.366336,87.117468,OZONE,15,76,28
India,Bihar,Rajgir,"Dangi Tola, Rajgir - BSPCB",09-06-2026 13:00:00,25.03280,85.41948,OZONE,12,71,34
India,Bihar,Samastipur,"DM Office_Kasipur, Samastipur - BSPCB",09-06-2026 13:00:00,25.859655,85.77944,PM10,1,69,22
India,Bihar,Samastipur,"DM Office_Kasipur, Samastipur - BSPCB",09-06-2026 13:00:00,25.859655,85.77944,NO2,8,9,8
India,Bihar,Sasaram,"Dada Peer, Sasaram - BSPCB",09-06-2026 13:00:00,24.952822,84.002396,CO,20,117,50
India,Bihar,Sasaram,"Dada Peer, Sasaram - BSPCB",09-06-2026 13:00:00,24.952822,84.002396,OZONE,8,23,15
India,Bihar,Siwan,"Chitragupta Nagar, Siwan - BSPCB",09-06-2026 13:00:00,26.2271665,84.3570427,PM2.5,20,110,60
India,Chandigarh,Chandigarh,"Sector 22, Chandigarh - CPCC",09-06-2026 13:00:00,30.735567,76.775714,PM10,28,83,52
India,Chandigarh,Chandigarh,"Sector 22, Chandigarh - CPCC",09-06-2026 13:00:00,30.735567,76.775714,SO2,5,33,13
India,Andhra_Pradesh,Kadapa,"Yerramukkapalli, Kadapa - APPCB",09-06-2026 13:00:00,14.465052,78.824187,NO2,17,27,24
India,Andhra_Pradesh,Kadapa,"Yerramukkapalli, Kadapa - APPCB",09-06-2026 13:00:00,14.465052,78.824187,NH3,4,5,5
India,Andhra_Pradesh,Kadapa,"Yerramukkapalli, Kadapa - APPCB",09-06-2026 13:00:00,14.465052,78.824187,OZONE,45,56,51
India,Andhra_Pradesh,Machilipatnam,"Srinivas Nagar Colony, Machilipatnam - APPCB",09-06-2026 13:00:00,16.186555,81.13219,PM2.5,48,74,56
India,Andhra_Pradesh,Machilipatnam,"Srinivas Nagar Colony, Machilipatnam - APPCB",09-06-2026 13:00:00,16.186555,81.13219,OZONE,23,47,29
India,Andhra_Pradesh,Nellore,"Ambedkar Nagar, Nellore - APPCB ",09-06-2026 13:00:00,14.438164 ,79.966814 ,OZONE,33,48,41
India,Andhra_Pradesh,Tirumala,"Toll Gate, Tirumala - APPCB",09-06-2026 13:00:00,13.67,79.35,PM2.5,5,109,24
India,Andhra_Pradesh,Tirumala,"Toll Gate, Tirumala - APPCB",09-06-2026 13:00:00,13.67,79.35,OZONE,8,34,20
India,Andhra_Pradesh,Tirupati,"Vaikuntapuram, Tirupati - APPCB",09-06-2026 13:00:00,13.615387,79.409230,PM10,60,73,69
India,Andhra_Pradesh,Tirupati,"Vaikuntapuram, Tirupati - APPCB",09-06-2026 13:00:00,13.615387,79.409230,OZONE,36,46,44
India,Andhra_Pradesh,Vijayawada,"HB Colony, Vijayawada - APPCB",09-06-2026 13:00:00,16.536107,80.594233,PM10,37,75,64
India,Andhra_Pradesh,Vijayawada,"HB Colony, Vijayawada - APPCB",09-06-2026 13:00:00,16.536107,80.594233,NO2,18,24,21
India,Andhra_Pradesh,Vijayawada,"HB Colony, Vijayawada - APPCB",09-06-2026 13:00:00,16.536107,80.594233,CO,35,44,40
India,Chandigarh,Chandigarh,"Sector-25, Chandigarh - CPCC",09-06-2026 13:00:00,30.751462,76.762879,NH3,10,12,11
India,Chandigarh,Chandigarh,"Sector-25, Chandigarh - CPCC",09-06-2026 13:00:00,30.751462,76.762879,CO,10,45,25
India,Chandigarh,Chandigarh,"Sector-53, Chandigarh - CPCC",09-06-2026 13:00:00,30.719859,76.738637,OZONE,NA,NA,NA
India,Chhattisgarh,Bhilai,"32Bungalows, Bhilai - CECB",09-06-2026 13:00:00,21.194815,81.314770,NO2,2,31,8
India,Chhattisgarh,Bhilai,"32Bungalows, Bhilai - CECB",09-06-2026 13:00:00,21.194815,81.314770,SO2,10,26,15
India,Chhattisgarh,Bhilai,"32Bungalows, Bhilai - CECB",09-06-2026 13:00:00,21.194815,81.314770,OZONE,26,71,35
India,Chhattisgarh,Bhilai,"Civic Center, Bhilai - Bhilai Steel Plant",09-06-2026 13:00:00,21.185571,81.343175,SO2,5,14,8
India,Chhattisgarh,Bhilai,"Hathkhoj, Bhilai - CECB",09-06-2026 13:00:00,21.224231,81.408350,NO2,13,76,24
India,Chhattisgarh,Korba,"Rampur, Korba - CECB",09-06-2026 13:00:00,22.368195,82.746431,PM2.5,13,39,24
India,Chhattisgarh,Korba,"Rampur, Korba - CECB",09-06-2026 13:00:00,22.368195,82.746431,NH3,1,1,1
India,Chhattisgarh,Korba,"Urja Nagar, Korba - CECB",09-06-2026 13:00:00,22.348441,82.549611,NH3,1,1,1
India,Chhattisgarh,Korba,"Urja Nagar, Korba - CECB",09-06-2026 13:00:00,22.348441,82.549611,CO,14,61,53
India,Chhattisgarh,Korba,"Urja Nagar, Korba - CECB",09-06-2026 13:00:00,22.348441,82.549611,OZONE,2,49,2
India,Assam,Silchar,"Tarapur, Silchar - PCBA",09-06-2026 13:00:00,24.82827,92.79525,PM10,45,57,50
India,Assam,Silchar,"Tarapur, Silchar - PCBA",09-06-2026 13:00:00,24.82827,92.79525,CO,20,33,23
India,Assam,Silchar,"Tarapur, Silchar - PCBA",09-06-2026 13:00:00,24.82827,92.79525,OZONE,2,8,2
India,Bihar,Araria,"Kharahiya Basti, Araria - BSPCB",09-06-2026 13:00:00,26.146529,87.454184,PM10,33,68,48
India,Bihar,Araria,"Kharahiya Basti, Araria - BSPCB",09-06-2026 13:00:00,26.146529,87.454184,NH3,4,5,5
India,Bihar,Arrah,"New DM Office, Arrah - BSPCB",09-06-2026 13:00:00,25.5626095,84.663264,SO2,5,5,5
India,Bihar,Arrah,"New DM Office, Arrah - BSPCB",09-06-2026 13:00:00,25.5626095,84.663264,CO,35,66,46
India,Bihar,Aurangabad,"Gurdeo Nagar, Aurangabad - BSPCB",09-06-2026 13:00:00,24.75746,84.366208,PM2.5,NA,NA,NA
India,Bihar,Aurangabad,"Gurdeo Nagar, Aurangabad - BSPCB",09-06-2026 13:00:00,24.75746,84.366208,SO2,NA,NA,NA
India,Bihar,Begusarai,"Lohiyanagar, Begusarai - BSPCB",09-06-2026 13:00:00,25.42742023,86.13886079,PM10,30,110,65
India,Bihar,Begusarai,"Lohiyanagar, Begusarai - BSPCB",09-06-2026 13:00:00,25.42742023,86.13886079,OZONE,19,45,35
India,Delhi,Delhi,"Bawana, Delhi - DPCC",09-06-2026 13:00:00,28.776200,77.051074,NH3,5,8,6
India,Delhi,Delhi,"Bawana, Delhi - DPCC",09-06-2026 13:00:00,28.776200,77.051074,OZONE,5,52,11
India,Delhi,Delhi,"Burari Crossing, Delhi - IITM",09-06-2026 13:00:00,28.7256504,77.2011573,PM10,113,339,170
India,Delhi,Delhi,"Burari Crossing, Delhi - IITM",09-06-2026 13:00:00,28.7256504,77.2011573,NO2,12,76,32
India,Delhi,Delhi,"Cantonment Area, Delhi - DPCC ",09-06-2026 13:00:00,28.594169 ,77.125100 ,NH3,1,4,2
India,Delhi,Delhi,"Cantonment Area, Delhi - DPCC ",09-06-2026 13:00:00,28.594169 ,77.125100 ,OZONE,8,128,36
India,Delhi,Delhi,"Chandni Chowk, Delhi - IITM",09-06-2026 13:00:00,28.656756,77.227234,NH3,8,16,11
India,Delhi,Delhi,"DTU, Delhi - CPCB",09-06-2026 13:00:00,28.7500499,77.1112615,NH3,3,3,3
India,Delhi,Delhi,"DTU, Delhi - CPCB",09-06-2026 13:00:00,28.7500499,77.1112615,OZONE,28,41,29
India,Andhra_Pradesh,Anantapur,"Gulzarpet, Anantapur - APPCB",09-06-2026 13:00:00,14.675886,77.593027,PM10,49,68,57
India,Andhra_Pradesh,Anantapur,"Gulzarpet, Anantapur - APPCB",09-06-2026 13:00:00,14.675886,77.593027,NO2,16,22,21
India,Andhra_Pradesh,Anantapur,"Gulzarpet, Anantapur - APPCB",09-06-2026 13:00:00,14.675886,77.593027,NH3,3,5,4
India,Andhra_Pradesh,Chittoor,"Gangineni Cheruvu, Chittoor - APPCB",09-06-2026 13:00:00,13.204880,79.097889,NO2,30,33,32
India,Andhra_Pradesh,Eluru,"District Court, Eluru - APPCB",09-06-2026 13:00:00,16.711754,81.092095,PM2.5,50,64,56
India,Andhra_Pradesh,Eluru,"District Court, Eluru - APPCB",09-06-2026 13:00:00,16.711754,81.092095,PM10,48,61,54
India,Andhra_Pradesh,Eluru,"District Court, Eluru - APPCB",09-06-2026 13:00:00,16.711754,81.092095,OZONE,9,40,15
India,Gujarat,Surat,"Science Center, Surat - SMC",09-06-2026 13:00:00,21.170046,72.795405,PM10,25,58,39
India,Gujarat,Vadodara,"Bapunagar, Vadodara - Nexteng Enviro",09-06-2026 13:00:00,22.320153,73.216285,PM2.5,40,161,64
India,Gujarat,Vadodara,"Bapunagar, Vadodara - Nexteng Enviro",09-06-2026 13:00:00,22.320153,73.216285,NH3,2,3,2
India,Gujarat,Vadodara,"Bapunagar, Vadodara - Nexteng Enviro",09-06-2026 13:00:00,22.320153,73.216285,OZONE,3,5,4
India,Gujarat,Vapi,"Phase-1 GIDC, Vapi - GPCB",09-06-2026 13:00:00,20.362421,72.918013,PM2.5,32,103,70
India,Gujarat,Vatva,"Phase-4 GIDC, Vatva - GPCB",09-06-2026 13:00:00,22.969611,72.643500,PM2.5,71,219,123
India,Haryana,Ambala,"Patti Mehar, Ambala - HSPCB",09-06-2026 13:00:00,30.379589,76.778328,NO2,19,52,29
India,Haryana,Ambala,"Patti Mehar, Ambala - HSPCB",09-06-2026 13:00:00,30.379589,76.778328,SO2,15,32,22
India,Haryana,Ambala,"Patti Mehar, Ambala - HSPCB",09-06-2026 13:00:00,30.379589,76.778328,OZONE,31,37,33
India,Haryana,Bahadurgarh,"Arya Nagar, Bahadurgarh - HSPCB",09-06-2026 13:00:00,28.6701,76.9254,PM10,125,150,141
India,Haryana,Bhiwani,"H.B. Colony, Bhiwani - HSPCB",09-06-2026 13:00:00,28.806223,76.141105,PM10,84,115,98
India,Haryana,Bhiwani,"H.B. Colony, Bhiwani - HSPCB",09-06-2026 13:00:00,28.806223,76.141105,NO2,4,18,14
India,Haryana,Charkhi Dadri,"Mini Secretariat, Charkhi Dadri - HSPCB",09-06-2026 13:00:00,28.593883,76.270653,PM2.5,103,307,174
India,Haryana,Dharuhera,"Municipal Corporation Office, Dharuhera -  HSPCB",09-06-2026 13:00:00,28.206800,76.799700,PM2.5,1,191,117
India,Haryana,Dharuhera,"Municipal Corporation Office, Dharuhera -  HSPCB",09-06-2026 13:00:00,28.206800,76.799700,NH3,9,27,19
India,Haryana,Dharuhera,"Municipal Corporation Office, Dharuhera -  HSPCB",09-06-2026 13:00:00,28.206800,76.799700,SO2,7,16,11
India,Gujarat,Ankleshwar,"GIDC, Ankleshwar - GPCB",09-06-2026 13:00:00,21.613267,73.010555,NH3,6,7,6
India,Gujarat,Ankleshwar,"GIDC, Ankleshwar - GPCB",09-06-2026 13:00:00,21.613267,73.010555,OZONE,13,30,21
India,Gujarat,Bhavnagar,"Vidhyanagar, Bhavnagar - Nexteng Enviro",09-06-2026 13:00:00,21.755417,72.139056,NH3,3,4,4
India,Gujarat,Gandhinagar,"IIPHG Lekawada, Gandhinagar - IITM",09-06-2026 13:00:00,23.243639,72.68994,PM2.5,26,47,40
India,Gujarat,Gandhinagar,"IIPHG Lekawada, Gandhinagar - IITM",09-06-2026 13:00:00,23.243639,72.68994,NO2,6,9,7
India,Gujarat,Gandhinagar,"Sector-10, Gandhinagar - GPCB",09-06-2026 13:00:00,23.221714,72.654328,PM10,74,95,85
India,Gujarat,Gandhinagar,"Sector-10, Gandhinagar - GPCB",09-06-2026 13:00:00,23.221714,72.654328,SO2,3,26,8
India,Gujarat,Mehsana,"Sadanand Nagar, Mehsana - Nexteng Enviro",09-06-2026 13:00:00,23.593150,72.372792,PM2.5,11,143,83
India,Gujarat,Mehsana,"Sadanand Nagar, Mehsana - Nexteng Enviro",09-06-2026 13:00:00,23.593150,72.372792,SO2,11,13,12
India,Gujarat,Nandesari,"GIDC, Nandesari - Nandesari Ind. Association",09-06-2026 13:00:00,22.410802,73.097923,PM2.5,34,78,48
India,Gujarat,Nandesari,"GIDC, Nandesari - Nandesari Ind. Association",09-06-2026 13:00:00,22.410802,73.097923,NO2,4,31,16
India,Gujarat,Nandesari,"GIDC, Nandesari - Nandesari Ind. Association",09-06-2026 13:00:00,22.410802,73.097923,SO2,3,3,3
India,Gujarat,Rajkot,"Mavdi, Rajkot - Nexteng Enviro ",09-06-2026 13:00:00,22.248853,70.776774,NO2,45,56,50
India,Gujarat,Rajkot,"Mavdi, Rajkot - Nexteng Enviro ",09-06-2026 13:00:00,22.248853,70.776774,NH3,1,2,2
India,Gujarat,Rajkot,"Mavdi, Rajkot - Nexteng Enviro ",09-06-2026 13:00:00,22.248853,70.776774,SO2,5,10,8
India,Gujarat,Rajkot,"Mavdi, Rajkot - Nexteng Enviro ",09-06-2026 13:00:00,22.248853,70.776774,CO,74,78,76
India,Gujarat,Surat,"Katargam, Surat - Nexteng Enviro",09-06-2026 13:00:00,21.217779 ,72.834787 ,PM10,51,121,79
India,Gujarat,Surat,"Katargam, Surat - Nexteng Enviro",09-06-2026 13:00:00,21.217779 ,72.834787 ,NH3,1,1,1
India,Delhi,Delhi,"Vivek Vihar, Delhi - DPCC",09-06-2026 13:00:00,28.672342,77.315260,CO,32,150,51
India,Gujarat,Ahmedabad,"Chandkheda, Ahmedabad - IITM",09-06-2026 13:00:00,23.107969,72.574648,NO2,7,17,10
India,Gujarat,Ahmedabad,"Chandkheda, Ahmedabad - IITM",09-06-2026 13:00:00,23.107969,72.574648,OZONE,3,52,17
India,Gujarat,Ahmedabad,"Gyaspur, Ahmedabad - IITM",09-06-2026 13:00:00,22.977134,72.553024,PM2.5,19,57,37
India,Gujarat,Ahmedabad,"Gyaspur, Ahmedabad - IITM",09-06-2026 13:00:00,22.977134,72.553024,SO2,1,10,5
India,Gujarat,Ahmedabad,"Maninagar, Ahmedabad - GPCB",09-06-2026 13:00:00,23.002657,72.591912,SO2,3,111,56
India,Gujarat,Ahmedabad,"Maninagar, Ahmedabad - GPCB",09-06-2026 13:00:00,23.002657,72.591912,CO,2,106,27
India,Gujarat,Ahmedabad,"Raikhad, Ahmedabad - IITM",09-06-2026 13:00:00,23.020509,72.579261,PM10,72,104,89
India,Gujarat,Ahmedabad,"Rakhial, Ahmedabad - IITM",09-06-2026 13:00:00,23.016834,72.625775,NO2,5,35,27
India,Gujarat,Ahmedabad,"SAC ISRO Bopal, Ahmedabad - IITM",09-06-2026 13:00:00,23.041137,72.456691,PM2.5,43,93,68
India,Gujarat,Ahmedabad,"SAC ISRO Bopal, Ahmedabad - IITM",09-06-2026 13:00:00,23.041137,72.456691,NO2,4,11,7
India,Gujarat,Ahmedabad,"SAC ISRO Bopal, Ahmedabad - IITM",09-06-2026 13:00:00,23.041137,72.456691,OZONE,7,44,16
India,Gujarat,Ahmedabad,"SAC ISRO Satellite, Ahmedabad - IITM",09-06-2026 13:00:00,23.023389,72.515201,NO2,14,15,14
India,Gujarat,Ahmedabad,"SAC ISRO Satellite, Ahmedabad - IITM",09-06-2026 13:00:00,23.023389,72.515201,CO,10,10,10
India,Gujarat,Ahmedabad,"SVPI Airport Hansol, Ahmedabad - IITM",09-06-2026 13:00:00,23.076793,72.627874,PM2.5,26,45,35
India,Gujarat,Ahmedabad,"SVPI Airport Hansol, Ahmedabad - IITM",09-06-2026 13:00:00,23.076793,72.627874,CO,13,26,21
India,Delhi,Delhi,"Punjabi Bagh, Delhi - DPCC",09-06-2026 13:00:00,28.674045,77.131023,NO2,NA,NA,NA
India,Delhi,Delhi,"Punjabi Bagh, Delhi - DPCC",09-06-2026 13:00:00,28.674045,77.131023,CO,7,105,72
India,Delhi,Delhi,"Pusa, Delhi - IITM",09-06-2026 13:00:00,28.636110,77.173332,NO2,6,121,34
India,Delhi,Delhi,"R K Puram, Delhi - DPCC",09-06-2026 13:00:00,28.563262,77.186937,OZONE,1,41,10
India,Delhi,Delhi,"Rohini, Delhi - DPCC",09-06-2026 13:00:00,28.732528,77.119920,PM10,109,350,182
India,Delhi,Delhi,"Rohini, Delhi - DPCC",09-06-2026 13:00:00,28.732528,77.119920,OZONE,3,52,13
India,Delhi,Delhi,"Shadipur, Delhi - CPCB",09-06-2026 13:00:00,28.6514781,77.1473105,NO2,41,146,69
India,Delhi,Delhi,"Sirifort, Delhi - CPCB",09-06-2026 13:00:00,28.5504249,77.2159377,PM10,114,406,168
India,Delhi,Delhi,"Sirifort, Delhi - CPCB",09-06-2026 13:00:00,28.5504249,77.2159377,NH3,3,10,6
India,Delhi,Delhi,"Sirifort, Delhi - CPCB",09-06-2026 13:00:00,28.5504249,77.2159377,CO,2,75,15
India,Delhi,Delhi,"Sonia Vihar, Delhi - DPCC",09-06-2026 13:00:00,28.710508,77.249485,PM10,129,341,191
India,Delhi,Delhi,"Sri Aurobindo Marg, Delhi - DPCC",09-06-2026 13:00:00,28.531346,77.190156,SO2,7,15,10
India,Delhi,Delhi,"Sri Aurobindo Marg, Delhi - DPCC",09-06-2026 13:00:00,28.531346,77.190156,CO,23,55,27
India,Delhi,Delhi,"Talkatora Garden, Delhi - DPCC",09-06-2026 13:00:00,28.621810,77.1944633,CO,42,88,57
India,Delhi,Delhi,"IGNOU_Maidan Garhi, Delhi - DPCC",09-06-2026 13:00:00,28.493624 ,77.201159 ,NH3,1,23,4
India,Delhi,Delhi,"IGNOU_Maidan Garhi, Delhi - DPCC",09-06-2026 13:00:00,28.493624 ,77.201159 ,SO2,28,35,30
India,Delhi,Delhi,"IIT Delhi, Delhi - IITM",09-06-2026 13:00:00,28.542460,77.191651,PM2.5,36,97,68
India,Delhi,Delhi,"IIT Delhi, Delhi - IITM",09-06-2026 13:00:00,28.542460,77.191651,NO2,5,151,33
India,Delhi,Delhi,"IIT Delhi, Delhi - IITM",09-06-2026 13:00:00,28.542460,77.191651,OZONE,6,54,33
India,Delhi,Delhi,"IMD Lodhi Road, Delhi - IITM",09-06-2026 13:00:00,28.5918245,77.2273074,PM2.5,41,102,64
India,Delhi,Delhi,"ITO, Delhi - CPCB",09-06-2026 13:00:00,28.628624,77.241060,PM2.5,41,134,63
India,Delhi,Delhi,"JNU, Delhi - DPCC",09-06-2026 13:00:00,28.540721 ,77.168544 ,PM2.5,51,92,70
India,Delhi,Delhi,"Jahangirpuri, Delhi - DPCC",09-06-2026 13:00:00,28.732820,77.170633,NO2,24,133,58
India,Delhi,Delhi,"Jahangirpuri, Delhi - DPCC",09-06-2026 13:00:00,28.732820,77.170633,OZONE,4,51,11
India,Delhi,Delhi,"Jawaharlal Nehru Stadium, Delhi - DPCC",09-06-2026 13:00:00,28.580280,77.233829,SO2,9,49,19
India,Delhi,Delhi,"Jawaharlal Nehru Stadium, Delhi - DPCC",09-06-2026 13:00:00,28.580280,77.233829,OZONE,5,92,25
India,Delhi,Delhi,"Major Dhyan Chand National Stadium, Delhi - DPCC",09-06-2026 13:00:00,28.611281,77.237738,PM10,109,184,142
India,Delhi,Delhi,"Major Dhyan Chand National Stadium, Delhi - DPCC",09-06-2026 13:00:00,28.611281,77.237738,NH3,7,13,10
India,Haryana,Yamuna Nagar,"Gobind Pura, Yamuna Nagar - HSPCB",09-06-2026 13:00:00,30.1480566,77.2893471,CO,24,51,47
India,Himachal Pradesh,Baddi,"HIMUDA Complex Phase-1, Baddi - HPPCB",09-06-2026 13:00:00,30.943887,76.801991,SO2,42,42,42
India,Jharkhand,Dhanbad,"Sardar Patel Nagar, Dhanbad - JSPCB",09-06-2026 13:00:00,23.80569,86.44268,CO,2,101,28
India,Jharkhand,Dhanbad,"Sardar Patel Nagar, Dhanbad - JSPCB",09-06-2026 13:00:00,23.80569,86.44268,OZONE,17,80,39
India,Jharkhand,Jorapokhar,"Tata Stadium, Jorapokhar - JSPCB",09-06-2026 13:00:00,23.707909,86.414670,CO,37,40,39
India,Karnataka,Belgaum,"Ramteerth Nagar, Belgaum - KSPCB",09-06-2026 13:00:00,15.888653,74.541751,PM10,NA,NA,NA
India,Karnataka,Belgaum,"Ramteerth Nagar, Belgaum - KSPCB",09-06-2026 13:00:00,15.888653,74.541751,NO2,NA,NA,NA
India,Karnataka,Bengaluru,"BTM Layout, Bengaluru - CPCB",09-06-2026 13:00:00,12.9135218,77.5950804,NO2,19,20,19
India,Karnataka,Bengaluru,"BTM Layout, Bengaluru - CPCB",09-06-2026 13:00:00,12.9135218,77.5950804,NH3,3,3,3
India,Karnataka,Bengaluru,"BWSSB Kadabesanahalli, Bengaluru - CPCB",09-06-2026 13:00:00,12.9352049,77.6814488,CO,35,39,36
India,Karnataka,Bengaluru,"Hebbal, Bengaluru - KSPCB",09-06-2026 13:00:00,13.029152,77.585901,NO2,13,29,20
India,Delhi,Delhi,"Mandir Marg, Delhi - DPCC",09-06-2026 13:00:00,28.636429,77.201067,PM10,107,215,147
India,Delhi,Delhi,"Mundka, Delhi - DPCC",09-06-2026 13:00:00,28.684678,77.076574,PM2.5,40,213,65
India,Delhi,Delhi,"Mundka, Delhi - DPCC",09-06-2026 13:00:00,28.684678,77.076574,PM10,124,403,179
India,Delhi,Delhi,"Mundka, Delhi - DPCC",09-06-2026 13:00:00,28.684678,77.076574,NH3,6,11,8
India,Delhi,Delhi,"NSIT Dwarka, Delhi - CPCB",09-06-2026 13:00:00,28.60909,77.0325413,SO2,8,15,12
India,Delhi,Delhi,"NSUT Jaffarpur, Delhi - DPCC",09-06-2026 13:00:00,28.594004 ,76.909423 ,PM2.5,51,108,72
India,Delhi,Delhi,"Najafgarh, Delhi - DPCC",09-06-2026 13:00:00,28.570173,76.933762,NH3,8,12,10
India,Delhi,Delhi,"Narela, Delhi - DPCC",09-06-2026 13:00:00,28.822836,77.101981,PM2.5,67,290,139
India,Delhi,Delhi,"Narela, Delhi - DPCC",09-06-2026 13:00:00,28.822836,77.101981,NH3,7,9,8
India,Delhi,Delhi,"North Campus, DU, Delhi - IITM",09-06-2026 13:00:00,28.6573814,77.1585447,OZONE,3,128,20
India,Delhi,Delhi,"Okhla Phase-2, Delhi - DPCC",09-06-2026 13:00:00,28.530785,77.271255,SO2,8,19,12
India,Delhi,Delhi,"Okhla Phase-2, Delhi - DPCC",09-06-2026 13:00:00,28.530785,77.271255,CO,8,115,29
India,Delhi,Delhi,"Patparganj, Delhi - DPCC",09-06-2026 13:00:00,28.623763,77.287209,PM10,135,309,182
India,Haryana,Faridabad,"New Industrial Town, Faridabad - HSPCB",09-06-2026 13:00:00,28.39072,77.30059,CO,20,30,23
India,Haryana,Faridabad,"New Industrial Town, Faridabad - HSPCB",09-06-2026 13:00:00,28.39072,77.30059,OZONE,22,24,23
India,Haryana,Faridabad,"Sector 11, Faridabad - HSPCB",09-06-2026 13:00:00,28.376058,77.315741,OZONE,14,16,15
India,Haryana,Faridabad,"Sector 30, Faridabad - HSPCB",09-06-2026 13:00:00,28.4417,77.3217,PM10,110,127,119
India,Haryana,Faridabad,"Sector 30, Faridabad - HSPCB",09-06-2026 13:00:00,28.4417,77.3217,SO2,6,6,6
India,Haryana,Fatehabad,"Huda Sector, Fatehabad - HSPCB",09-06-2026 13:00:00,29.503664,75.467934,CO,24,52,39
India,Haryana,Gurugram,"NISE Gwal Pahari, Gurugram - IITM",09-06-2026 13:00:00,28.422681,77.148944,PM2.5,39,97,64
India,Haryana,Gurugram,"NISE Gwal Pahari, Gurugram - IITM",09-06-2026 13:00:00,28.422681,77.148944,PM10,77,406,162
India,Haryana,Gurugram,"Sector-51, Gurugram - HSPCB",09-06-2026 13:00:00,28.4227,77.0667,NO2,4,10,6
India,Haryana,Gurugram,"Teri Gram, Gurugram - HSPCB",09-06-2026 13:00:00,28.4275,77.1465,NO2,NA,NA,NA
India,Haryana,Kaithal,"Rishi Nagar, Kaithal - HSPCB",09-06-2026 13:00:00,29.8006,76.4155,NH3,1,7,6
India,Haryana,Manesar,"Sector-2 IMT, Manesar - HSPCB",09-06-2026 13:00:00,28.360699,76.936090,OZONE,10,51,25
India,Haryana,Narnaul,"Shastri Nagar, Narnaul - HSPCB",09-06-2026 13:00:00,28.060249,76.113115,PM2.5,56,166,92
India,Haryana,Narnaul,"Shastri Nagar, Narnaul - HSPCB",09-06-2026 13:00:00,28.060249,76.113115,OZONE,11,53,29
India,Haryana,Palwal,"Shyam Nagar, Palwal - HSPCB",09-06-2026 13:00:00,28.1485564,77.3320667,NO2,23,24,24
India,Haryana,Palwal,"Shyam Nagar, Palwal - HSPCB",09-06-2026 13:00:00,28.1485564,77.3320667,NH3,8,9,9
India,Haryana,Panchgaon,"Amity University, Panchgaon - IITM",09-06-2026 13:00:00,28.3153,76.9143,PM2.5,111,294,191
India,Haryana,Panchkula,"Sector-6, Panchkula - HSPCB ",09-06-2026 13:00:00,30.7057778,76.8531805555555,PM2.5,NA,NA,NA
India,Kerala,Thiruvananthapuram,"Plammoodu, Thiruvananthapuram - Kerala PCB",09-06-2026 13:00:00,8.5149093,76.9435879,OZONE,11,19,14
India,Kerala,Thrissur,"Corporation Ground, Thrissur - Kerala PCB",09-06-2026 13:00:00,10.532400,76.215900,PM2.5,32,43,37
India,Madhya Pradesh,Bhopal,"Idgah Hills, Bhopal - MPPCB",09-06-2026 13:00:00,23.264759,77.381568,PM2.5,22,82,52
India,Madhya Pradesh,Bhopal,"T T Nagar, Bhopal - MPPCB",09-06-2026 13:00:00,23.233584,77.400574,CO,36,88,41
India,Madhya Pradesh,Bhopal,"T T Nagar, Bhopal - MPPCB",09-06-2026 13:00:00,23.233584,77.400574,OZONE,24,99,36
India,Madhya Pradesh,Damoh,"Shrivastav Colony, Damoh - MPPCB",09-06-2026 13:00:00,23.81748678,79.446246,PM2.5,NA,NA,NA
India,Madhya Pradesh,Dewas,"Bhopal Chauraha, Dewas - MPPCB",09-06-2026 13:00:00,22.9682591,76.064118,PM2.5,18,49,37
India,Madhya Pradesh,Dewas,"Bhopal Chauraha, Dewas - MPPCB",09-06-2026 13:00:00,22.9682591,76.064118,PM10,62,135,94
India,Madhya Pradesh,Dewas,"Bhopal Chauraha, Dewas - MPPCB",09-06-2026 13:00:00,22.9682591,76.064118,CO,19,36,24
India,Madhya Pradesh,Gwalior,"Deen Dayal Nagar, Gwalior - MPPCB",09-06-2026 13:00:00,26.259242,78.216432,NH3,2,7,5
India,Madhya Pradesh,Gwalior,"Deen Dayal Nagar, Gwalior - MPPCB",09-06-2026 13:00:00,26.259242,78.216432,CO,26,83,30
India,Madhya Pradesh,Gwalior,"Deen Dayal Nagar, Gwalior - MPPCB",09-06-2026 13:00:00,26.259242,78.216432,OZONE,48,107,78
India,Madhya Pradesh,Gwalior,"Maharaj Bada, Gwalior - MPPCB",09-06-2026 13:00:00,26.200388,78.147714,PM2.5,30,88,47
India,Madhya Pradesh,Gwalior,"Maharaj Bada, Gwalior - MPPCB",09-06-2026 13:00:00,26.200388,78.147714,SO2,6,42,16
India,Madhya Pradesh,Indore,"Airport Area, Indore - IMC",09-06-2026 13:00:00,22.7289,75.8076,PM2.5,NA,NA,NA
India,Madhya Pradesh,Indore,"Airport Area, Indore - IMC",09-06-2026 13:00:00,22.7289,75.8076,PM10,NA,NA,NA
India,Madhya Pradesh,Indore,"Airport Area, Indore - IMC",09-06-2026 13:00:00,22.7289,75.8076,NH3,NA,NA,NA
India,Madhya Pradesh,Indore,"Airport Area, Indore - IMC",09-06-2026 13:00:00,22.7289,75.8076,SO2,NA,NA,NA
India,Madhya Pradesh,Indore,"Chhoti Gwaltoli, Indore - MPPCB",09-06-2026 13:00:00,22.4310,75.5213,PM10,64,113,94
India,Karnataka,Kalaburagi,"Mahatma Basaveswar Colony, Kalaburgi - KSPCB",09-06-2026 13:00:00,17.336318,76.847397,CO,28,40,29
India,Karnataka,Kalaburagi,"Mahatma Basaveswar Colony, Kalaburgi - KSPCB",09-06-2026 13:00:00,17.336318,76.847397,OZONE,8,13,8
India,Karnataka,Madikeri,"Stuart Hill, Madikeri - KSPCB",09-06-2026 13:00:00,12.415911,75.735050,PM2.5,4,30,14
India,Karnataka,Madikeri,"Stuart Hill, Madikeri - KSPCB",09-06-2026 13:00:00,12.415911,75.735050,PM10,6,24,15
India,Karnataka,Madikeri,"Stuart Hill, Madikeri - KSPCB",09-06-2026 13:00:00,12.415911,75.735050,OZONE,1,17,3
India,Karnataka,Mangalore,"Kadri, Mangalore - KSPCB",09-06-2026 13:00:00,12.889250,74.853000,OZONE,37,37,37
India,Karnataka,Mysuru,"Hebbal 1st Stage, Mysuru - KSPCB",09-06-2026 13:00:00,12.21041,76.37376,SO2,1,7,3
India,Karnataka,Ramanagara,"Vijay Nagar, Ramanagara - KSPCB",09-06-2026 13:00:00,12.733409,77.298051,PM10,NA,NA,NA
India,Karnataka,Shivamogga,"Vinoba Nagara, Shivamogga - KSPCB",09-06-2026 13:00:00,13.940000,75.555917,PM2.5,20,43,25
India,Karnataka,Shivamogga,"Vinoba Nagara, Shivamogga - KSPCB",09-06-2026 13:00:00,13.940000,75.555917,PM10,34,61,39
India,Karnataka,Shivamogga,"Vinoba Nagara, Shivamogga - KSPCB",09-06-2026 13:00:00,13.940000,75.555917,CO,10,38,29
India,Karnataka,Tumakuru,"Thimmalapura, Tumakuru - KSPCB",09-06-2026 13:00:00,13.377516,77.099072,PM10,NA,NA,NA
India,Karnataka,Vijayapura,"Ibrahimpur, Vijayapura - KSPCB",09-06-2026 13:00:00,16.802639,75.722694,NO2,11,12,11
India,Karnataka,Vijayapura,"Ibrahimpur, Vijayapura - KSPCB",09-06-2026 13:00:00,16.802639,75.722694,SO2,3,6,3
India,Kerala,Kannur,"Thavakkara, Kannur - Kerala PCB",09-06-2026 13:00:00,11.875000,75.373200,SO2,1,1,1
India,Kerala,Kollam,"Polayathode, Kollam - Kerala PCB",09-06-2026 13:00:00,8.8787,76.6073,SO2,NA,NA,NA
India,Madhya Pradesh,Indore,"Maguda Nagar, Indore - IMC",09-06-2026 13:00:00,22.7524,75.8872,NO2,NA,NA,NA
India,Madhya Pradesh,Indore,"Regional Park, Indore - IMC",09-06-2026 13:00:00,22.6780,75.8559,NO2,30,43,38
India,Madhya Pradesh,Indore,"Regional Park, Indore - IMC",09-06-2026 13:00:00,22.6780,75.8559,NH3,8,17,11
India,Madhya Pradesh,Indore,"Residency Area, Indore - IMC",09-06-2026 13:00:00,22.7084,75.8815,PM2.5,28,48,40
India,Madhya Pradesh,Indore,"Residency Area, Indore - IMC",09-06-2026 13:00:00,22.7084,75.8815,OZONE,6,11,7
India,Madhya Pradesh,Jabalpur,"Govindh Bhavan Colony, Jabalpur - JMC",09-06-2026 13:00:00,23.163174,79.973061,NO2,9,12,10
India,Madhya Pradesh,Jabalpur,"Govindh Bhavan Colony, Jabalpur - JMC",09-06-2026 13:00:00,23.163174,79.973061,OZONE,8,75,21
India,Madhya Pradesh,Jabalpur,"Gupteshwar, Jabalpur - JMC",09-06-2026 13:00:00,23.142888,79.916147,SO2,28,33,31
India,Madhya Pradesh,Jabalpur,"Marhatal, Jabalpur - MPPCB",09-06-2026 13:00:00,23.168606,79.932247,NH3,1,3,1
India,Madhya Pradesh,Jabalpur,"Suhagi, Jabalpur - JMC",09-06-2026 13:00:00,23.218135,79.957770,PM10,25,67,43
India,Madhya Pradesh,Jabalpur,"Suhagi, Jabalpur - JMC",09-06-2026 13:00:00,23.218135,79.957770,SO2,7,12,10
India,Madhya Pradesh,Jabalpur,"Suhagi, Jabalpur - JMC",09-06-2026 13:00:00,23.218135,79.957770,OZONE,37,73,55
India,Madhya Pradesh,Katni,"Gole Bazar, Katni - MPPCB",09-06-2026 13:00:00,23.50016,80.23284,NO2,15,35,22
India,Madhya Pradesh,Maihar,"Sahilara, Maihar - KJS Cements",09-06-2026 13:00:00,24.2613009,80.7231783,PM2.5,NA,NA,NA
India,Madhya Pradesh,Mandideep,"Sector-D Industrial Area, Mandideep - MPPCB",09-06-2026 13:00:00,23.108440,77.511428,SO2,12,64,23
India,Madhya Pradesh,Mandideep,"Sector-D Industrial Area, Mandideep - MPPCB",09-06-2026 13:00:00,23.108440,77.511428,OZONE,4,55,13
India,Maharashtra,Mira-Bhayandar,"Bhayandar West, Mira-Bhayandar - MPCB",09-06-2026 13:00:00,19.296481,72.840923,PM10,18,54,37
India,Maharashtra,Mira-Bhayandar,"Bhayandar West, Mira-Bhayandar - MPCB",09-06-2026 13:00:00,19.296481,72.840923,NO2,2,4,3
India,Maharashtra,Mumbai,"Bandra Kurla Complex, Mumbai - IITM",09-06-2026 13:00:00,19.053536,72.84643,NO2,4,7,5
India,Maharashtra,Mumbai,"Borivali East, Mumbai - IITM",09-06-2026 13:00:00,19.23241,72.86895,PM2.5,19,68,39
India,Maharashtra,Mumbai,"Borivali East, Mumbai - IITM",09-06-2026 13:00:00,19.23241,72.86895,PM10,48,78,65
India,Maharashtra,Mumbai,"Borivali East, Mumbai - IITM",09-06-2026 13:00:00,19.23241,72.86895,OZONE,32,73,56
India,Maharashtra,Mumbai,"Chakala-Andheri East, Mumbai - IITM",09-06-2026 13:00:00,19.11074,72.86084,NO2,13,28,21
India,Maharashtra,Mumbai,"Chakala-Andheri East, Mumbai - IITM",09-06-2026 13:00:00,19.11074,72.86084,NH3,7,10,8
India,Maharashtra,Mumbai,"Chhatrapati Shivaji Intl. Airport (T2), Mumbai - MPCB",09-06-2026 13:00:00,19.10078,72.87462,NO2,25,26,26
India,Maharashtra,Mumbai,"Chhatrapati Shivaji Intl. Airport (T2), Mumbai - MPCB",09-06-2026 13:00:00,19.10078,72.87462,SO2,7,8,7
India,Maharashtra,Mumbai,"Deonar, Mumbai - IITM",09-06-2026 13:00:00,19.04946,72.9230,PM10,36,91,61
India,Maharashtra,Mumbai,"Deonar, Mumbai - IITM",09-06-2026 13:00:00,19.04946,72.9230,NO2,2,11,6
India,Maharashtra,Mumbai,"Kandivali West, Mumbai - BMC",09-06-2026 13:00:00,19.215859,72.831718,PM10,36,148,85
India,Maharashtra,Mumbai,"Khindipada-Bhandup West, Mumbai - IITM",09-06-2026 13:00:00,19.1653323,72.922099,PM10,31,69,52
India,Maharashtra,Amravati,"Shivneri Colony, Amravati - MPCB",09-06-2026 13:00:00,20.9402359,77.7895248,SO2,NA,NA,NA
India,Maharashtra,Amravati,"Shri Shivaji Science College, Amravati - MPCB",09-06-2026 13:00:00,20.939198,77.765701,PM10,59,102,77
India,Maharashtra,Amravati,"Shri Shivaji Science College, Amravati - MPCB",09-06-2026 13:00:00,20.939198,77.765701,NO2,4,11,6
India,Maharashtra,Aurangabad,"More Chowk Waluj, Aurangabad - MPCB",09-06-2026 13:00:00,19.8389439,75.244448,CO,1,121,2
India,Maharashtra,Aurangabad,"More Chowk Waluj, Aurangabad - MPCB",09-06-2026 13:00:00,19.8389439,75.244448,OZONE,9,42,20
India,Maharashtra,Aurangabad,"Rachnakar Colony, Aurangabad - MPCB",09-06-2026 13:00:00,19.863756,75.321188,PM10,32,68,46
India,Maharashtra,Badlapur,"Katrap, Badlapur - MPCB",09-06-2026 13:00:00,19.16485,73.23409,PM10,51,89,71
India,Maharashtra,Badlapur,"Katrap, Badlapur - MPCB",09-06-2026 13:00:00,19.16485,73.23409,NH3,6,7,6
India,Maharashtra,Beed,"Bir, Beed - MPCB",09-06-2026 13:00:00,18.988474,75.753873,CO,11,21,14
India,Maharashtra,Beed,"Bir, Beed - MPCB",09-06-2026 13:00:00,18.988474,75.753873,OZONE,9,34,14
India,Maharashtra,Belapur,"CBD Belapur, Belapur - MPCB",09-06-2026 13:00:00,19.0243902,73.0406721,PM2.5,31,73,45
India,Maharashtra,Belapur,"CBD Belapur, Belapur - MPCB",09-06-2026 13:00:00,19.0243902,73.0406721,SO2,1,102,10
India,Maharashtra,Bhiwandi,"Gokul Nagar, Bhiwandi - MPCB",09-06-2026 13:00:00,19.309073,73.057223,CO,12,19,15
India,Maharashtra,Bhiwandi,"Gokul Nagar, Bhiwandi - MPCB",09-06-2026 13:00:00,19.309073,73.057223,OZONE,12,91,30
India,Madhya Pradesh,Pithampur,"Sector-2 Industrial Area, Pithampur - MPPCB",09-06-2026 13:00:00,22.624758,75.675238,NH3,6,8,8
India,Madhya Pradesh,Pithampur,"Sector-2 Industrial Area, Pithampur - MPPCB",09-06-2026 13:00:00,22.624758,75.675238,CO,4,54,24
India,Madhya Pradesh,Sagar,"Civil Lines, Sagar - MPPCB",09-06-2026 13:00:00,23.838586,78.759431,PM2.5,13,66,43
India,Madhya Pradesh,Sagar,"Civil Lines, Sagar - MPPCB",09-06-2026 13:00:00,23.838586,78.759431,OZONE,15,46,20
India,Madhya Pradesh,Satna,"Bandhavgar Colony, Satna - Birla Cement",09-06-2026 13:00:00,24.58434363,80.8549414,PM2.5,49,52,50
India,Madhya Pradesh,Satna,"Bandhavgar Colony, Satna - Birla Cement",09-06-2026 13:00:00,24.58434363,80.8549414,PM10,70,72,70
India,Madhya Pradesh,Satna,"Bandhavgar Colony, Satna - Birla Cement",09-06-2026 13:00:00,24.58434363,80.8549414,SO2,18,19,18
India,Madhya Pradesh,Singrauli,"Suryakiran Bhawan NCL, Singrauli - MPPCB",09-06-2026 13:00:00,24.108970,82.645580,OZONE,1,13,4
India,Madhya Pradesh,Ujjain,"Mahashweta Nagar, Ujjain - MPPCB",09-06-2026 13:00:00,23.1633321,75.800225,OZONE,13,63,22
India,Maharashtra,Ahmednagar,"Tarakpur, Ahmednagar - MPCB",09-06-2026 13:00:00,19.10122,74.73339,NH3,1,5,3
India,Maharashtra,Ahmednagar,"Tarakpur, Ahmednagar - MPCB",09-06-2026 13:00:00,19.10122,74.73339,CO,4,40,8
India,Maharashtra,Akola,"Ramdaspeth, Akola - MPCB",09-06-2026 13:00:00,20.719516,77.000253,NH3,6,9,7
India,Maharashtra,Akola,"Ramdaspeth, Akola - MPCB",09-06-2026 13:00:00,20.719516,77.000253,CO,24,30,25
India,Maharashtra,Chandrapur,"MIDC Khutala, Chandrapur - MPCB",09-06-2026 13:00:00,19.9775302,79.2337086,OZONE,22,100,47
India,Maharashtra,Dhule,"Deopur, Dhule - MPCB",09-06-2026 13:00:00,20.918946,74.776388,PM10,83,119,101
India,Maharashtra,Dhule,"Deopur, Dhule - MPCB",09-06-2026 13:00:00,20.918946,74.776388,NO2,4,11,6
India,Maharashtra,Dombivli,"Kalu Nagar, Dombivli - MPCB",09-06-2026 13:00:00,19.2268427 ,73.0788456 ,NH3,1,2,1
India,Maharashtra,Hingoli,"Ashta Vinayak Nagar, Hingoli - MPCB",09-06-2026 13:00:00,19.710842,77.151824,PM10,16,66,37
India,Maharashtra,Hingoli,"Ashta Vinayak Nagar, Hingoli - MPCB",09-06-2026 13:00:00,19.710842,77.151824,SO2,1,4,3
India,Maharashtra,Hingoli,"Ashta Vinayak Nagar, Hingoli - MPCB",09-06-2026 13:00:00,19.710842,77.151824,OZONE,33,96,49
India,Maharashtra,Jalgaon,"Prabhat Colony, Jalgaon - MPCB",09-06-2026 13:00:00,21.001264,75.565602,CO,20,54,25
India,Maharashtra,Kalyan,"Pimpleshwar Mandir, Kalyan - MPCB",09-06-2026 13:00:00,19.192056,72.9585188,PM10,35,116,84
India,Maharashtra,Kalyan,"Pimpleshwar Mandir, Kalyan - MPCB",09-06-2026 13:00:00,19.192056,72.9585188,NO2,10,12,11
India,Maharashtra,Latur,"Sawe Wadi, Latur - MPCB",09-06-2026 13:00:00,18.39963,76.57452,NO2,8,47,20
India,Maharashtra,Malegaon,"Mahesh Nagar, Malegaon - MPCB",09-06-2026 13:00:00,20.555712,74.529236,PM2.5,34,66,48
India,Maharashtra,Malegaon,"Mahesh Nagar, Malegaon - MPCB",09-06-2026 13:00:00,20.555712,74.529236,NO2,NA,NA,NA
India,Karnataka,Bengaluru,"Jayanagar 5th Block, Bengaluru - KSPCB",09-06-2026 13:00:00,12.920984,77.584908,PM10,25,56,39
India,Karnataka,Chamarajanagar,"Urban, Chamarajanagar - KSPCB",09-06-2026 13:00:00,11.55358,76.55521,PM2.5,25,39,29
India,Karnataka,Chamarajanagar,"Urban, Chamarajanagar - KSPCB",09-06-2026 13:00:00,11.55358,76.55521,PM10,35,50,40
India,Karnataka,Chamarajanagar,"Urban, Chamarajanagar - KSPCB",09-06-2026 13:00:00,11.55358,76.55521,NO2,15,35,23
India,Karnataka,Chamarajanagar,"Urban, Chamarajanagar - KSPCB",09-06-2026 13:00:00,11.55358,76.55521,CO,12,25,21
India,Karnataka,Chikkaballapur,"Chikkaballapur Rural, Chikkaballapur - KSPCB",09-06-2026 13:00:00,13.428828,77.731418,PM2.5,2,27,10
India,Karnataka,Chikkamagaluru,"Kalyana Nagara, Chikkamagaluru - KSPCB",09-06-2026 13:00:00,13.328028,75.797056,NO2,16,36,32
India,Karnataka,Chikkamagaluru,"Kalyana Nagara, Chikkamagaluru - KSPCB",09-06-2026 13:00:00,13.328028,75.797056,SO2,1,3,3
India,Karnataka,Gadag,"Panchal Nagar, Gadag - KSPCB",09-06-2026 13:00:00,15.411456,75.638133,PM2.5,6,11,9
India,Karnataka,Hubballi,"Lingaraj Nagar, Hubballi - KSPCB",09-06-2026 13:00:00,15.3714823,75.1160168,CO,8,32,10
India,Karnataka,Kalaburagi,"Mahatma Basaveswar Colony, Kalaburgi - KSPCB",09-06-2026 13:00:00,17.336318,76.847397,PM2.5,12,44,30
India,Karnataka,Kalaburagi,"Mahatma Basaveswar Colony, Kalaburgi - KSPCB",09-06-2026 13:00:00,17.336318,76.847397,NO2,10,17,14
India,Maharashtra,Mumbai,"Kurla, Mumbai - MPCB",09-06-2026 13:00:00,19.0863,72.8888,NH3,NA,NA,NA
India,Maharashtra,Mumbai,"Malad West, Mumbai - IITM",09-06-2026 13:00:00,19.19709,72.82204,PM2.5,2,58,23
India,Maharashtra,Mumbai,"Malad West, Mumbai - IITM",09-06-2026 13:00:00,19.19709,72.82204,PM10,14,136,62
India,Maharashtra,Mumbai,"Malad West, Mumbai - IITM",09-06-2026 13:00:00,19.19709,72.82204,SO2,3,8,6
India,Maharashtra,Mumbai,"Mazgaon, Mumbai - IITM",09-06-2026 13:00:00,18.96702,72.84214,PM2.5,24,73,38
India,Maharashtra,Mumbai,"Mazgaon, Mumbai - IITM",09-06-2026 13:00:00,18.96702,72.84214,NH3,1,2,1
India,Maharashtra,Mumbai,"Mazgaon, Mumbai - IITM",09-06-2026 13:00:00,18.96702,72.84214,SO2,2,15,9
India,Maharashtra,Mumbai,"Mindspace-Malad West, Mumbai - MPCB",09-06-2026 13:00:00,19.1878657,72.8304069,CO,10,40,10
India,Maharashtra,Mumbai,"Mindspace-Malad West, Mumbai - MPCB",09-06-2026 13:00:00,19.1878657,72.8304069,OZONE,6,51,22
India,Maharashtra,Mumbai,"Mulund West, Mumbai - MPCB",09-06-2026 13:00:00,19.1750,72.9419,NH3,5,5,5
India,Maharashtra,Mumbai,"Powai, Mumbai - MPCB",09-06-2026 13:00:00,19.137500,72.915056,NH3,2,2,2
India,Maharashtra,Mumbai,"Sion, Mumbai - MPCB",09-06-2026 13:00:00,19.047000,72.874600,CO,14,16,16
India,Maharashtra,Thane,"Kasarvadavali, Thane - MPCB",09-06-2026 13:00:00,19.26777,72.97182,PM2.5,42,158,62
India,Maharashtra,Thane,"Kasarvadavali, Thane - MPCB",09-06-2026 13:00:00,19.26777,72.97182,NO2,9,24,15
India,Maharashtra,Thane,"Kasarvadavali, Thane - MPCB",09-06-2026 13:00:00,19.26777,72.97182,NH3,1,4,2
India,Maharashtra,Thane,"Upvan Fort, Thane - MPCB",09-06-2026 13:00:00,19.222279,72.957979,CO,1,44,5
India,Maharashtra,Thane,"Upvan Fort, Thane - MPCB",09-06-2026 13:00:00,19.222279,72.957979,OZONE,5,20,13
India,Maharashtra,Ulhasnagar,"Sidhi Vinayak Nagar, Ulhasnagar - MPCB",09-06-2026 13:00:00,19.235581,73.159121,NO2,8,29,19
India,Maharashtra,Ulhasnagar,"Sidhi Vinayak Nagar, Ulhasnagar - MPCB",09-06-2026 13:00:00,19.235581,73.159121,NH3,3,6,5
India,Maharashtra,Ulhasnagar,"Vithalwadi, Ulhasnagar - MPCB",09-06-2026 13:00:00,19.2307571 ,73.1551920,NH3,1,2,2
India,Maharashtra,Ulhasnagar,"Vithalwadi, Ulhasnagar - MPCB",09-06-2026 13:00:00,19.2307571 ,73.1551920,OZONE,12,21,16
India,Maharashtra,Virar,"Bolinj, Virar - MPCB",09-06-2026 13:00:00,19.4458210,72.7988231,NO2,21,31,25
India,Meghalaya,Byrnihat,"15th Mile-Nongthymmai, Byrnihat - Meghalaya PCB",09-06-2026 13:00:00,26.05374,91.86796,PM2.5,74,345,222
India,Meghalaya,Byrnihat,"15th Mile-Nongthymmai, Byrnihat - Meghalaya PCB",09-06-2026 13:00:00,26.05374,91.86796,PM10,80,272,163
India,Meghalaya,Shillong,"JN Stadium, Shillong - Meghalaya PCB",09-06-2026 13:00:00,25.5803419,91.8942571,PM2.5,NA,NA,NA
India,Meghalaya,Shillong,"JN Stadium, Shillong - Meghalaya PCB",09-06-2026 13:00:00,25.5803419,91.8942571,NO2,7,36,21
India,Meghalaya,Shillong,"JN Stadium, Shillong - Meghalaya PCB",09-06-2026 13:00:00,25.5803419,91.8942571,OZONE,4,5,3
India,Mizoram,Aizawl,"Sikulpuikawn, Aizawl - Mizoram PCB",09-06-2026 13:00:00,23.7176342,92.7192841,SO2,14,15,15
India,Nagaland,Kohima,"PWD Junction, Kohima - NPCB",09-06-2026 13:00:00,25.6635413,94.0989878,NO2,3,4,3
India,Nagaland,Kohima,"PWD Junction, Kohima - NPCB",09-06-2026 13:00:00,25.6635413,94.0989878,SO2,37,48,41
India,Odisha,Angul,"Hakimapada, Angul - OSPCB",09-06-2026 13:00:00,20.832874,85.104082,PM10,41,224,129
India,Odisha,Angul,"Hakimapada, Angul - OSPCB",09-06-2026 13:00:00,20.832874,85.104082,NO2,6,35,17
India,Odisha,Balasore,"Kalidaspur, Balasore - OSPCB",09-06-2026 13:00:00,21.51161,86.89088,PM2.5,38,90,64
India,Rajasthan,Bhilwara,"Pratap Nagar, Bhilwara - RSPCB",09-06-2026 13:00:00,25.339605,74.618883,NO2,5,22,11
India,Rajasthan,Bhilwara,"Pratap Nagar, Bhilwara - RSPCB",09-06-2026 13:00:00,25.339605,74.618883,NH3,4,9,6
India,Rajasthan,Bhilwara,"Pratap Nagar, Bhilwara - RSPCB",09-06-2026 13:00:00,25.339605,74.618883,SO2,3,19,7
India,Rajasthan,Bhilwara,"Pratap Nagar, Bhilwara - RSPCB",09-06-2026 13:00:00,25.339605,74.618883,OZONE,24,93,41
India,Rajasthan,Bhiwadi,"RIICO Ind. Area III, Bhiwadi - RSPCB",09-06-2026 13:00:00,28.194909,76.862296,PM2.5,80,251,164
India,Rajasthan,Bhiwadi,"RIICO Ind. Area III, Bhiwadi - RSPCB",09-06-2026 13:00:00,28.194909,76.862296,CO,52,88,66
India,Rajasthan,Bhiwadi,"RIICO Ind. Area III, Bhiwadi - RSPCB",09-06-2026 13:00:00,28.194909,76.862296,OZONE,10,85,28
India,Rajasthan,Bhiwadi,"Vasundhara Nagar_UIT, Bhiwadi - RSPCB",09-06-2026 13:00:00,28.207266,76.829265,PM2.5,34,147,73
India,Rajasthan,Bundi,"New Colony, Bundi - RSPCB",09-06-2026 13:00:00,25.435774,75.644272,PM10,69,137,90
India,Rajasthan,Bundi,"New Colony, Bundi - RSPCB",09-06-2026 13:00:00,25.435774,75.644272,NO2,8,80,22
India,Rajasthan,Bundi,"New Colony, Bundi - RSPCB",09-06-2026 13:00:00,25.435774,75.644272,SO2,5,11,8
India,Rajasthan,Chittorgarh,"Shastri Nagar, Chittorgarh - RSPCB",09-06-2026 13:00:00,24.892047,74.623527,PM2.5,43,137,61
India,Rajasthan,Churu,"Subash Chowk, Churu - RSPCB",09-06-2026 13:00:00,28.296139,74.961696,PM2.5,20,84,41
India,Rajasthan,Churu,"Subash Chowk, Churu - RSPCB",09-06-2026 13:00:00,28.296139,74.961696,NO2,2,35,8
India,Rajasthan,Dausa,"Khatikan Mohalla, Dausa - RSPCB",09-06-2026 13:00:00,26.895552,76.334753,NO2,21,78,42
India,Rajasthan,Dholpur,"Raja Ganj, Dholpur - RSPCB",09-06-2026 13:00:00,26.699557,77.898881,PM2.5,18,48,32
India,Rajasthan,Dholpur,"Raja Ganj, Dholpur - RSPCB",09-06-2026 13:00:00,26.699557,77.898881,NO2,4,37,15
India,Rajasthan,Dungarpur,"Bhoiwada, Dungarpur - RSPCB",09-06-2026 13:00:00,23.837789,73.714926,CO,10,46,25
India,Rajasthan,Hanumangarh,"Housing Board, Hanumangarh - RSPCB",09-06-2026 13:00:00,29.610750,74.283608,PM10,84,167,115
India,Rajasthan,Jaipur,"Mansarovar Sector-12, Jaipur - RSPCB",09-06-2026 13:00:00,26.843698,75.766894,NO2,9,76,24
India,Rajasthan,Jaipur,"RIICO Sitapura, Jaipur - RSPCB",09-06-2026 13:00:00,26.786682,75.827928,SO2,1,4,2
India,Rajasthan,Jaipur,"RIICO Sitapura, Jaipur - RSPCB",09-06-2026 13:00:00,26.786682,75.827928,CO,11,63,19
India,Rajasthan,Jaipur,"RIICO Sitapura, Jaipur - RSPCB",09-06-2026 13:00:00,26.786682,75.827928,OZONE,4,62,26
India,Rajasthan,Jaipur,"Sector-2 Murlipura, Jaipur - RSPCB",09-06-2026 13:00:00,26.960669,75.771817,CO,2,44,10
India,Rajasthan,Jaipur,"Shastri Nagar, Jaipur - RSPCB",09-06-2026 13:00:00,26.9502929,75.730943,PM2.5,57,102,74
India,Rajasthan,Jaipur,"Shastri Nagar, Jaipur - RSPCB",09-06-2026 13:00:00,26.9502929,75.730943,NO2,36,101,53
India,Rajasthan,Jaipur,"Shastri Nagar, Jaipur - RSPCB",09-06-2026 13:00:00,26.9502929,75.730943,NH3,8,20,13
India,Rajasthan,Jaipur,"Shastri Nagar, Jaipur - RSPCB",09-06-2026 13:00:00,26.9502929,75.730943,OZONE,17,33,21
India,Rajasthan,Jaisalmer,"Sadar Bazar, Jaisalmer - RSPCB",09-06-2026 13:00:00,26.912329,70.909168,CO,6,14,9
India,Rajasthan,Jaisalmer,"Sadar Bazar, Jaisalmer - RSPCB",09-06-2026 13:00:00,26.912329,70.909168,OZONE,18,64,28
India,Rajasthan,Jalore,"Mudtra Sili, Jalore - RSPCB",09-06-2026 13:00:00,25.344694,72.626208,PM2.5,33,73,54
India,Rajasthan,Jalore,"Mudtra Sili, Jalore - RSPCB",09-06-2026 13:00:00,25.344694,72.626208,SO2,5,10,7
India,Odisha,Rairangpur,"Divisional Forest Office, Rairangpur - OSPCB",09-06-2026 13:00:00,22.265816,86.174829,CO,10,66,40
India,Odisha,Rourkela,"Fertilizer Township, Rourkela - OSPCB",09-06-2026 13:00:00,22.18972222,84.86277778,PM10,67,77,71
India,Odisha,Rourkela,"Raghunathpali, Rourkela - OSPCB",09-06-2026 13:00:00,22.220833,84.809444,NO2,14,15,15
India,Odisha,Suakati,"OMC Colony, Suakati - OSPCB",09-06-2026 13:00:00,21.606865,85.510538,PM2.5,42,62,54
India,Odisha,Suakati,"OMC Colony, Suakati - OSPCB",09-06-2026 13:00:00,21.606865,85.510538,PM10,56,81,70
India,Odisha,Suakati,"OMC Colony, Suakati - OSPCB",09-06-2026 13:00:00,21.606865,85.510538,OZONE,9,49,39
India,Odisha,Talcher,"Talcher Coalfields,Talcher - OSPCB",09-06-2026 13:00:00,20.9360711,85.1707021,CO,100,113,104
India,Puducherry,Puducherry,"Jawahar Nagar, Puducherry - PPCC",09-06-2026 13:00:00,11.9309,79.8027,CO,10,31,18
India,Puducherry,Puducherry,"Jawahar Nagar, Puducherry - PPCC",09-06-2026 13:00:00,11.9309,79.8027,OZONE,19,61,37
India,Punjab,Amritsar,"Golden Temple, Amritsar - PPCB",09-06-2026 13:00:00,31.620000,74.876512,PM2.5,69,142,93
India,Punjab,Bathinda,"Hardev Nagar, Bathinda - PPCB",09-06-2026 13:00:00,30.233011,74.907758,CO,46,80,78
India,Punjab,Jalandhar,"Civil Line, Jalandhar - PPCB",09-06-2026 13:00:00,31.321907,75.578914,PM2.5,64,156,101
India,Maharashtra,Pimpri-Chinchwad,"Savta Mali Nagar, Pimpri-Chinchwad - IITM",09-06-2026 13:00:00,18.614767,73.799516,OZONE,10,60,21
India,Maharashtra,Pimpri-Chinchwad,"Transport Nagar-Nigdi, Pimpri-Chinchwad- IITM",09-06-2026 13:00:00,18.664282,73.763966,NO2,13,18,16
India,Maharashtra,Pune,"Dhankawadi, Pune - IITM",09-06-2026 13:00:00,18.459883,73.852193,PM10,31,106,70
India,Maharashtra,Pune,"Dhankawadi, Pune - IITM",09-06-2026 13:00:00,18.459883,73.852193,OZONE,2,24,6
India,Maharashtra,Pune,"Panchawati_Pashan, Pune - IITM",09-06-2026 13:00:00,18.536457,73.805454,CO,8,50,27
India,Maharashtra,Pune,"Revenue Colony-Shivajinagar, Pune - IITM",09-06-2026 13:00:00,18.530085,73.849598,PM10,36,86,54
India,Maharashtra,Pune,"Revenue Colony-Shivajinagar, Pune - IITM",09-06-2026 13:00:00,18.530085,73.849598,NO2,8,23,17
India,Maharashtra,Pune,"Revenue Colony-Shivajinagar, Pune - IITM",09-06-2026 13:00:00,18.530085,73.849598,CO,22,52,42
India,Maharashtra,Pune,"Revenue Colony-Shivajinagar, Pune - IITM",09-06-2026 13:00:00,18.530085,73.849598,OZONE,11,30,14
India,Maharashtra,Sangli,"Vijay Nagar, Sangli - MPCB",09-06-2026 13:00:00, 16.5038,74.3623,OZONE,26,47,37
India,Maharashtra,Satara,"Koyana Nagar, Satara - MPCB",09-06-2026 13:00:00,17.696651,74.003387,CO,12,21,15
India,Maharashtra,Satara,"Koyana Nagar, Satara - MPCB",09-06-2026 13:00:00,17.696651,74.003387,OZONE,25,58,31
India,Maharashtra,Solapur,"Dnyaneshwar Nagar, Solapur - MPCB",09-06-2026 13:00:00,17.6336264,75.9132495,PM2.5,14,52,26
India,Maharashtra,Solapur,"Dnyaneshwar Nagar, Solapur - MPCB",09-06-2026 13:00:00,17.6336264,75.9132495,NH3,9,17,12
India,Punjab,Khanna,"Kalal Majra, Khanna - PPCB",09-06-2026 13:00:00,30.736056 ,76.209694,NO2,27,31,28
India,Punjab,Khanna,"Kalal Majra, Khanna - PPCB",09-06-2026 13:00:00,30.736056 ,76.209694,OZONE,20,40,30
India,Punjab,Patiala,"Model Town, Patiala - PPCB",09-06-2026 13:00:00,30.349388,76.366642,PM10,80,135,105
India,Punjab,Patiala,"Model Town, Patiala - PPCB",09-06-2026 13:00:00,30.349388,76.366642,NO2,17,19,18
India,Punjab,Patiala,"Model Town, Patiala - PPCB",09-06-2026 13:00:00,30.349388,76.366642,NH3,6,7,6
India,Punjab,Rupnagar,"Ratanpura, Rupnagar - Ambuja Cements",09-06-2026 13:00:00,31.0325454,76.5623046,PM10,7,500,275
India,Punjab,Rupnagar,"Ratanpura, Rupnagar - Ambuja Cements",09-06-2026 13:00:00,31.0325454,76.5623046,CO,32,42,38
India,Rajasthan,Ajmer,"Civil Lines,  Ajmer - RSPCB",09-06-2026 13:00:00,26.470859,74.646594,NH3,7,10,8
India,Rajasthan,Banswara,"Rati Talai, Banswara - RSPCB",09-06-2026 13:00:00,23.555190,74.440010,SO2,9,28,11
India,Rajasthan,Banswara,"Rati Talai, Banswara - RSPCB",09-06-2026 13:00:00,23.555190,74.440010,CO,6,22,11
India,Rajasthan,Banswara,"Rati Talai, Banswara - RSPCB",09-06-2026 13:00:00,23.555190,74.440010,OZONE,11,191,40
India,Rajasthan,Baran,"Bamboliya, Baran - RSPCB",09-06-2026 13:00:00,25.106006,76.469948,NH3,2,10,6
India,Rajasthan,Baran,"Bamboliya, Baran - RSPCB",09-06-2026 13:00:00,25.106006,76.469948,SO2,5,12,10
India,Rajasthan,Barmer,"Railway Colony, Barmer - RSPCB",09-06-2026 13:00:00,25.747299,71.393989,NH3,2,2,2
India,Maharashtra,Mumbai,"Worli, Mumbai -MPCB",09-06-2026 13:00:00,18.9942180,72.8158167,NH3,3,3,3
India,Maharashtra,Nagpur,"Ambazari, Nagpur - MPCB",09-06-2026 13:00:00,21.121801,79.04952,PM2.5,26,62,48
India,Maharashtra,Nagpur,"Ambazari, Nagpur - MPCB",09-06-2026 13:00:00,21.121801,79.04952,SO2,7,24,15
India,Maharashtra,Nagpur,"Mahal, Nagpur - MPCB",09-06-2026 13:00:00,21.14472,79.107595,NO2,9,53,22
India,Maharashtra,Nagpur,"Mahal, Nagpur - MPCB",09-06-2026 13:00:00,21.14472,79.107595,CO,26,107,35
India,Maharashtra,Nagpur,"Mahal, Nagpur - MPCB",09-06-2026 13:00:00,21.14472,79.107595,OZONE,28,131,48
India,Maharashtra,Nagpur,"Opp GPO Civil Lines, Nagpur - MPCB",09-06-2026 13:00:00,21.152875,79.0517531,CO,10,84,27
India,Maharashtra,Nanded,"Sneh Nagar, Nanded - MPCB",09-06-2026 13:00:00,19.173852,77.296291,NO2,11,25,17
India,Maharashtra,Nashik,"Gangapur Road, Nashik - MPCB",09-06-2026 13:00:00,20.0073285,73.7762427,PM10,30,90,48
India,Maharashtra,Nashik,"Hirawadi, Nashik - MPCB",09-06-2026 13:00:00,20.021503,73.813844,NH3,2,9,2
India,Maharashtra,Nashik,"Hirawadi, Nashik - MPCB",09-06-2026 13:00:00,20.021503,73.813844,CO,24,32,26
India,Maharashtra,Nashik,"MIDC Ambad, Nashik - MPCB",09-06-2026 13:00:00,19.950220,73.731480,NH3,1,4,2
India,Maharashtra,Nashik,"MIDC Ambad, Nashik - MPCB",09-06-2026 13:00:00,19.950220,73.731480,SO2,1,5,3
India,Maharashtra,Nashik,"MIDC Ambad, Nashik - MPCB",09-06-2026 13:00:00,19.950220,73.731480,CO,8,13,11
India,Maharashtra,Navi Mumbai,"Nerul, Navi Mumbai - MPCB",09-06-2026 13:00:00,19.008751,73.016620,NO2,60,60,60
India,Maharashtra,Navi Mumbai,"Sanpada, Navi Mumbai - MPCB",09-06-2026 13:00:00,19.0575752,73.0151367,PM2.5,21,35,24
India,Maharashtra,Navi Mumbai,"Sanpada, Navi Mumbai - MPCB",09-06-2026 13:00:00,19.0575752,73.0151367,PM10,36,71,53
India,Maharashtra,Navi Mumbai,"Sanpada, Navi Mumbai - MPCB",09-06-2026 13:00:00,19.0575752,73.0151367,NO2,3,9,4
India,Maharashtra,Parbhani,"Masoom Colony, Parbhani - MPCB",09-06-2026 13:00:00,19.265594,76.761463,PM10,22,70,39
India,Maharashtra,Pimpri-Chinchwad,"Bhosari,Pimpri-Chinchwad - IITM",09-06-2026 13:00:00,18.640051,73.848956,NO2,15,28,22
India,Maharashtra,Pimpri-Chinchwad,"Bhumkar Nagar, Pimpri-Chinchwad - IITM",09-06-2026 13:00:00,18.605770,73.749976,PM10,27,95,61
India,Maharashtra,Pimpri-Chinchwad,"Gavalinagar, Pimpri Chinchwad - MPCB",09-06-2026 13:00:00,18.63673,73.82487,NH3,NA,NA,NA
India,Maharashtra,Pimpri-Chinchwad,"Park Street Wakad, Pimpri Chinchwad - MPCB",09-06-2026 13:00:00,18.59051,73.77946,PM10,20,52,35
India,Odisha,Balasore,"Kalidaspur, Balasore - OSPCB",09-06-2026 13:00:00,21.51161,86.89088,NH3,2,4,3
India,Odisha,Baripada,"Meher Colony, Baripada - OSPCB",09-06-2026 13:00:00,21.941841,86.728318,NH3,1,2,1
India,Odisha,Bhubaneswar,"Lingraj Mandir, Bhubaneswar - OSPCB",09-06-2026 13:00:00,20.240790,85.836784,PM2.5,3,63,42
India,Odisha,Bhubaneswar,"Lingraj Mandir, Bhubaneswar - OSPCB",09-06-2026 13:00:00,20.240790,85.836784,NH3,2,15,5
India,Odisha,Brajrajnagar,"GM Office, Brajrajnagar - OSPCB",09-06-2026 13:00:00,21.8004996,83.8396977,NO2,9,35,21
India,Odisha,Keonjhar,"Jagamohanpur, Keonjhar - OSPCB",09-06-2026 13:00:00,21.643900,85.599355,PM2.5,13,57,33
India,Odisha,Keonjhar,"Jagamohanpur, Keonjhar - OSPCB",09-06-2026 13:00:00,21.643900,85.599355,PM10,20,90,58
India,Odisha,Keonjhar,"Jagamohanpur, Keonjhar - OSPCB",09-06-2026 13:00:00,21.643900,85.599355,OZONE,14,40,30
India,Rajasthan,Jhalawar,"Rajlaxmi Nagar, Jhalawar - RSPCB",09-06-2026 13:00:00,24.588397,76.172782,PM2.5,17,60,42
India,Rajasthan,Jhalawar,"Rajlaxmi Nagar, Jhalawar - RSPCB",09-06-2026 13:00:00,24.588397,76.172782,PM10,69,101,83
India,Rajasthan,Jhalawar,"Rajlaxmi Nagar, Jhalawar - RSPCB",09-06-2026 13:00:00,24.588397,76.172782,SO2,1,5,3
India,Rajasthan,Jhalawar,"Rajlaxmi Nagar, Jhalawar - RSPCB",09-06-2026 13:00:00,24.588397,76.172782,CO,98,105,101
India,Rajasthan,Jhalawar,"Rajlaxmi Nagar, Jhalawar - RSPCB",09-06-2026 13:00:00,24.588397,76.172782,OZONE,12,94,28
India,Rajasthan,Jhunjhunu,"Indra Nagar, Jhunjhunu - RSPCB",09-06-2026 13:00:00,28.108988,75.386577,PM2.5,22,58,42
India,Rajasthan,Jhunjhunu,"Indra Nagar, Jhunjhunu - RSPCB",09-06-2026 13:00:00,28.108988,75.386577,PM10,78,173,115
India,Rajasthan,Jodhpur,"Collectorate, Jodhpur - RSPCB",09-06-2026 13:00:00,26.268249,73.0193853,NO2,21,31,26
India,Rajasthan,Jodhpur,"Collectorate, Jodhpur - RSPCB",09-06-2026 13:00:00,26.268249,73.0193853,SO2,1,13,5
India,Rajasthan,Jodhpur,"Digari Kalan, Jodhpur - RSPCB",09-06-2026 13:00:00,26.295810,73.082283,PM2.5,20,42,32
India,Rajasthan,Jodhpur,"Digari Kalan, Jodhpur - RSPCB",09-06-2026 13:00:00,26.295810,73.082283,NO2,3,8,5
India,Rajasthan,Jodhpur,"Jhalamand, Jodhpur - RSPCB",09-06-2026 13:00:00,26.215415,73.070156,PM2.5,28,57,40
India,Rajasthan,Jodhpur,"Mandor, Jodhpur - RSPCB",09-06-2026 13:00:00,26.358805,73.047444,NH3,3,4,3
India,Rajasthan,Jodhpur,"Samrat Ashok Udhyan, Jodhpur - RSPCB",09-06-2026 13:00:00,26.253384,72.976571,CO,12,18,14
India,Rajasthan,Jodhpur,"Samrat Ashok Udhyan, Jodhpur - RSPCB",09-06-2026 13:00:00,26.253384,72.976571,OZONE,19,87,31
India,Rajasthan,Karauli,"Satyawati Vihar, Karauli - RSPCB",09-06-2026 13:00:00,26.506177,77.025989,NH3,2,12,9
India,Rajasthan,Karauli,"Satyawati Vihar, Karauli - RSPCB",09-06-2026 13:00:00,26.506177,77.025989,CO,5,34,15
India,Rajasthan,Kota,"Dhanmandi, Kota - RSPCB",09-06-2026 13:00:00,25.164090,75.858137,PM2.5,15,72,34
India,Rajasthan,Kota,"Dhanmandi, Kota - RSPCB",09-06-2026 13:00:00,25.164090,75.858137,NO2,13,90,28
India,Rajasthan,Kota,"Dhanmandi, Kota - RSPCB",09-06-2026 13:00:00,25.164090,75.858137,CO,8,72,12
India,Rajasthan,Kota,"Nayapura, Kota - RSPCB",09-06-2026 13:00:00,25.196024,75.855668,PM2.5,27,177,75
India,Rajasthan,Kota,"Nayapura, Kota - RSPCB",09-06-2026 13:00:00,25.196024,75.855668,NO2,8,54,22
India,Rajasthan,Kota,"Nayapura, Kota - RSPCB",09-06-2026 13:00:00,25.196024,75.855668,NH3,3,7,4
India,Rajasthan,Kota,"Nayapura, Kota - RSPCB",09-06-2026 13:00:00,25.196024,75.855668,CO,7,65,15
India,Rajasthan,Kota,"Nayapura, Kota - RSPCB",09-06-2026 13:00:00,25.196024,75.855668,OZONE,17,63,37
India,Rajasthan,Kota,"Shrinath Puram, Kota - RSPCB",09-06-2026 13:00:00,25.14389,75.821256,NO2,8,15,12
India,Sikkim,Gangtok,"Zero Point GICI, Gangtok - SSPCB",09-06-2026 13:00:00,27.338530,88.614099,NH3,1,1,1
India,Sikkim,Gangtok,"Zero Point GICI, Gangtok - SSPCB",09-06-2026 13:00:00,27.338530,88.614099,CO,1,9,5
India,TamilNadu,Chennai,"Arumbakkam, Chennai - TNPCB",09-06-2026 13:00:00,13.0664,80.2112 ,PM10,51,117,82
India,TamilNadu,Chennai,"Arumbakkam, Chennai - TNPCB",09-06-2026 13:00:00,13.0664,80.2112 ,NH3,4,6,5
India,TamilNadu,Chennai,"Kodungaiyur, Chennai - TNPCB",09-06-2026 13:00:00,13.1278,80.2642,NO2,11,15,14
India,TamilNadu,Chennai,"Manali Village, Chennai - TNPCB",09-06-2026 13:00:00,13.1662,80.2584,PM10,19,52,31
India,TamilNadu,Chennai,"Manali Village, Chennai - TNPCB",09-06-2026 13:00:00,13.1662,80.2584,OZONE,4,321,148
India,TamilNadu,Chennai,"Manali, Chennai - CPCB",09-06-2026 13:00:00,13.164544,80.26285,PM2.5,18,47,27
India,TamilNadu,Chennai,"Manali, Chennai - CPCB",09-06-2026 13:00:00,13.164544,80.26285,NH3,5,7,6
India,TamilNadu,Chennai,"Manali, Chennai - CPCB",09-06-2026 13:00:00,13.164544,80.26285,CO,11,46,14
India,TamilNadu,Chennai,"Perungudi, Chennai - TNPCB",09-06-2026 13:00:00,12.9533,80.2357,SO2,2,6,5
India,TamilNadu,Chennai,"Royapuram, Chennai - TNPCB",09-06-2026 13:00:00,13.1036,80.2909,PM10,45,58,52
India,TamilNadu,Chennai,"Royapuram, Chennai - TNPCB",09-06-2026 13:00:00,13.1036,80.2909,NO2,13,16,14
India,TamilNadu,Chennai,"Royapuram, Chennai - TNPCB",09-06-2026 13:00:00,13.1036,80.2909,NH3,4,4,4
India,TamilNadu,Chennai,"Royapuram, Chennai - TNPCB",09-06-2026 13:00:00,13.1036,80.2909,OZONE,28,33,31
India,TamilNadu,Chennai,"Velachery Res. Area, Chennai - CPCB",09-06-2026 13:00:00,13.0052189,80.2398125,SO2,4,8,6
India,TamilNadu,Coimbatore,"PSG College of Arts and Science, Coimbatore - TNPCB",09-06-2026 13:00:00,11.0328,77.0349,NH3,1,1,1
India,TamilNadu,Coimbatore,"SIDCO Kurichi, Coimbatore - TNPCB",09-06-2026 13:00:00,10.942451,76.978996,OZONE,19,20,20
India,TamilNadu,Cuddalore,"Semmandalam, Cuddalore - TNPCB",09-06-2026 13:00:00,11.7637683,79.7499835,OZONE,1,2,2
India,TamilNadu,Gummidipoondi,"Anthoni Pillai Nagar, Gummidipoondi - TNPCB",09-06-2026 13:00:00,13.4127,80.1081,PM2.5,19,185,57
India,TamilNadu,Madurai,"Uchapatti, Madurai - TNPCB",09-06-2026 13:00:00,9.865935,78.022669,SO2,NA,NA,NA
India,TamilNadu,Perundurai,"SIPCOT Industrial Park, Perundurai - TNPCB",09-06-2026 13:00:00,11.258242,77.552761,CO,28,43,34
India,TamilNadu,Perundurai,"SIPCOT Industrial Park, Perundurai - TNPCB",09-06-2026 13:00:00,11.258242,77.552761,OZONE,9,18,14
India,TamilNadu,Thoothukudi,"Meelavittan, Thoothukudi - TNPCB",09-06-2026 13:00:00,8.816428 ,78.099039,CO,23,28,25
India,Telangana,Hyderabad,"Central University, Hyderabad - TSPCB",09-06-2026 13:00:00,17.460103,78.334361,NH3,1,5,2
India,Telangana,Hyderabad,"ECIL Kapra, Hyderabad - TSPCB",09-06-2026 13:00:00,17.470431,78.566959,PM10,73,83,78
India,Telangana,Hyderabad,"ICRISAT Patancheru, Hyderabad - TSPCB",09-06-2026 13:00:00,17.518400,78.278777,NH3,2,2,2
India,Telangana,Hyderabad,"IDA Pashamylaram, Hyderabad - TSPCB",09-06-2026 13:00:00,17.5316895,78.218939,CO,2,8,5
India,Telangana,Hyderabad,"IITH Kandi, Hyderabad - TSPCB",09-06-2026 13:00:00,17.585705,78.126199,SO2,10,17,12
India,Telangana,Hyderabad,"IITH Kandi, Hyderabad - TSPCB",09-06-2026 13:00:00,17.585705,78.126199,CO,30,42,35
India,Telangana,Hyderabad,"IITH Kandi, Hyderabad - TSPCB",09-06-2026 13:00:00,17.585705,78.126199,OZONE,18,30,22
India,Telangana,Hyderabad,"Kompally Municipal Office, Hyderabad - TSPCB",09-06-2026 13:00:00,17.544899,78.486949,PM2.5,39,53,47
India,Telangana,Hyderabad,"Kompally Municipal Office, Hyderabad - TSPCB",09-06-2026 13:00:00,17.544899,78.486949,PM10,75,115,88
India,Telangana,Hyderabad,"Kompally Municipal Office, Hyderabad - TSPCB",09-06-2026 13:00:00,17.544899,78.486949,NO2,13,16,13
India,Telangana,Hyderabad,"Kompally Municipal Office, Hyderabad - TSPCB",09-06-2026 13:00:00,17.544899,78.486949,OZONE,13,36,24
India,Uttar_Pradesh,Ghaziabad,"Govindpuram, Ghaziabad - UPPCB",09-06-2026 13:00:00,28.694528 ,77.494705 ,NO2,15,61,33
India,Uttar_Pradesh,Ghaziabad,"Govindpuram, Ghaziabad - UPPCB",09-06-2026 13:00:00,28.694528 ,77.494705 ,OZONE,14,196,68
India,Uttar_Pradesh,Ghaziabad,"Indirapuram, Ghaziabad - UPPCB",09-06-2026 13:00:00,28.646233,77.358075,PM10,94,459,177
India,Uttar_Pradesh,Ghaziabad,"Indirapuram, Ghaziabad - UPPCB",09-06-2026 13:00:00,28.646233,77.358075,NH3,5,9,7
India,Uttar_Pradesh,Ghaziabad,"Loni, Ghaziabad - UPPCB",09-06-2026 13:00:00,28.757294,77.278792,OZONE,8,87,21
India,Uttar_Pradesh,Ghaziabad,"Vasundhara, Ghaziabad - UPPCB",09-06-2026 13:00:00,28.6603346,77.3572563,SO2,19,42,28
India,Uttar_Pradesh,Greater Noida,"Knowledge Park - III, Greater Noida - UPPCB",09-06-2026 13:00:00,28.47272,77.482000,PM10,116,404,206
India,Uttar_Pradesh,Greater Noida,"Knowledge Park - III, Greater Noida - UPPCB",09-06-2026 13:00:00,28.47272,77.482000,CO,25,34,30
India,Uttar_Pradesh,Greater Noida,"Knowledge Park - III, Greater Noida - UPPCB",09-06-2026 13:00:00,28.47272,77.482000,OZONE,9,147,61
India,Uttar_Pradesh,Hapur,"Anand Vihar, Hapur - UPPCB",09-06-2026 13:00:00,28.725645,77.749675,NO2,8,69,33
India,Uttar_Pradesh,Hapur,"Anand Vihar, Hapur - UPPCB",09-06-2026 13:00:00,28.725645,77.749675,OZONE,1,66,22
India,Uttar_Pradesh,Jhansi,"Shivaji Nagar, Jhansi - UPPCB",09-06-2026 13:00:00,25.4547,78.6039,CO,6,18,9
India,Uttar_Pradesh,Kanpur,"FTI Kidwai Nagar, Kanpur - UPPCB",09-06-2026 13:00:00,26.428282,80.327067,NO2,25,27,26
India,Uttar_Pradesh,Lucknow,"Lalbagh, Lucknow - CPCB",09-06-2026 13:00:00,26.8458805,80.9365541,NH3,14,24,18
India,Uttar_Pradesh,Lucknow,"Talkatora District Industries Center, Lucknow - CPCB",09-06-2026 13:00:00,26.83399722,80.8917361,PM2.5,49,187,110
India,Uttar_Pradesh,Lucknow,"Talkatora District Industries Center, Lucknow - CPCB",09-06-2026 13:00:00,26.83399722,80.8917361,OZONE,21,117,35
India,Uttar_Pradesh,Meerut,"Jai Bhim Nagar, Meerut - UPPCB",09-06-2026 13:00:00,28.9535882,77.7622941,NH3,1,2,1
India,Uttar_Pradesh,Meerut,"Jai Bhim Nagar, Meerut - UPPCB",09-06-2026 13:00:00,28.9535882,77.7622941,SO2,4,8,6
India,Uttar_Pradesh,Meerut,"Jai Bhim Nagar, Meerut - UPPCB",09-06-2026 13:00:00,28.9535882,77.7622941,OZONE,14,160,54
India,Uttar_Pradesh,Meerut,"Pallavpuram Phase 2, Meerut - UPPCB",09-06-2026 13:00:00,29.063510,77.709723,PM2.5,NA,NA,NA
India,Uttar_Pradesh,Meerut,"Pallavpuram Phase 2, Meerut - UPPCB",09-06-2026 13:00:00,29.063510,77.709723,OZONE,64,205,160
India,Uttar_Pradesh,Moradabad,"Buddhi Vihar, Moradabad - UPPCB",09-06-2026 13:00:00,28.83526,78.74460,OZONE,15,95,53
India,Uttar_Pradesh,Moradabad,"Eco Herbal Park, Moradabad - UPPCB",09-06-2026 13:00:00,28.840739,78.697531,NO2,51,74,64
India,Uttar_Pradesh,Moradabad,"Eco Herbal Park, Moradabad - UPPCB",09-06-2026 13:00:00,28.840739,78.697531,SO2,9,28,17
India,Uttar_Pradesh,Moradabad,"Eco Herbal Park, Moradabad - UPPCB",09-06-2026 13:00:00,28.840739,78.697531,CO,14,44,35
India,Uttar_Pradesh,Moradabad,"Eco Herbal Park, Moradabad - UPPCB",09-06-2026 13:00:00,28.840739,78.697531,OZONE,9,116,58
India,Rajasthan,Pratapgarh,"Pragati Nagar, Pratapgarh - RSPCB",09-06-2026 13:00:00,24.041198,74.780702,NO2,9,16,13
India,Rajasthan,Sawai Madhopur,"Sahu Nagar, Sawai Madhopur - RSPCB",09-06-2026 13:00:00,26.031443,76.359327,OZONE,30,85,48
India,Rajasthan,Sikar,"Radhakishan Pura, Sikar - RSPCB",09-06-2026 13:00:00,27.608912,75.153302,PM10,99,164,123
India,Rajasthan,Sikar,"Radhakishan Pura, Sikar - RSPCB",09-06-2026 13:00:00,27.608912,75.153302,NH3,2,5,3
India,Rajasthan,Sikar,"Radhakishan Pura, Sikar - RSPCB",09-06-2026 13:00:00,27.608912,75.153302,OZONE,25,82,52
India,Rajasthan,Sirohi,"Vedhaynath Colony, Sirohi - RSPCB",09-06-2026 13:00:00,24.885261,72.857549,NH3,2,3,2
India,Rajasthan,Sri Ganganagar,"Old City, Sri Ganganagar - RSPCB",09-06-2026 13:00:00,29.931624,73.864511,PM2.5,37,93,51
India,Rajasthan,Tonk,"Shastri Nagar, Tonk - RSPCB",09-06-2026 13:00:00,26.159933,75.780517,PM2.5,45,90,64
India,Rajasthan,Tonk,"Shastri Nagar, Tonk - RSPCB",09-06-2026 13:00:00,26.159933,75.780517,CO,18,58,33
India,Rajasthan,Udaipur,"Ashok Nagar, Udaipur - RSPCB",09-06-2026 13:00:00,24.5886166,73.6321397,NH3,1,14,3
India,Rajasthan,Udaipur,"Ashok Nagar, Udaipur - RSPCB",09-06-2026 13:00:00,24.5886166,73.6321397,OZONE,4,56,21
India,Uttar_Pradesh,Kanpur,"NSI Kalyanpur, Kanpur - UPPCB",09-06-2026 13:00:00,26.509954,80.249612,PM2.5,25,60,39
India,Uttar_Pradesh,Kanpur,"NSI Kalyanpur, Kanpur - UPPCB",09-06-2026 13:00:00,26.509954,80.249612,PM10,48,120,92
India,Uttar_Pradesh,Kanpur,"NSI Kalyanpur, Kanpur - UPPCB",09-06-2026 13:00:00,26.509954,80.249612,NO2,31,31,31
India,Uttar_Pradesh,Kanpur,"Nehru Nagar, Kanpur - UPPCB",09-06-2026 13:00:00,26.4703136,80.3229863,NO2,40,46,43
India,Uttar_Pradesh,Lucknow,"B R Ambedkar University, Lucknow - UPPCB",09-06-2026 13:00:00,26.766433,80.927299,PM2.5,NA,NA,NA
India,Uttar_Pradesh,Lucknow,"Gomti Nagar, Lucknow - UPPCB",09-06-2026 13:00:00,26.868120,81.005119,NO2,11,13,12
India,Uttar_Pradesh,Lucknow,"Gomti Nagar, Lucknow - UPPCB",09-06-2026 13:00:00,26.868120,81.005119,OZONE,48,60,54
India,Uttar_Pradesh,Lucknow,"Kukrail Picnic Spot-1, Lucknow - UPPCB",09-06-2026 13:00:00,26.90723,80.98579,CO,12,20,15
India,Uttar_Pradesh,Lucknow,"Lalbagh, Lucknow - CPCB",09-06-2026 13:00:00,26.8458805,80.9365541,PM2.5,46,159,74
India,Uttar_Pradesh,Agra,"Sector-3B Avas Vikas Colony, Agra - UPPCB",09-06-2026 13:00:00,27.19412,77.96237,OZONE,7,25,12
India,Uttar_Pradesh,Agra,"Shahjahan Garden, Agra - UPPCB",09-06-2026 13:00:00,27.169338,78.03582,OZONE,1,17,17
India,Uttar_Pradesh,Agra,"Shastripuram, Agra - UPPCB",09-06-2026 13:00:00,27.19862,77.92066,NO2,24,30,25
India,Uttar_Pradesh,Agra,"Shastripuram, Agra - UPPCB",09-06-2026 13:00:00,27.19862,77.92066,OZONE,9,42,30
India,Uttar_Pradesh,Baghpat,"Sardar Patel Inter College, Baghpat - UPPCB",09-06-2026 13:00:00,28.964949,77.278761,PM2.5,41,244,131
India,Uttar_Pradesh,Baghpat,"Sardar Patel Inter College, Baghpat - UPPCB",09-06-2026 13:00:00,28.964949,77.278761,CO,23,78,50
India,Uttar_Pradesh,Bulandshahr,"Yamunapuram, Bulandshahr - UPPCB",09-06-2026 13:00:00,28.406963,77.849831,OZONE,5,64,25
India,Uttar_Pradesh,Firozabad,"Vibhab Nagar, Firozabad - UPPCB",09-06-2026 13:00:00,27.1594,78.3953,CO,19,42,33
India,Telangana,Hyderabad,"New Malakpet, Hyderabad - TSPCB",09-06-2026 13:00:00,17.37206,78.50864,PM10,56,247,94
India,Telangana,Hyderabad,"New Malakpet, Hyderabad - TSPCB",09-06-2026 13:00:00,17.37206,78.50864,OZONE,20,36,21
India,Telangana,Hyderabad,"Sanathnagar, Hyderabad - TSPCB",09-06-2026 13:00:00,17.4559458,78.4332152,SO2,2,13,7
India,Telangana,Hyderabad,"Zoo Park, Hyderabad - TSPCB",09-06-2026 13:00:00,17.349694,78.451437,SO2,2,2,2
India,Tripura,Agartala,"Bardowali, Agartala - Tripura SPCB",09-06-2026 13:00:00,23.8175497,91.2726974,NH3,2,6,3
India,Uttar_Pradesh,Agra,"Rohta, Agra - UPPCB",09-06-2026 13:00:00,27.106972,78.000111,PM2.5,NA,NA,NA
India,Uttar_Pradesh,Agra,"Rohta, Agra - UPPCB",09-06-2026 13:00:00,27.106972,78.000111,NO2,16,17,16
India,Uttar_Pradesh,Moradabad,"Kashiram Nagar, Moradabad - UPPCB",09-06-2026 13:00:00,28.849399,78.742362,NO2,24,25,25
India,Uttar_Pradesh,Muzaffarnagar,"New Mandi, Muzaffarnagar - UPPCB",09-06-2026 13:00:00,29.4723508,77.7194031,NH3,2,5,3
India,Uttar_Pradesh,Muzaffarnagar,"New Mandi, Muzaffarnagar - UPPCB",09-06-2026 13:00:00,29.4723508,77.7194031,SO2,8,83,46
India,Uttar_Pradesh,Noida,"Sector - 125, Noida - UPPCB",09-06-2026 13:00:00,28.5447608,77.3231257,NH3,19,28,22
India,Uttar_Pradesh,Noida,"Sector - 125, Noida - UPPCB",09-06-2026 13:00:00,28.5447608,77.3231257,CO,2,128,30
India,Uttar_Pradesh,Noida,"Sector - 62, Noida - IITM",09-06-2026 13:00:00,28.6245479,77.3577104,PM2.5,57,284,101
India,Uttar_Pradesh,Noida,"Sector-1, Noida - UPPCB",09-06-2026 13:00:00,28.5898,77.3101,PM2.5,42,135,69
India,Uttar_Pradesh,Noida,"Sector-1, Noida - UPPCB",09-06-2026 13:00:00,28.5898,77.3101,CO,14,113,19
India,Uttar_Pradesh,Noida,"Sector-1, Noida - UPPCB",09-06-2026 13:00:00,28.5898,77.3101,OZONE,4,166,56
India,Uttar_Pradesh,Noida,"Sector-116, Noida - UPPCB",09-06-2026 13:00:00,28.569230,77.393848,NO2,31,228,96
India,Uttar_Pradesh,Noida,"Sector-116, Noida - UPPCB",09-06-2026 13:00:00,28.569230,77.393848,SO2,12,20,15
India,Uttar_Pradesh,Prayagraj,"Motilal Nehru NIT, Prayagraj - UPPCB",09-06-2026 13:00:00,25.494,81.863,PM2.5,27,54,38
India,Uttar_Pradesh,Prayagraj,"Motilal Nehru NIT, Prayagraj - UPPCB",09-06-2026 13:00:00,25.494,81.863,CO,4,35,10
India,Uttar_Pradesh,Varanasi,"Ardhali Bazar, Varanasi - UPPCB",09-06-2026 13:00:00,25.3505986,82.9083074,NO2,38,43,41
India,Uttar_Pradesh,Varanasi,"Ardhali Bazar, Varanasi - UPPCB",09-06-2026 13:00:00,25.3505986,82.9083074,OZONE,13,36,23
India,Uttar_Pradesh,Varanasi,"Bhelupur, Varanasi - UPPCB",09-06-2026 13:00:00,25.301778,82.996789,SO2,24,31,26
India,Uttar_Pradesh,Varanasi,"Maldahiya, Varanasi - UPPCB",09-06-2026 13:00:00,25.32393,82.99687,PM10,67,119,81
India,Uttar_Pradesh,Vrindavan,"Omex Eternity, Vrindavan - UPPCB",09-06-2026 13:00:00,27.5714090,77.6557570,CO,9,24,11
India,Uttarakhand,Dehradun,"Doon University, Dehradun - UKPCB",09-06-2026 13:00:00,30.269444,78.044167,PM10,38,116,80
India,Uttarakhand,Dehradun,"Doon University, Dehradun - UKPCB",09-06-2026 13:00:00,30.269444,78.044167,SO2,1,4,2
India,Uttarakhand,Kashipur,"Govt. Girls Inter College, Kashipur - UKPCB",09-06-2026 13:00:00,29.2124114,78.9611753,SO2,2,9,7
India,Uttarakhand,Rishikesh,"Shivaji Nagar, Rishikesh - UKPCB",09-06-2026 13:00:00,30.075911,78.2859547,PM10,21,95,51
India,Uttarakhand,Rishikesh,"Shivaji Nagar, Rishikesh - UKPCB",09-06-2026 13:00:00,30.075911,78.2859547,CO,6,32,12
India,West_Bengal,Asansol,"Asansol Court Area, Asansol - WBPCB",09-06-2026 13:00:00,23.685297,86.945968,SO2,10,22,14
India,West_Bengal,Asansol,"Evelyn Lodge, Asansol - WBPCB",09-06-2026 13:00:00,23.6979360,86.9443950,PM2.5,32,70,47
India,West_Bengal,Asansol,"Evelyn Lodge, Asansol - WBPCB",09-06-2026 13:00:00,23.6979360,86.9443950,NH3,4,5,4
India,West_Bengal,Asansol,"Evelyn Lodge, Asansol - WBPCB",09-06-2026 13:00:00,23.6979360,86.9443950,OZONE,15,72,34
India,West_Bengal,Asansol,"Trivenidevi Bhalotia College, Asansol - WBPCB",09-06-2026 13:00:00,23.616515,87.119133,CO,23,34,27
India,West_Bengal,Barrackpore,"SVSPA Campus, Barrackpore - WBPCB",09-06-2026 13:00:00,22.7605581,88.3617589,PM10,21,85,55
India,West_Bengal,Barrackpore,"SVSPA Campus, Barrackpore - WBPCB",09-06-2026 13:00:00,22.7605581,88.3617589,NO2,16,38,24
India,West_Bengal,Durgapur,"Mahishkapur Road_B-Zone, Durgapur - WBPCB",09-06-2026 13:00:00,23.567923,87.306843,NH3,1,2,1
India,West_Bengal,Durgapur,"Mahishkapur Road_B-Zone, Durgapur - WBPCB",09-06-2026 13:00:00,23.567923,87.306843,SO2,26,39,30
India,West_Bengal,Haldia,"Priyambada Housing Estate, Haldia - WBPCB",09-06-2026 13:00:00,22.06047,88.109737,CO,22,28,27
India,West_Bengal,Howrah,"Belur Math, Howrah - WBPCB",09-06-2026 13:00:00,22.629801,88.352017,NH3,4,6,5
India,West_Bengal,Howrah,"Belur Math, Howrah - WBPCB",09-06-2026 13:00:00,22.629801,88.352017,OZONE,16,47,34
India,West_Bengal,Howrah,"Botanical Garden, Howrah - WBPCB",09-06-2026 13:00:00,22.554954,88.292568,OZONE,7,39,17
India,West_Bengal,Howrah,"Ghusuri, Howrah - WBPCB",09-06-2026 13:00:00,22.611968,88.347422,PM2.5,44,176,92
India,West_Bengal,Howrah,"Ghusuri, Howrah - WBPCB",09-06-2026 13:00:00,22.611968,88.347422,PM10,56,150,96
India,West_Bengal,Howrah,"Ghusuri, Howrah - WBPCB",09-06-2026 13:00:00,22.611968,88.347422,OZONE,15,27,19
India,West_Bengal,Howrah,"Padmapukur, Howrah - WBPCB",09-06-2026 13:00:00,22.5687319,88.2797276,SO2,4,50,13
India,West_Bengal,Howrah,"Padmapukur, Howrah - WBPCB",09-06-2026 13:00:00,22.5687319,88.2797276,CO,30,60,48
India,West_Bengal,Kolkata,"Ballygunge, Kolkata - WBPCB",09-06-2026 13:00:00,22.5367507,88.3638022,PM10,36,73,53
India,West_Bengal,Kolkata,"Fort William, Kolkata - WBPCB",09-06-2026 13:00:00,22.556640,88.342674,NH3,9,9,9
India,West_Bengal,Kolkata,"Fort William, Kolkata - WBPCB",09-06-2026 13:00:00,22.556640,88.342674,CO,15,24,19
India,West_Bengal,Kolkata,"Jadavpur, Kolkata - WBPCB",09-06-2026 13:00:00,22.49929,88.36917,PM10,48,83,64
India,West_Bengal,Kolkata,"Rabindra Bharati University, Kolkata - WBPCB",09-06-2026 13:00:00,22.627847,88.380669,PM10,30,84,54
India,West_Bengal,Kolkata,"Rabindra Sarobar, Kolkata - WBPCB",09-06-2026 13:00:00,22.51106,88.35142,NO2,25,72,46
India,West_Bengal,Siliguri,"Ward-32 Bapupara, Siliguri - WBPCB",09-06-2026 13:00:00,26.6879226,88.4152495,PM2.5,12,50,30
India,West_Bengal,Siliguri,"Ward-32 Bapupara, Siliguri - WBPCB",09-06-2026 13:00:00,26.6879226,88.4152495,SO2,6,10,9
India,Bihar,Kishanganj,"SDM Office_Khagra, Kishanganj - BSPCB",09-06-2026 13:00:00,26.0881305,87.93840336,CO,12,14,13
India,Bihar,Kishanganj,"SDM Office_Khagra, Kishanganj - BSPCB",09-06-2026 13:00:00,26.0881305,87.93840336,OZONE,32,35,33
India,Bihar,Manguraha,"Forest Rest House, Manguraha - BSPCB",09-06-2026 13:00:00,27.308328,84.531742,OZONE,NA,NA,NA
India,Bihar,Motihari,"Gandak Colony, Motihari - BSPCB",09-06-2026 13:00:00,26.63086,84.90051,PM10,NA,NA,NA
India,Bihar,Motihari,"Gandak Colony, Motihari - BSPCB",09-06-2026 13:00:00,26.63086,84.90051,SO2,2,3,3
India,Bihar,Muzaffarpur,"Buddha Colony, Muzaffarpur - BSPCB",09-06-2026 13:00:00,26.11442,85.39813,NO2,NA,NA,NA
India,Bihar,Muzaffarpur,"MIT-Daudpur Kothi, Muzaffarpur - BSPCB",09-06-2026 13:00:00,26.1403345,85.3650192,PM10,52,73,58
India,Bihar,Muzaffarpur,"MIT-Daudpur Kothi, Muzaffarpur - BSPCB",09-06-2026 13:00:00,26.1403345,85.3650192,SO2,3,20,11
India,Bihar,Muzaffarpur,"Muzaffarpur Collectorate, Muzaffarpur - BSPCB",09-06-2026 13:00:00,26.1209,85.3647,PM2.5,78,127,94
India,Bihar,Muzaffarpur,"Muzaffarpur Collectorate, Muzaffarpur - BSPCB",09-06-2026 13:00:00,26.1209,85.3647,CO,14,75,35
India,Bihar,Patna,"DRM Office Danapur, Patna - BSPCB",09-06-2026 13:00:00,25.586562,85.043586,NH3,9,10,9
India,Bihar,Patna,"DRM Office Danapur, Patna - BSPCB",09-06-2026 13:00:00,25.586562,85.043586,SO2,4,8,6
India,Bihar,Patna,"Govt. High School Shikarpur, Patna - BSPCB",09-06-2026 13:00:00,25.592539,85.227158,NO2,13,21,16
India,Bihar,Patna,"Govt. High School Shikarpur, Patna - BSPCB",09-06-2026 13:00:00,25.592539,85.227158,SO2,8,9,9
India,Bihar,Patna,"IGSC Planetarium Complex, Patna - BSPCB",09-06-2026 13:00:00,25.610369,85.132568,NO2,NA,NA,NA
India,Bihar,Patna,"IGSC Planetarium Complex, Patna - BSPCB",09-06-2026 13:00:00,25.610369,85.132568,CO,6,33,6
India,Bihar,Patna,"Muradpur, Patna - BSPCB",09-06-2026 13:00:00,25.619651,85.147382,PM10,83,288,162
India,Andhra_Pradesh,Vijayawada,"Rajiv Gandhi Park, Vijayawada - APPCB",09-06-2026 13:00:00,16.509717,80.612222,CO,21,40,26
India,Andhra_Pradesh,Vijayawada,"Rajiv Nagar, Vijayawada - APPCB",09-06-2026 13:00:00,16.554731,80.649110,OZONE,29,43,31
India,Andhra_Pradesh,Visakhapatnam,"GVM Corporation, Visakhapatnam - APPCB",09-06-2026 13:00:00,17.72,83.3,NO2,19,121,65
India,Andhra_Pradesh,Visakhapatnam,"GVM Corporation, Visakhapatnam - APPCB",09-06-2026 13:00:00,17.72,83.3,NH3,3,3,3
India,Arunachal_Pradesh,Naharlagun,"Naharlagun, Naharlagun - APSPCB",09-06-2026 13:00:00,27.103358,93.679645,SO2,10,11,11
India,Assam,Byrnihat,"Central Academy for SFS, Byrnihat - PCBA",09-06-2026 13:00:00,26.071318,91.87488,PM2.5,66,329,125
India,Assam,Byrnihat,"Central Academy for SFS, Byrnihat - PCBA",09-06-2026 13:00:00,26.071318,91.87488,CO,35,64,54
India,Assam,Guwahati,"IITG, Guwahati - PCBA",09-06-2026 13:00:00,26.2028636,91.70046436,PM10,14,56,31
India,Assam,Guwahati,"IITG, Guwahati - PCBA",09-06-2026 13:00:00,26.2028636,91.70046436,NH3,5,5,5
India,Assam,Guwahati,"LGBI Airport, Guwahati - PCBA",09-06-2026 13:00:00,26.10887,91.589544,CO,14,50,29
India,Assam,Guwahati,"Pan Bazaar, Guwahati - PCBA",09-06-2026 13:00:00,26.187500,91.744194,PM10,25,77,52
India,Assam,Guwahati,"Railway Colony, Guwahati - PCBA",09-06-2026 13:00:00,26.181742,91.78063,PM2.5,33,100,60
India,Assam,Guwahati,"Railway Colony, Guwahati - PCBA",09-06-2026 13:00:00,26.181742,91.78063,NH3,1,1,1
India,Assam,Silchar,"Tarapur, Silchar - PCBA",09-06-2026 13:00:00,24.82827,92.79525,PM2.5,27,29,28
India,Chandigarh,Chandigarh,"Sector-25, Chandigarh - CPCC",09-06-2026 13:00:00,30.751462,76.762879,SO2,6,17,10
India,Chandigarh,Chandigarh,"Sector-53, Chandigarh - CPCC",09-06-2026 13:00:00,30.719859,76.738637,PM2.5,NA,NA,NA
India,Chandigarh,Chandigarh,"Sector-53, Chandigarh - CPCC",09-06-2026 13:00:00,30.719859,76.738637,NO2,8,107,45
India,Chandigarh,Chandigarh,"Sector-53, Chandigarh - CPCC",09-06-2026 13:00:00,30.719859,76.738637,SO2,NA,NA,NA
India,Chhattisgarh,Bhilai,"32Bungalows, Bhilai - CECB",09-06-2026 13:00:00,21.194815,81.314770,PM10,17,42,28
India,Chhattisgarh,Bhilai,"Civic Center, Bhilai - Bhilai Steel Plant",09-06-2026 13:00:00,21.185571,81.343175,PM2.5,7,42,20
India,Chhattisgarh,Bhilai,"Civic Center, Bhilai - Bhilai Steel Plant",09-06-2026 13:00:00,21.185571,81.343175,PM10,20,50,34
India,Chhattisgarh,Bhilai,"Civic Center, Bhilai - Bhilai Steel Plant",09-06-2026 13:00:00,21.185571,81.343175,CO,20,32,20
India,Chhattisgarh,Bhilai,"Civic Center, Bhilai - Bhilai Steel Plant",09-06-2026 13:00:00,21.185571,81.343175,OZONE,10,20,13
India,Chhattisgarh,Bhilai,"Hathkhoj, Bhilai - CECB",09-06-2026 13:00:00,21.224231,81.408350,CO,10,66,22
India,Chhattisgarh,Bilaspur,"Mangala, Bilaspur - NTPC",09-06-2026 13:00:00,22.08815,82.13737,PM10,47,100,68
India,Chhattisgarh,Bilaspur,"Mangala, Bilaspur - NTPC",09-06-2026 13:00:00,22.08815,82.13737,NO2,15,25,19
India,Chhattisgarh,Korba,"Rampur, Korba - CECB",09-06-2026 13:00:00,22.368195,82.746431,PM10,20,52,29
India,Chhattisgarh,Korba,"Urja Nagar, Korba - CECB",09-06-2026 13:00:00,22.348441,82.549611,SO2,11,22,16
India,Chhattisgarh,Kunjemura,"OP Jindal School, Kunjemura - CECB",09-06-2026 13:00:00,22.126650,83.483212,PM10,54,105,79
India,Chhattisgarh,Kunjemura,"OP Jindal School, Kunjemura - CECB",09-06-2026 13:00:00,22.126650,83.483212,SO2,6,20,13
India,Delhi,Delhi,"Aya Nagar, Delhi - IITM",09-06-2026 13:00:00,28.4706914,77.1099364,NO2,8,32,20
India,Delhi,Delhi,"Bawana, Delhi - DPCC",09-06-2026 13:00:00,28.776200,77.051074,SO2,8,29,13
India,Delhi,Delhi,"Burari Crossing, Delhi - IITM",09-06-2026 13:00:00,28.7256504,77.2011573,PM2.5,46,316,111
India,Delhi,Delhi,"Burari Crossing, Delhi - IITM",09-06-2026 13:00:00,28.7256504,77.2011573,OZONE,1,111,28
India,Delhi,Delhi,"Cantonment Area, Delhi - DPCC ",09-06-2026 13:00:00,28.594169 ,77.125100 ,NO2,4,71,17
India,Delhi,Delhi,"Chandni Chowk, Delhi - IITM",09-06-2026 13:00:00,28.656756,77.227234,PM2.5,29,215,89
India,Delhi,Delhi,"Chandni Chowk, Delhi - IITM",09-06-2026 13:00:00,28.656756,77.227234,SO2,1,96,24
India,Delhi,Delhi,"Chandni Chowk, Delhi - IITM",09-06-2026 13:00:00,28.656756,77.227234,CO,72,150,92
India,Delhi,Delhi,"Commonwealth Sports Complex, Delhi - DPCC",09-06-2026 13:00:00,28.615828 ,77.271992 ,PM10,115,170,139
India,Delhi,Delhi,"Dr. Karni Singh Shooting Range, Delhi - DPCC",09-06-2026 13:00:00,28.498571,77.264840,PM2.5,18,130,58
India,Delhi,Delhi,"Dr. Karni Singh Shooting Range, Delhi - DPCC",09-06-2026 13:00:00,28.498571,77.264840,PM10,119,227,156
India,Delhi,Delhi,"Dr. Karni Singh Shooting Range, Delhi - DPCC",09-06-2026 13:00:00,28.498571,77.264840,NO2,7,100,35
India,Delhi,Delhi,"Dr. Karni Singh Shooting Range, Delhi - DPCC",09-06-2026 13:00:00,28.498571,77.264840,SO2,12,21,16
India,Delhi,Delhi,"Dwarka-Sector 8, Delhi - DPCC ",09-06-2026 13:00:00,28.5710274,77.0719006,PM2.5,48,167,73
India,Delhi,Delhi,"IGI Airport (T3), Delhi - IITM",09-06-2026 13:00:00,28.5627763,77.1180053,PM2.5,49,164,73
India,Bihar,Bettiah,"Kamalnath Nagar, Bettiah - BSPCB",09-06-2026 13:00:00,26.80365,84.51954,CO,16,52,38
India,Bihar,Bhagalpur,"Mayaganj, Bhagalpur - BSPCB",09-06-2026 13:00:00,25.265194,87.012947,PM2.5,13,87,42
India,Bihar,Bhagalpur,"Mayaganj, Bhagalpur - BSPCB",09-06-2026 13:00:00,25.265194,87.012947,PM10,32,165,82
India,Bihar,Bhagalpur,"Mayaganj, Bhagalpur - BSPCB",09-06-2026 13:00:00,25.265194,87.012947,SO2,2,35,15
India,Bihar,Bihar Sharif,"D M Colony, Bihar Sharif - BSPCB",09-06-2026 13:00:00,25.204762,85.514960,PM10,21,44,31
India,Bihar,Bihar Sharif,"D M Colony, Bihar Sharif - BSPCB",09-06-2026 13:00:00,25.204762,85.514960,NO2,9,10,9
India,Bihar,Bihar Sharif,"D M Colony, Bihar Sharif - BSPCB",09-06-2026 13:00:00,25.204762,85.514960,SO2,7,8,8
India,Bihar,Buxar,"Charitra Van, Buxar - BSPCB",09-06-2026 13:00:00,25.567520,83.966379,SO2,25,31,28
India,Bihar,Gaya,"Collectorate, Gaya - BSPCB",09-06-2026 13:00:00,24.7955,84.9994,PM2.5,42,274,103
India,Bihar,Gaya,"Collectorate, Gaya - BSPCB",09-06-2026 13:00:00,24.7955,84.9994,CO,12,40,33
India,Bihar,Gaya,"Kareemganj, Gaya - BSPCB",09-06-2026 13:00:00,24.792403,84.992416,SO2,35,44,40
India,Bihar,Gaya,"SFTI Kusdihra, Gaya - BSPCB",09-06-2026 13:00:00,24.762518,84.982348,PM10,60,102,80
India,Bihar,Hajipur,"Industrial Area, Hajipur - BSPCB",09-06-2026 13:00:00,25.697189,85.245900,NH3,13,20,17
India,Bihar,Katihar,"Mirchaibari, Katihar - BSPCB",09-06-2026 13:00:00,25.560083,87.553265,NH3,1,1,1
India,Bihar,Patna,"Rajbansi Nagar, Patna - BSPCB",09-06-2026 13:00:00,25.599486,85.113666,PM2.5,45,62,53
India,Bihar,Patna,"Rajbansi Nagar, Patna - BSPCB",09-06-2026 13:00:00,25.599486,85.113666,PM10,61,102,77
India,Bihar,Patna,"Rajbansi Nagar, Patna - BSPCB",09-06-2026 13:00:00,25.599486,85.113666,SO2,1,15,8
India,Bihar,Saharsa,"Police Line, Saharsa - BSPCB",09-06-2026 13:00:00,25.892357,86.590325,PM2.5,3,70,36
India,Bihar,Samastipur,"DM Office_Kasipur, Samastipur - BSPCB",09-06-2026 13:00:00,25.859655,85.77944,OZONE,6,13,8
India,Bihar,Sasaram,"Dada Peer, Sasaram - BSPCB",09-06-2026 13:00:00,24.952822,84.002396,PM2.5,45,100,68
India,Bihar,Sasaram,"Dada Peer, Sasaram - BSPCB",09-06-2026 13:00:00,24.952822,84.002396,PM10,65,129,95
India,Bihar,Sasaram,"Dada Peer, Sasaram - BSPCB",09-06-2026 13:00:00,24.952822,84.002396,NH3,1,4,3
India,Bihar,Sasaram,"Dada Peer, Sasaram - BSPCB",09-06-2026 13:00:00,24.952822,84.002396,SO2,1,5,3
India,Bihar,Siwan,"Chitragupta Nagar, Siwan - BSPCB",09-06-2026 13:00:00,26.2271665,84.3570427,PM10,21,102,58
India,Bihar,Siwan,"Chitragupta Nagar, Siwan - BSPCB",09-06-2026 13:00:00,26.2271665,84.3570427,NO2,2,2,2
India,Bihar,Siwan,"Chitragupta Nagar, Siwan - BSPCB",09-06-2026 13:00:00,26.2271665,84.3570427,CO,66,117,81
India,Chandigarh,Chandigarh,"Sector 22, Chandigarh - CPCC",09-06-2026 13:00:00,30.735567,76.775714,PM2.5,15,57,33
India,Chandigarh,Chandigarh,"Sector 22, Chandigarh - CPCC",09-06-2026 13:00:00,30.735567,76.775714,NO2,4,35,14
India,Chandigarh,Chandigarh,"Sector 22, Chandigarh - CPCC",09-06-2026 13:00:00,30.735567,76.775714,CO,42,88,60
India,Andhra_Pradesh,Machilipatnam,"Srinivas Nagar Colony, Machilipatnam - APPCB",09-06-2026 13:00:00,16.186555,81.13219,PM10,49,77,57
India,Andhra_Pradesh,Machilipatnam,"Srinivas Nagar Colony, Machilipatnam - APPCB",09-06-2026 13:00:00,16.186555,81.13219,NO2,6,31,14
India,Andhra_Pradesh,Rajamahendravaram,"Anand Kala Kshetram, Rajamahendravaram - APPCB",09-06-2026 13:00:00,16.9872867,81.7363176,PM10,38,92,60
India,Andhra_Pradesh,Rajamahendravaram,"Anand Kala Kshetram, Rajamahendravaram - APPCB",09-06-2026 13:00:00,16.9872867,81.7363176,NH3,3,4,3
India,Andhra_Pradesh,Rajamahendravaram,"Anand Kala Kshetram, Rajamahendravaram - APPCB",09-06-2026 13:00:00,16.9872867,81.7363176,CO,16,38,21
India,Andhra_Pradesh,Tirumala,"Toll Gate, Tirumala - APPCB",09-06-2026 13:00:00,13.67,79.35,NO2,23,56,42
India,Andhra_Pradesh,Tirumala,"Toll Gate, Tirumala - APPCB",09-06-2026 13:00:00,13.67,79.35,SO2,2,8,5
India,Andhra_Pradesh,Vijayawada,"HB Colony, Vijayawada - APPCB",09-06-2026 13:00:00,16.536107,80.594233,PM2.5,39,75,64
India,Andhra_Pradesh,Vijayawada,"Kanuru, Vijayawada - APPCB",09-06-2026 13:00:00,16.486692,80.699436,PM2.5,51,87,65
India,Andhra_Pradesh,Vijayawada,"Kanuru, Vijayawada - APPCB",09-06-2026 13:00:00,16.486692,80.699436,PM10,50,86,64
India,Andhra_Pradesh,Vijayawada,"Kanuru, Vijayawada - APPCB",09-06-2026 13:00:00,16.486692,80.699436,SO2,7,22,16
India,Andhra_Pradesh,Vijayawada,"Rajiv Gandhi Park, Vijayawada - APPCB",09-06-2026 13:00:00,16.509717,80.612222,NO2,21,37,29
India,Chhattisgarh,Milupara,"Govt. Higher Secondary School, Milupara - CECB",09-06-2026 13:00:00,22.1910172,83.5197009,PM10,NA,NA,NA
India,Chhattisgarh,Milupara,"Govt. Higher Secondary School, Milupara - CECB",09-06-2026 13:00:00,22.1910172,83.5197009,NO2,NA,NA,NA
India,Chhattisgarh,Milupara,"Govt. Higher Secondary School, Milupara - CECB",09-06-2026 13:00:00,22.1910172,83.5197009,NH3,NA,NA,NA
India,Chhattisgarh,Raipur,"AIIMS, Raipur - CECB",09-06-2026 13:00:00,21.258815,81.578979,PM10,17,114,45
India,Chhattisgarh,Raipur,"AIIMS, Raipur - CECB",09-06-2026 13:00:00,21.258815,81.578979,NH3,3,4,4
India,Chhattisgarh,Raipur,"Bhatagaon New ISBT, Raipur - CECB",09-06-2026 13:00:00,21.219665,81.630094,CO,12,105,16
India,Chhattisgarh,Raipur,"Bhatagaon New ISBT, Raipur - CECB",09-06-2026 13:00:00,21.219665,81.630094,OZONE,1,9,3
India,Chhattisgarh,Raipur,"Krishak Nagar, Raipur - CECB",09-06-2026 13:00:00,21.237755,81.705301,OZONE,19,111,36
India,Chhattisgarh,Raipur,"Siltara Phase-II, Raipur - CECB",09-06-2026 13:00:00,21.371751,81.664929,PM2.5,25,147,61
India,Chhattisgarh,Raipur,"Siltara Phase-II, Raipur - CECB",09-06-2026 13:00:00,21.371751,81.664929,NO2,1,48,13
India,Delhi,Delhi,"Ashok Vihar, Delhi - DPCC",09-06-2026 13:00:00,28.695381,77.181665,PM2.5,33,157,68
India,Andhra_Pradesh,Anantapur,"Gulzarpet, Anantapur - APPCB",09-06-2026 13:00:00,14.675886,77.593027,SO2,12,17,13
India,Andhra_Pradesh,Chittoor,"Gangineni Cheruvu, Chittoor - APPCB",09-06-2026 13:00:00,13.204880,79.097889,SO2,11,14,13
India,Andhra_Pradesh,Eluru,"District Court, Eluru - APPCB",09-06-2026 13:00:00,16.711754,81.092095,SO2,9,14,12
India,Andhra_Pradesh,Eluru,"District Court, Eluru - APPCB",09-06-2026 13:00:00,16.711754,81.092095,CO,18,31,22
India,Andhra_Pradesh,Guntur,"Rajendra Nagar North, Guntur - APPCB",09-06-2026 13:00:00,16.316553,80.413302,PM2.5,54,76,62
India,Andhra_Pradesh,Guntur,"Rajendra Nagar North, Guntur - APPCB",09-06-2026 13:00:00,16.316553,80.413302,PM10,48,79,60
India,Assam,Sivasagar,"Girls College, Sivasagar - PCBA",09-06-2026 13:00:00,26.987634,94.636574,NO2,8,11,9
India,Assam,Sivasagar,"Girls College, Sivasagar - PCBA",09-06-2026 13:00:00,26.987634,94.636574,NH3,6,9,7
India,Bihar,Aurangabad,"Gurdeo Nagar, Aurangabad - BSPCB",09-06-2026 13:00:00,24.75746,84.366208,NO2,7,8,8
India,Haryana,Karnal,"Sector-12, Karnal - HSPCB",09-06-2026 13:00:00,29.695300,77.002700,CO,12,16,14
India,Haryana,Kurukshetra,"Sector-7, Kurukshetra - HSPCB",09-06-2026 13:00:00,29.966942,76.875879,PM10,85,157,128
India,Haryana,Kurukshetra,"Sector-7, Kurukshetra - HSPCB",09-06-2026 13:00:00,29.966942,76.875879,CO,6,28,20
India,Haryana,Mandikhera,"General Hospital, Mandikhera(Nuh) - HSPCB",09-06-2026 13:00:00,27.9002,76.9938,PM2.5,38,500,97
India,Haryana,Mandikhera,"General Hospital, Mandikhera(Nuh) - HSPCB",09-06-2026 13:00:00,27.9002,76.9938,NH3,9,11,10
India,Haryana,Mandikhera,"General Hospital, Mandikhera(Nuh) - HSPCB",09-06-2026 13:00:00,27.9002,76.9938,SO2,25,27,26
India,Haryana,Manesar,"Sector-2 IMT, Manesar - HSPCB",09-06-2026 13:00:00,28.360699,76.936090,NO2,18,83,34
India,Haryana,Narnaul,"Shastri Nagar, Narnaul - HSPCB",09-06-2026 13:00:00,28.060249,76.113115,SO2,5,18,10
India,Haryana,Palwal,"Shyam Nagar, Palwal - HSPCB",09-06-2026 13:00:00,28.1485564,77.3320667,PM2.5,47,53,50
India,Haryana,Palwal,"Shyam Nagar, Palwal - HSPCB",09-06-2026 13:00:00,28.1485564,77.3320667,CO,18,134,87
India,Haryana,Palwal,"Shyam Nagar, Palwal - HSPCB",09-06-2026 13:00:00,28.1485564,77.3320667,OZONE,24,25,24
India,Haryana,Panchgaon,"Amity University, Panchgaon - IITM",09-06-2026 13:00:00,28.3153,76.9143,PM10,95,150,118
India,Haryana,Panchkula,"Sector-6, Panchkula - HSPCB ",09-06-2026 13:00:00,30.7057778,76.8531805555555,SO2,NA,NA,NA
India,Haryana,Panchkula,"Sector-6, Panchkula - HSPCB ",09-06-2026 13:00:00,30.7057778,76.8531805555555,OZONE,52,73,58
India,Haryana,Panipat,"Sector-18, Panipat - HSPCB",09-06-2026 13:00:00,29.432304,76.972765,NO2,31,32,31
India,Haryana,Panipat,"Sector-18, Panipat - HSPCB",09-06-2026 13:00:00,29.432304,76.972765,CO,26,42,38
India,Haryana,Rohtak,"MD University, Rohtak - HSPCB",09-06-2026 13:00:00,28.52123,76.37138,PM10,89,122,106
India,Haryana,Rohtak,"MD University, Rohtak - HSPCB",09-06-2026 13:00:00,28.52123,76.37138,CO,34,52,44
India,Haryana,Sirsa,"F-Block, Sirsa - HSPCB",09-06-2026 13:00:00,29.536400,75.015800,PM2.5,29,75,59
India,Haryana,Sonipat,"Murthal, Sonipat - HSPCB",09-06-2026 13:00:00,29.027200,77.062100,PM2.5,72,81,78
India,Haryana,Sonipat,"Murthal, Sonipat - HSPCB",09-06-2026 13:00:00,29.027200,77.062100,NH3,10,11,10
India,Haryana,Sonipat,"Murthal, Sonipat - HSPCB",09-06-2026 13:00:00,29.027200,77.062100,SO2,12,13,12
India,Haryana,Faridabad,"Sector 11, Faridabad - HSPCB",09-06-2026 13:00:00,28.376058,77.315741,NH3,10,10,10
India,Haryana,Faridabad,"Sector 30, Faridabad - HSPCB",09-06-2026 13:00:00,28.4417,77.3217,PM2.5,91,119,103
India,Haryana,Faridabad,"Sector 30, Faridabad - HSPCB",09-06-2026 13:00:00,28.4417,77.3217,CO,58,65,61
India,Haryana,Fatehabad,"Huda Sector, Fatehabad - HSPCB",09-06-2026 13:00:00,29.503664,75.467934,PM10,107,126,113
India,Haryana,Fatehabad,"Huda Sector, Fatehabad - HSPCB",09-06-2026 13:00:00,29.503664,75.467934,SO2,1,40,18
India,Haryana,Gurugram,"NISE Gwal Pahari, Gurugram - IITM",09-06-2026 13:00:00,28.422681,77.148944,OZONE,4,93,31
India,Haryana,Gurugram,"Sector-51, Gurugram - HSPCB",09-06-2026 13:00:00,28.4227,77.0667,PM2.5,148,322,261
India,Haryana,Gurugram,"Teri Gram, Gurugram - HSPCB",09-06-2026 13:00:00,28.4275,77.1465,SO2,NA,NA,NA
India,Haryana,Gurugram,"Teri Gram, Gurugram - HSPCB",09-06-2026 13:00:00,28.4275,77.1465,CO,32,34,32
India,Haryana,Gurugram,"Vikas Sadan, Gurugram - HSPCB",09-06-2026 13:00:00,28.4501238,77.0263051,PM10,184,418,297
India,Haryana,Hisar,"Urban Estate-II, Hisar - HSPCB",09-06-2026 13:00:00,29.140560,75.744941,NO2,NA,NA,NA
India,Haryana,Hisar,"Urban Estate-II, Hisar - HSPCB",09-06-2026 13:00:00,29.140560,75.744941,NH3,NA,NA,NA
India,Haryana,Jind,"Police Lines, Jind - HSPCB",09-06-2026 13:00:00,29.307814,76.337619,PM10,96,149,117
India,Haryana,Jind,"Police Lines, Jind - HSPCB",09-06-2026 13:00:00,29.307814,76.337619,NH3,5,15,13
India,Haryana,Kaithal,"Rishi Nagar, Kaithal - HSPCB",09-06-2026 13:00:00,29.8006,76.4155,PM2.5,42,240,176
India,Haryana,Kaithal,"Rishi Nagar, Kaithal - HSPCB",09-06-2026 13:00:00,29.8006,76.4155,PM10,53,172,144
India,Haryana,Kaithal,"Rishi Nagar, Kaithal - HSPCB",09-06-2026 13:00:00,29.8006,76.4155,NO2,4,35,30
India,Haryana,Kaithal,"Rishi Nagar, Kaithal - HSPCB",09-06-2026 13:00:00,29.8006,76.4155,CO,5,153,69
India,Haryana,Kaithal,"Rishi Nagar, Kaithal - HSPCB",09-06-2026 13:00:00,29.8006,76.4155,OZONE,9,76,17
India,Haryana,Karnal,"Sector-12, Karnal - HSPCB",09-06-2026 13:00:00,29.695300,77.002700,PM2.5,95,236,142
India,Haryana,Karnal,"Sector-12, Karnal - HSPCB",09-06-2026 13:00:00,29.695300,77.002700,NH3,6,6,6
India,Gujarat,Surat,"Science Center, Surat - SMC",09-06-2026 13:00:00,21.170046,72.795405,CO,32,41,38
India,Gujarat,Vadodara,"Bapunagar, Vadodara - Nexteng Enviro",09-06-2026 13:00:00,22.320153,73.216285,PM10,60,141,84
India,Gujarat,Vadodara,"Bapunagar, Vadodara - Nexteng Enviro",09-06-2026 13:00:00,22.320153,73.216285,NO2,11,13,12
India,Gujarat,Vapi,"Phase-1 GIDC, Vapi - GPCB",09-06-2026 13:00:00,20.362421,72.918013,PM10,38,108,78
India,Gujarat,Vapi,"Phase-1 GIDC, Vapi - GPCB",09-06-2026 13:00:00,20.362421,72.918013,SO2,14,21,17
India,Haryana,Ambala,"Patti Mehar, Ambala - HSPCB",09-06-2026 13:00:00,30.379589,76.778328,PM10,107,138,122
India,Haryana,Bahadurgarh,"Arya Nagar, Bahadurgarh - HSPCB",09-06-2026 13:00:00,28.6701,76.9254,PM2.5,188,254,217
India,Haryana,Bahadurgarh,"Arya Nagar, Bahadurgarh - HSPCB",09-06-2026 13:00:00,28.6701,76.9254,SO2,5,7,6
India,Haryana,Bahadurgarh,"Arya Nagar, Bahadurgarh - HSPCB",09-06-2026 13:00:00,28.6701,76.9254,OZONE,22,29,26
India,Haryana,Ballabgarh,"Nathu Colony, Ballabgarh - HSPCB",09-06-2026 13:00:00,28.3419248,77.319699,PM2.5,70,294,141
India,Haryana,Ballabgarh,"Nathu Colony, Ballabgarh - HSPCB",09-06-2026 13:00:00,28.3419248,77.319699,OZONE,7,64,21
India,Haryana,Bhiwani,"H.B. Colony, Bhiwani - HSPCB",09-06-2026 13:00:00,28.806223,76.141105,PM2.5,124,185,160
India,Haryana,Charkhi Dadri,"Mini Secretariat, Charkhi Dadri - HSPCB",09-06-2026 13:00:00,28.593883,76.270653,CO,7,25,14
India,Haryana,Charkhi Dadri,"Mini Secretariat, Charkhi Dadri - HSPCB",09-06-2026 13:00:00,28.593883,76.270653,OZONE,11,38,24
India,Haryana,Dharuhera,"Municipal Corporation Office, Dharuhera -  HSPCB",09-06-2026 13:00:00,28.206800,76.799700,OZONE,10,73,36
India,Haryana,Faridabad,"New Industrial Town, Faridabad - HSPCB",09-06-2026 13:00:00,28.39072,77.30059,PM2.5,24,164,70
India,Haryana,Faridabad,"New Industrial Town, Faridabad - HSPCB",09-06-2026 13:00:00,28.39072,77.30059,NO2,23,26,25
India,Haryana,Faridabad,"New Industrial Town, Faridabad - HSPCB",09-06-2026 13:00:00,28.39072,77.30059,NH3,10,12,11
India,Delhi,Delhi,"IGI Airport (T3), Delhi - IITM",09-06-2026 13:00:00,28.5627763,77.1180053,NO2,38,111,72
India,Delhi,Delhi,"IGI Airport (T3), Delhi - IITM",09-06-2026 13:00:00,28.5627763,77.1180053,OZONE,16,86,33
India,Delhi,Delhi,"IGNOU_Maidan Garhi, Delhi - DPCC",09-06-2026 13:00:00,28.493624 ,77.201159 ,CO,48,76,59
India,Delhi,Delhi,"IHBAS, Dilshad Garden, Delhi - CPCB",09-06-2026 13:00:00,28.6811736,77.3025234,PM10,102,154,124
India,Delhi,Delhi,"IHBAS, Dilshad Garden, Delhi - CPCB",09-06-2026 13:00:00,28.6811736,77.3025234,CO,23,26,23
India,Delhi,Delhi,"IIT Delhi, Delhi - IITM",09-06-2026 13:00:00,28.542460,77.191651,PM10,92,388,179
India,Delhi,Delhi,"IMD Lodhi Road, Delhi - IITM",09-06-2026 13:00:00,28.5918245,77.2273074,OZONE,9,183,53
India,Delhi,Delhi,"ITO, Delhi - CPCB",09-06-2026 13:00:00,28.628624,77.241060,PM10,89,182,122
India,Delhi,Delhi,"ITO, Delhi - CPCB",09-06-2026 13:00:00,28.628624,77.241060,NH3,3,5,4
India,Delhi,Delhi,"ITO, Delhi - CPCB",09-06-2026 13:00:00,28.628624,77.241060,SO2,6,23,13
India,Delhi,Delhi,"ITO, Delhi - CPCB",09-06-2026 13:00:00,28.628624,77.241060,OZONE,20,58,28
India,Delhi,Delhi,"JNU, Delhi - DPCC",09-06-2026 13:00:00,28.540721 ,77.168544 ,PM10,112,178,137
India,Delhi,Delhi,"JNU, Delhi - DPCC",09-06-2026 13:00:00,28.540721 ,77.168544 ,NO2,5,115,31
India,Delhi,Delhi,"JNU, Delhi - DPCC",09-06-2026 13:00:00,28.540721 ,77.168544 ,NH3,1,6,3
India,Delhi,Delhi,"Jahangirpuri, Delhi - DPCC",09-06-2026 13:00:00,28.732820,77.170633,PM10,142,500,232
India,Delhi,Delhi,"Jawaharlal Nehru Stadium, Delhi - DPCC",09-06-2026 13:00:00,28.580280,77.233829,PM2.5,40,97,61
India,Delhi,Delhi,"Jawaharlal Nehru Stadium, Delhi - DPCC",09-06-2026 13:00:00,28.580280,77.233829,NO2,13,149,66
India,Delhi,Delhi,"Jawaharlal Nehru Stadium, Delhi - DPCC",09-06-2026 13:00:00,28.580280,77.233829,NH3,9,19,13
India,Delhi,Delhi,"Major Dhyan Chand National Stadium, Delhi - DPCC",09-06-2026 13:00:00,28.611281,77.237738,NO2,10,145,64
India,Haryana,Yamuna Nagar,"Gobind Pura, Yamuna Nagar - HSPCB",09-06-2026 13:00:00,30.1480566,77.2893471,NH3,1,6,3
India,Himachal Pradesh,Baddi,"HIMUDA Complex Phase-1, Baddi - HPPCB",09-06-2026 13:00:00,30.943887,76.801991,NH3,2,5,3
India,Jammu_and_Kashmir,Pampore,"Khrew, Pampore - JKPCC",09-06-2026 13:00:00,34.031606,75.009712,PM10,22,72,49
India,Jammu_and_Kashmir,Srinagar,"Khunmoh, Srinagar - JKPCC",09-06-2026 13:00:00,34.06313,74.96017,PM10,43,87,68
India,Jammu_and_Kashmir,Srinagar,"Khunmoh, Srinagar - JKPCC",09-06-2026 13:00:00,34.06313,74.96017,SO2,6,19,18
India,Jammu_and_Kashmir,Srinagar,"Rajbagh, Srinagar - JKPCC",09-06-2026 13:00:00,34.066206,74.819820,CO,6,59,21
India,Jharkhand,Jorapokhar,"Tata Stadium, Jorapokhar - JSPCB",09-06-2026 13:00:00,23.707909,86.414670,NO2,8,8,8
India,Jharkhand,Jorapokhar,"Tata Stadium, Jorapokhar - JSPCB",09-06-2026 13:00:00,23.707909,86.414670,SO2,4,4,4
India,Jharkhand,Jorapokhar,"Tata Stadium, Jorapokhar - JSPCB",09-06-2026 13:00:00,23.707909,86.414670,OZONE,2,6,3
India,Karnataka,Belgaum,"Ramteerth Nagar, Belgaum - KSPCB",09-06-2026 13:00:00,15.888653,74.541751,SO2,NA,NA,NA
India,Karnataka,Bengaluru,"BTM Layout, Bengaluru - CPCB",09-06-2026 13:00:00,12.9135218,77.5950804,PM2.5,24,31,27
India,Karnataka,Bengaluru,"BTM Layout, Bengaluru - CPCB",09-06-2026 13:00:00,12.9135218,77.5950804,SO2,15,16,16
India,Karnataka,Bengaluru,"BWSSB Kadabesanahalli, Bengaluru - CPCB",09-06-2026 13:00:00,12.9352049,77.6814488,OZONE,16,28,21
India,Karnataka,Bengaluru,"Bapuji Nagar, Bengaluru - KSPCB",09-06-2026 13:00:00,12.951913,77.539784,NH3,4,4,4
India,Karnataka,Bengaluru,"Bapuji Nagar, Bengaluru - KSPCB",09-06-2026 13:00:00,12.951913,77.539784,OZONE,21,53,32
India,Karnataka,Bengaluru,"City Railway Station, Bengaluru - KSPCB",09-06-2026 13:00:00,12.9756843,77.5660749,NO2,28,35,32
India,Delhi,Delhi,"Punjabi Bagh, Delhi - DPCC",09-06-2026 13:00:00,28.674045,77.131023,OZONE,1,66,47
India,Delhi,Delhi,"Pusa, Delhi - DPCC",09-06-2026 13:00:00,28.639652,77.146275,NO2,12,166,71
India,Delhi,Delhi,"Pusa, Delhi - IITM",09-06-2026 13:00:00,28.636110,77.173332,PM2.5,22,193,72
India,Delhi,Delhi,"R K Puram, Delhi - DPCC",09-06-2026 13:00:00,28.563262,77.186937,PM2.5,45,167,75
India,Delhi,Delhi,"Rohini, Delhi - DPCC",09-06-2026 13:00:00,28.732528,77.119920,NH3,5,9,7
India,Delhi,Delhi,"Rohini, Delhi - DPCC",09-06-2026 13:00:00,28.732528,77.119920,SO2,7,20,11
India,Delhi,Delhi,"Shadipur, Delhi - CPCB",09-06-2026 13:00:00,28.6514781,77.1473105,PM10,98,484,189
India,Delhi,Delhi,"Shadipur, Delhi - CPCB",09-06-2026 13:00:00,28.6514781,77.1473105,SO2,2,62,10
India,Delhi,Delhi,"Sonia Vihar, Delhi - DPCC",09-06-2026 13:00:00,28.710508,77.249485,CO,12,151,51
India,Delhi,Delhi,"Sri Aurobindo Marg, Delhi - DPCC",09-06-2026 13:00:00,28.531346,77.190156,PM2.5,45,92,63
India,Delhi,Delhi,"Sri Aurobindo Marg, Delhi - DPCC",09-06-2026 13:00:00,28.531346,77.190156,OZONE,5,59,18
India,Delhi,Delhi,"Talkatora Garden, Delhi - DPCC",09-06-2026 13:00:00,28.621810,77.1944633,PM10,44,85,56
India,Delhi,Delhi,"Talkatora Garden, Delhi - DPCC",09-06-2026 13:00:00,28.621810,77.1944633,SO2,28,38,31
India,Delhi,Delhi,"Vivek Vihar, Delhi - DPCC",09-06-2026 13:00:00,28.672342,77.315260,PM10,109,402,183
India,Delhi,Delhi,"Wazirpur, Delhi - DPCC",09-06-2026 13:00:00,28.699793,77.165453,PM2.5,37,243,81
India,Delhi,Delhi,"Wazirpur, Delhi - DPCC",09-06-2026 13:00:00,28.699793,77.165453,NH3,4,12,6
India,Delhi,Delhi,"Wazirpur, Delhi - DPCC",09-06-2026 13:00:00,28.699793,77.165453,CO,36,108,48
