country,state,city,station,last_update,latitude,longitude,pollutant_id,min_value,max_value,avg_value
India,Chandigarh,Chandigarh,"Sector-53, Chandigarh - CPCC",19-06-2026 14:00:00,30.719859,76.738637,OZONE,4,71,25
India,Chhattisgarh,Bhilai,"32Bungalows, Bhilai - CECB",19-06-2026 14:00:00,21.194815,81.314770,NO2,4,24,11
India,Chhattisgarh,Bhilai,"Civic Center, Bhilai - Bhilai Steel Plant",19-06-2026 14:00:00,21.185571,81.343175,PM2.5,4,26,15
India,Chhattisgarh,Bhilai,"Civic Center, Bhilai - Bhilai Steel Plant",19-06-2026 14:00:00,21.185571,81.343175,NO2,15,16,15
India,Chhattisgarh,Bhilai,"Civic Center, Bhilai - Bhilai Steel Plant",19-06-2026 14:00:00,21.185571,81.343175,SO2,8,12,10
India,Chhattisgarh,Bilaspur,"Mangala, Bilaspur - NTPC",19-06-2026 14:00:00,22.08815,82.13737,PM2.5,29,71,47
India,Chhattisgarh,Chhal,"Nawapara SECL Colony, Chhal - CECB",19-06-2026 14:00:00,22.118125,83.140608,SO2,NA,NA,NA
India,Chhattisgarh,Korba,"Rampur, Korba - CECB",19-06-2026 14:00:00,22.368195,82.746431,PM10,24,112,43
India,Chhattisgarh,Kunjemura,"OP Jindal School, Kunjemura - CECB",19-06-2026 14:00:00,22.126650,83.483212,CO,24,50,38
India,Chhattisgarh,Kunjemura,"OP Jindal School, Kunjemura - CECB",19-06-2026 14:00:00,22.126650,83.483212,OZONE,3,34,13
India,Chhattisgarh,Milupara,"Govt. Higher Secondary School, Milupara - CECB",19-06-2026 14:00:00,22.1910172,83.5197009,NO2,NA,NA,NA
India,Chhattisgarh,Raipur,"AIIMS, Raipur - CECB",19-06-2026 14:00:00,21.258815,81.578979,PM2.5,19,36,25
India,Bihar,Muzaffarpur,"Buddha Colony, Muzaffarpur - BSPCB",19-06-2026 14:00:00,26.11442,85.39813,PM10,90,158,118
India,Bihar,Muzaffarpur,"Buddha Colony, Muzaffarpur - BSPCB",19-06-2026 14:00:00,26.11442,85.39813,OZONE,26,103,50
India,Bihar,Muzaffarpur,"MIT-Daudpur Kothi, Muzaffarpur - BSPCB",19-06-2026 14:00:00,26.1403345,85.3650192,PM2.5,58,73,70
India,Bihar,Muzaffarpur,"MIT-Daudpur Kothi, Muzaffarpur - BSPCB",19-06-2026 14:00:00,26.1403345,85.3650192,PM10,57,72,69
India,Bihar,Muzaffarpur,"Muzaffarpur Collectorate, Muzaffarpur - BSPCB",19-06-2026 14:00:00,26.1209,85.3647,SO2,7,17,13
India,Bihar,Patna,"DRM Office Danapur, Patna - BSPCB",19-06-2026 14:00:00,25.586562,85.043586,PM10,59,105,85
India,Bihar,Patna,"Govt. High School Shikarpur, Patna - BSPCB",19-06-2026 14:00:00,25.592539,85.227158,PM2.5,56,63,59
India,Bihar,Patna,"Govt. High School Shikarpur, Patna - BSPCB",19-06-2026 14:00:00,25.592539,85.227158,SO2,8,10,9
India,Bihar,Patna,"IGSC Planetarium Complex, Patna - BSPCB",19-06-2026 14:00:00,25.610369,85.132568,PM2.5,NA,NA,NA
India,Bihar,Patna,"IGSC Planetarium Complex, Patna - BSPCB",19-06-2026 14:00:00,25.610369,85.132568,NO2,NA,NA,NA
India,Bihar,Patna,"IGSC Planetarium Complex, Patna - BSPCB",19-06-2026 14:00:00,25.610369,85.132568,CO,20,44,28
India,Bihar,Patna,"Rajbansi Nagar, Patna - BSPCB",19-06-2026 14:00:00,25.599486,85.113666,NO2,29,34,31
India,Bihar,Patna,"Samanpura, Patna - BSPCB",19-06-2026 14:00:00,25.596727,85.085624,PM2.5,45,123,75
India,Assam,Byrnihat,"Central Academy for SFS, Byrnihat - PCBA",19-06-2026 14:00:00,26.071318,91.87488,SO2,21,33,31
India,Assam,Guwahati,"Pan Bazaar, Guwahati - PCBA",19-06-2026 14:00:00,26.187500,91.744194,SO2,28,31,29
India,Assam,Guwahati,"Railway Colony, Guwahati - PCBA",19-06-2026 14:00:00,26.181742,91.78063,NH3,1,1,1
India,Assam,Nagaon,"Christianpatty, Nagaon - PCBA",19-06-2026 14:00:00,26.349082,92.68449,SO2,10,16,12
India,Assam,Nagaon,"Christianpatty, Nagaon - PCBA",19-06-2026 14:00:00,26.349082,92.68449,OZONE,8,14,11
India,Assam,Nalbari,"Bata Chowk, Nalbari - PCBA",19-06-2026 14:00:00,26.446912,91.439057,PM10,15,63,23
India,Assam,Silchar,"Tarapur, Silchar - PCBA",19-06-2026 14:00:00,24.82827,92.79525,NH3,1,1,1
India,Assam,Silchar,"Tarapur, Silchar - PCBA",19-06-2026 14:00:00,24.82827,92.79525,CO,24,38,28
India,Assam,Sivasagar,"Girls College, Sivasagar - PCBA",19-06-2026 14:00:00,26.987634,94.636574,CO,13,30,15
India,Bihar,Araria,"Kharahiya Basti, Araria - BSPCB",19-06-2026 14:00:00,26.146529,87.454184,PM10,21,142,68
India,Bihar,Araria,"Kharahiya Basti, Araria - BSPCB",19-06-2026 14:00:00,26.146529,87.454184,CO,6,20,14
India,Andhra_Pradesh,Tirupati,"Vaikuntapuram, Tirupati - APPCB",19-06-2026 14:00:00,13.615387,79.409230,OZONE,47,56,55
India,Andhra_Pradesh,Vijayawada,"HB Colony, Vijayawada - APPCB",19-06-2026 14:00:00,16.536107,80.594233,NO2,14,26,17
India,Andhra_Pradesh,Vijayawada,"HB Colony, Vijayawada - APPCB",19-06-2026 14:00:00,16.536107,80.594233,SO2,12,24,16
India,Andhra_Pradesh,Vijayawada,"Kanuru, Vijayawada - APPCB",19-06-2026 14:00:00,16.486692,80.699436,NO2,24,34,26
India,Andhra_Pradesh,Vijayawada,"Rajiv Gandhi Park, Vijayawada - APPCB",19-06-2026 14:00:00,16.509717,80.612222,PM10,41,104,71
India,Andhra_Pradesh,Vijayawada,"Rajiv Gandhi Park, Vijayawada - APPCB",19-06-2026 14:00:00,16.509717,80.612222,SO2,11,16,14
India,Andhra_Pradesh,Vijayawada,"Rajiv Gandhi Park, Vijayawada - APPCB",19-06-2026 14:00:00,16.509717,80.612222,OZONE,34,56,49
India,Andhra_Pradesh,Vijayawada,"Rajiv Nagar, Vijayawada - APPCB",19-06-2026 14:00:00,16.554731,80.649110,PM2.5,39,61,49
India,Andhra_Pradesh,Visakhapatnam,"GVM Corporation, Visakhapatnam - APPCB",19-06-2026 14:00:00,17.72,83.3,PM2.5,27,104,65
India,Andhra_Pradesh,Visakhapatnam,"GVM Corporation, Visakhapatnam - APPCB",19-06-2026 14:00:00,17.72,83.3,NO2,25,129,69
India,Arunachal_Pradesh,Naharlagun,"Naharlagun, Naharlagun - APSPCB",19-06-2026 14:00:00,27.103358,93.679645,PM2.5,2,71,40
India,Bihar,Arrah,"New DM Office, Arrah - BSPCB",19-06-2026 14:00:00,25.5626095,84.663264,NO2,5,8,7
India,Bihar,Arrah,"New DM Office, Arrah - BSPCB",19-06-2026 14:00:00,25.5626095,84.663264,NH3,2,2,2
India,Bihar,Begusarai,"Lohiyanagar, Begusarai - BSPCB",19-06-2026 14:00:00,25.42742023,86.13886079,PM10,37,127,78
India,Bihar,Begusarai,"Lohiyanagar, Begusarai - BSPCB",19-06-2026 14:00:00,25.42742023,86.13886079,CO,5,20,14
India,Bihar,Bettiah,"Kamalnath Nagar, Bettiah - BSPCB",19-06-2026 14:00:00,26.80365,84.51954,CO,28,62,34
India,Bihar,Bihar Sharif,"D M Colony, Bihar Sharif - BSPCB",19-06-2026 14:00:00,25.204762,85.514960,NO2,9,10,9
India,Bihar,Buxar,"Charitra Van, Buxar - BSPCB",19-06-2026 14:00:00,25.567520,83.966379,SO2,28,33,31
India,Bihar,Buxar,"Charitra Van, Buxar - BSPCB",19-06-2026 14:00:00,25.567520,83.966379,CO,22,26,25
India,Bihar,Gaya,"Collectorate, Gaya - BSPCB",19-06-2026 14:00:00,24.7955,84.9994,PM2.5,17,200,83
India,Bihar,Gaya,"Kareemganj, Gaya - BSPCB",19-06-2026 14:00:00,24.792403,84.992416,NO2,11,13,12
India,Bihar,Gaya,"Kareemganj, Gaya - BSPCB",19-06-2026 14:00:00,24.792403,84.992416,SO2,43,44,44
India,Bihar,Gaya,"SFTI Kusdihra, Gaya - BSPCB",19-06-2026 14:00:00,24.762518,84.982348,NO2,17,21,18
India,Bihar,Gaya,"SFTI Kusdihra, Gaya - BSPCB",19-06-2026 14:00:00,24.762518,84.982348,CO,20,43,31
India,Bihar,Kishanganj,"SDM Office_Khagra, Kishanganj - BSPCB",19-06-2026 14:00:00,26.0881305,87.93840336,SO2,7,9,8
India,Bihar,Kishanganj,"SDM Office_Khagra, Kishanganj - BSPCB",19-06-2026 14:00:00,26.0881305,87.93840336,CO,13,14,14
India,Bihar,Manguraha,"Forest Rest House, Manguraha - BSPCB",19-06-2026 14:00:00,27.308328,84.531742,PM2.5,22,365,98
India,Bihar,Manguraha,"Forest Rest House, Manguraha - BSPCB",19-06-2026 14:00:00,27.308328,84.531742,PM10,23,416,102
India,Bihar,Manguraha,"Forest Rest House, Manguraha - BSPCB",19-06-2026 14:00:00,27.308328,84.531742,OZONE,2,2,2
India,Bihar,Motihari,"Gandak Colony, Motihari - BSPCB",19-06-2026 14:00:00,26.63086,84.90051,PM2.5,NA,NA,NA
India,Bihar,Purnia,"Mariam Nagar, Purnia - BSPCB",19-06-2026 14:00:00,25.366336,87.117468,PM2.5,57,77,67
India,Bihar,Samastipur,"DM Office_Kasipur, Samastipur - BSPCB",19-06-2026 14:00:00,25.859655,85.77944,PM2.5,18,331,94
India,Bihar,Samastipur,"DM Office_Kasipur, Samastipur - BSPCB",19-06-2026 14:00:00,25.859655,85.77944,NH3,1,2,1
India,Bihar,Siwan,"Chitragupta Nagar, Siwan - BSPCB",19-06-2026 14:00:00,26.2271665,84.3570427,SO2,7,10,8
India,Chandigarh,Chandigarh,"Sector 22, Chandigarh - CPCC",19-06-2026 14:00:00,30.735567,76.775714,CO,48,77,57
India,Chandigarh,Chandigarh,"Sector-25, Chandigarh - CPCC",19-06-2026 14:00:00,30.751462,76.762879,PM10,60,140,99
India,Chandigarh,Chandigarh,"Sector-53, Chandigarh - CPCC",19-06-2026 14:00:00,30.719859,76.738637,PM2.5,8,60,29
India,Chandigarh,Chandigarh,"Sector-53, Chandigarh - CPCC",19-06-2026 14:00:00,30.719859,76.738637,SO2,2,14,7
India,Chandigarh,Chandigarh,"Sector-53, Chandigarh - CPCC",19-06-2026 14:00:00,30.719859,76.738637,CO,26,106,51
India,Chhattisgarh,Raipur,"Bhatagaon New ISBT, Raipur - CECB",19-06-2026 14:00:00,21.219665,81.630094,CO,12,28,18
India,Chhattisgarh,Raipur,"Krishak Nagar, Raipur - CECB",19-06-2026 14:00:00,21.237755,81.705301,OZONE,1,47,2
India,Chhattisgarh,Raipur,"Siltara Phase-II, Raipur - CECB",19-06-2026 14:00:00,21.371751,81.664929,CO,17,17,17
India,Chhattisgarh,Tumidih,"OP Jindal Industrial Park, Tumidih - CECB",19-06-2026 14:00:00,22.06631475,83.33820077,CO,20,57,32
India,Delhi,Delhi,"Alipur, Delhi - DPCC",19-06-2026 14:00:00,28.815329,77.153010,OZONE,9,30,20
India,Delhi,Delhi,"Anand Vihar, Delhi - DPCC",19-06-2026 14:00:00,28.647622,77.3158090,CO,9,68,56
India,Delhi,Delhi,"Bawana, Delhi - DPCC",19-06-2026 14:00:00,28.776200,77.051074,PM10,52,312,130
India,Delhi,Delhi,"Bawana, Delhi - DPCC",19-06-2026 14:00:00,28.776200,77.051074,CO,32,68,60
India,Andhra_Pradesh,Guntur,"Rajendra Nagar North, Guntur - APPCB",19-06-2026 14:00:00,16.316553,80.413302,CO,2,42,14
India,Andhra_Pradesh,Kadapa,"Yerramukkapalli, Kadapa - APPCB",19-06-2026 14:00:00,14.465052,78.824187,CO,14,40,20
India,Andhra_Pradesh,Machilipatnam,"Srinivas Nagar Colony, Machilipatnam - APPCB",19-06-2026 14:00:00,16.186555,81.13219,NH3,2,4,3
India,Andhra_Pradesh,Nellore,"Ambedkar Nagar, Nellore - APPCB ",19-06-2026 14:00:00,14.438164 ,79.966814 ,NO2,26,34,32
India,Andhra_Pradesh,Tirumala,"Toll Gate, Tirumala - APPCB",19-06-2026 14:00:00,13.67,79.35,PM10,33,131,51
India,Andhra_Pradesh,Tirupati,"Vaikuntapuram, Tirupati - APPCB",19-06-2026 14:00:00,13.615387,79.409230,NH3,5,6,6
India,Andhra_Pradesh,Tirupati,"Vaikuntapuram, Tirupati - APPCB",19-06-2026 14:00:00,13.615387,79.409230,SO2,8,17,16
India,Andhra_Pradesh,Chittoor,"Gangineni Cheruvu, Chittoor - APPCB",19-06-2026 14:00:00,13.204880,79.097889,PM10,58,74,65
India,Andhra_Pradesh,Chittoor,"Gangineni Cheruvu, Chittoor - APPCB",19-06-2026 14:00:00,13.204880,79.097889,SO2,16,24,22
India,Andhra_Pradesh,Eluru,"District Court, Eluru - APPCB",19-06-2026 14:00:00,16.711754,81.092095,PM2.5,31,48,40
India,Andhra_Pradesh,Eluru,"District Court, Eluru - APPCB",19-06-2026 14:00:00,16.711754,81.092095,CO,8,40,17
India,Andhra_Pradesh,Guntur,"Rajendra Nagar North, Guntur - APPCB",19-06-2026 14:00:00,16.316553,80.413302,NO2,18,73,35
India,Delhi,Delhi,"Vivek Vihar, Delhi - DPCC",19-06-2026 14:00:00,28.672342,77.315260,PM10,78,254,151
India,Delhi,Delhi,"Vivek Vihar, Delhi - DPCC",19-06-2026 14:00:00,28.672342,77.315260,NO2,24,59,39
India,Delhi,Delhi,"Vivek Vihar, Delhi - DPCC",19-06-2026 14:00:00,28.672342,77.315260,SO2,12,26,18
India,Delhi,Delhi,"Vivek Vihar, Delhi - DPCC",19-06-2026 14:00:00,28.672342,77.315260,OZONE,10,66,37
India,Delhi,Delhi,"Wazirpur, Delhi - DPCC",19-06-2026 14:00:00,28.699793,77.165453,NH3,5,12,7
India,Gujarat,Ahmedabad,"Chandkheda, Ahmedabad - IITM",19-06-2026 14:00:00,23.107969,72.574648,SO2,3,10,7
India,Gujarat,Ahmedabad,"Chandkheda, Ahmedabad - IITM",19-06-2026 14:00:00,23.107969,72.574648,CO,3,31,16
India,Gujarat,Ahmedabad,"Chandkheda, Ahmedabad - IITM",19-06-2026 14:00:00,23.107969,72.574648,OZONE,2,38,12
India,Gujarat,Ahmedabad,"Gyaspur, Ahmedabad - IITM",19-06-2026 14:00:00,22.977134,72.553024,NO2,8,23,15
India,Gujarat,Ahmedabad,"Maninagar, Ahmedabad - GPCB",19-06-2026 14:00:00,23.002657,72.591912,SO2,71,102,87
India,Gujarat,Ahmedabad,"Maninagar, Ahmedabad - GPCB",19-06-2026 14:00:00,23.002657,72.591912,CO,4,80,38
India,Gujarat,Ahmedabad,"Maninagar, Ahmedabad - GPCB",19-06-2026 14:00:00,23.002657,72.591912,OZONE,26,69,48
India,Gujarat,Ahmedabad,"Raikhad, Ahmedabad - IITM",19-06-2026 14:00:00,23.020509,72.579261,PM2.5,19,37,26
India,Gujarat,Ahmedabad,"Raikhad, Ahmedabad - IITM",19-06-2026 14:00:00,23.020509,72.579261,NO2,4,13,7
India,Gujarat,Ahmedabad,"Raikhad, Ahmedabad - IITM",19-06-2026 14:00:00,23.020509,72.579261,NH3,1,2,1
India,Gujarat,Ahmedabad,"Rakhial, Ahmedabad - IITM",19-06-2026 14:00:00,23.016834,72.625775,NH3,4,7,5
India,Gujarat,Ahmedabad,"SAC ISRO Bopal, Ahmedabad - IITM",19-06-2026 14:00:00,23.041137,72.456691,PM2.5,17,76,40
India,Gujarat,Ahmedabad,"SAC ISRO Bopal, Ahmedabad - IITM",19-06-2026 14:00:00,23.041137,72.456691,SO2,1,4,1
India,Gujarat,Ahmedabad,"SAC ISRO Bopal, Ahmedabad - IITM",19-06-2026 14:00:00,23.041137,72.456691,OZONE,1,40,14
India,Gujarat,Ahmedabad,"SAC ISRO Satellite, Ahmedabad - IITM",19-06-2026 14:00:00,23.023389,72.515201,NH3,2,2,2
India,Gujarat,Ahmedabad,"SAC ISRO Satellite, Ahmedabad - IITM",19-06-2026 14:00:00,23.023389,72.515201,SO2,1,8,5
India,Gujarat,Ahmedabad,"SAC ISRO Satellite, Ahmedabad - IITM",19-06-2026 14:00:00,23.023389,72.515201,CO,27,102,54
India,Gujarat,Rajkot,"Mavdi, Rajkot - Nexteng Enviro ",19-06-2026 14:00:00,22.248853,70.776774,CO,78,80,79
India,Gujarat,Surat,"Katargam, Surat - Nexteng Enviro",19-06-2026 14:00:00,21.217779 ,72.834787 ,PM2.5,23,90,50
India,Gujarat,Surat,"Katargam, Surat - Nexteng Enviro",19-06-2026 14:00:00,21.217779 ,72.834787 ,NO2,11,35,20
India,Gujarat,Surat,"Science Center, Surat - SMC",19-06-2026 14:00:00,21.170046,72.795405,NO2,2,8,3
India,Gujarat,Vadodara,"Bapunagar, Vadodara - Nexteng Enviro",19-06-2026 14:00:00,22.320153,73.216285,PM2.5,13,75,36
India,Gujarat,Vadodara,"Bapunagar, Vadodara - Nexteng Enviro",19-06-2026 14:00:00,22.320153,73.216285,SO2,5,7,6
India,Gujarat,Vatva,"Phase-4 GIDC, Vatva - GPCB",19-06-2026 14:00:00,22.969611,72.643500,PM10,90,114,106
India,Gujarat,Vatva,"Phase-4 GIDC, Vatva - GPCB",19-06-2026 14:00:00,22.969611,72.643500,CO,18,26,22
India,Haryana,Ambala,"Patti Mehar, Ambala - HSPCB",19-06-2026 14:00:00,30.379589,76.778328,PM10,77,131,97
India,Haryana,Ambala,"Patti Mehar, Ambala - HSPCB",19-06-2026 14:00:00,30.379589,76.778328,NO2,31,32,31
India,Haryana,Ambala,"Patti Mehar, Ambala - HSPCB",19-06-2026 14:00:00,30.379589,76.778328,SO2,15,37,22
India,Haryana,Bahadurgarh,"Arya Nagar, Bahadurgarh - HSPCB",19-06-2026 14:00:00,28.6701,76.9254,NH3,NA,NA,NA
India,Haryana,Bahadurgarh,"Arya Nagar, Bahadurgarh - HSPCB",19-06-2026 14:00:00,28.6701,76.9254,OZONE,23,27,25
India,Haryana,Bhiwani,"H.B. Colony, Bhiwani - HSPCB",19-06-2026 14:00:00,28.806223,76.141105,PM2.5,80,87,82
India,Haryana,Bhiwani,"H.B. Colony, Bhiwani - HSPCB",19-06-2026 14:00:00,28.806223,76.141105,PM10,57,63,59
India,Haryana,Bhiwani,"H.B. Colony, Bhiwani - HSPCB",19-06-2026 14:00:00,28.806223,76.141105,SO2,1,13,4
India,Haryana,Charkhi Dadri,"Mini Secretariat, Charkhi Dadri - HSPCB",19-06-2026 14:00:00,28.593883,76.270653,OZONE,11,38,29
India,Haryana,Dharuhera,"Municipal Corporation Office, Dharuhera -  HSPCB",19-06-2026 14:00:00,28.206800,76.799700,PM2.5,37,142,71
India,Haryana,Dharuhera,"Municipal Corporation Office, Dharuhera -  HSPCB",19-06-2026 14:00:00,28.206800,76.799700,NO2,12,68,49
India,Haryana,Faridabad,"New Industrial Town, Faridabad - HSPCB",19-06-2026 14:00:00,28.39072,77.30059,NH3,11,12,11
India,Haryana,Faridabad,"New Industrial Town, Faridabad - HSPCB",19-06-2026 14:00:00,28.39072,77.30059,CO,18,24,22
India,Haryana,Faridabad,"Sector 11, Faridabad - HSPCB",19-06-2026 14:00:00,28.376058,77.315741,PM10,30,249,101
India,Haryana,Faridabad,"Sector 11, Faridabad - HSPCB",19-06-2026 14:00:00,28.376058,77.315741,NO2,29,33,31
India,Haryana,Faridabad,"Sector 30, Faridabad - HSPCB",19-06-2026 14:00:00,28.4417,77.3217,NO2,35,40,38
India,Haryana,Faridabad,"Sector 30, Faridabad - HSPCB",19-06-2026 14:00:00,28.4417,77.3217,SO2,6,6,6
India,Haryana,Faridabad,"Sector 30, Faridabad - HSPCB",19-06-2026 14:00:00,28.4417,77.3217,OZONE,1,39,7
India,Haryana,Fatehabad,"Huda Sector, Fatehabad - HSPCB",19-06-2026 14:00:00,29.503664,75.467934,NO2,18,20,19
India,Haryana,Gurugram,"NISE Gwal Pahari, Gurugram - IITM",19-06-2026 14:00:00,28.422681,77.148944,NO2,8,14,11
India,Haryana,Gurugram,"Sector-51, Gurugram - HSPCB",19-06-2026 14:00:00,28.4227,77.0667,NO2,4,10,6
India,Haryana,Gurugram,"Teri Gram, Gurugram - HSPCB",19-06-2026 14:00:00,28.4275,77.1465,PM2.5,51,228,108
India,Haryana,Gurugram,"Teri Gram, Gurugram - HSPCB",19-06-2026 14:00:00,28.4275,77.1465,NO2,37,75,54
India,Delhi,Delhi,"Pusa, Delhi - DPCC",19-06-2026 14:00:00,28.639652,77.146275,CO,52,102,81
India,Delhi,Delhi,"Pusa, Delhi - DPCC",19-06-2026 14:00:00,28.639652,77.146275,OZONE,9,29,18
India,Delhi,Delhi,"Pusa, Delhi - IITM",19-06-2026 14:00:00,28.636110,77.173332,OZONE,31,110,70
India,Delhi,Delhi,"R K Puram, Delhi - DPCC",19-06-2026 14:00:00,28.563262,77.186937,PM10,80,283,154
India,Delhi,Delhi,"R K Puram, Delhi - DPCC",19-06-2026 14:00:00,28.563262,77.186937,NH3,5,6,5
India,Delhi,Delhi,"Rohini, Delhi - DPCC",19-06-2026 14:00:00,28.732528,77.119920,OZONE,9,31,19
India,Delhi,Delhi,"Shadipur, Delhi - CPCB",19-06-2026 14:00:00,28.6514781,77.1473105,PM2.5,33,147,78
India,Delhi,Delhi,"Sirifort, Delhi - CPCB",19-06-2026 14:00:00,28.5504249,77.2159377,PM2.5,44,89,64
India,Delhi,Delhi,"Sirifort, Delhi - CPCB",19-06-2026 14:00:00,28.5504249,77.2159377,SO2,29,35,32
India,Delhi,Delhi,"Sonia Vihar, Delhi - DPCC",19-06-2026 14:00:00,28.710508,77.249485,SO2,6,39,17
India,Delhi,Delhi,"Sri Aurobindo Marg, Delhi - DPCC",19-06-2026 14:00:00,28.531346,77.190156,PM10,70,237,128
India,Delhi,Delhi,"Sri Aurobindo Marg, Delhi - DPCC",19-06-2026 14:00:00,28.531346,77.190156,NH3,6,8,7
India,Delhi,Delhi,"Sri Aurobindo Marg, Delhi - DPCC",19-06-2026 14:00:00,28.531346,77.190156,SO2,11,18,14
India,Delhi,Delhi,"Talkatora Garden, Delhi - DPCC",19-06-2026 14:00:00,28.621810,77.1944633,PM10,45,119,77
India,Delhi,Delhi,"Mundka, Delhi - DPCC",19-06-2026 14:00:00,28.684678,77.076574,NO2,68,108,88
India,Delhi,Delhi,"Mundka, Delhi - DPCC",19-06-2026 14:00:00,28.684678,77.076574,SO2,9,24,16
India,Delhi,Delhi,"Mundka, Delhi - DPCC",19-06-2026 14:00:00,28.684678,77.076574,CO,32,42,38
India,Delhi,Delhi,"NSUT Jaffarpur, Delhi - DPCC",19-06-2026 14:00:00,28.594004 ,76.909423 ,NO2,6,26,14
India,Delhi,Delhi,"NSUT Jaffarpur, Delhi - DPCC",19-06-2026 14:00:00,28.594004 ,76.909423 ,NH3,3,8,5
India,Delhi,Delhi,"Najafgarh, Delhi - DPCC",19-06-2026 14:00:00,28.570173,76.933762,NH3,5,7,6
India,Delhi,Delhi,"Narela, Delhi - DPCC",19-06-2026 14:00:00,28.822836,77.101981,NH3,8,14,9
India,Delhi,Delhi,"Narela, Delhi - DPCC",19-06-2026 14:00:00,28.822836,77.101981,OZONE,1,46,17
India,Delhi,Delhi,"Nehru Nagar, Delhi - DPCC",19-06-2026 14:00:00,28.567890,77.250515,PM2.5,10,65,40
India,Delhi,Delhi,"Nehru Nagar, Delhi - DPCC",19-06-2026 14:00:00,28.567890,77.250515,PM10,68,207,132
India,Delhi,Delhi,"North Campus, DU, Delhi - IITM",19-06-2026 14:00:00,28.6573814,77.1585447,PM2.5,10,402,87
India,Delhi,Delhi,"Okhla Phase-2, Delhi - DPCC",19-06-2026 14:00:00,28.530785,77.271255,CO,10,46,35
India,Delhi,Delhi,"Patparganj, Delhi - DPCC",19-06-2026 14:00:00,28.623763,77.287209,NH3,7,8,8
India,Delhi,Delhi,"Patparganj, Delhi - DPCC",19-06-2026 14:00:00,28.623763,77.287209,SO2,10,16,12
India,Delhi,Delhi,"Patparganj, Delhi - DPCC",19-06-2026 14:00:00,28.623763,77.287209,OZONE,7,71,38
India,Gujarat,Ankleshwar,"GIDC, Ankleshwar - GPCB",19-06-2026 14:00:00,21.613267,73.010555,PM2.5,37,61,47
India,Gujarat,Ankleshwar,"GIDC, Ankleshwar - GPCB",19-06-2026 14:00:00,21.613267,73.010555,NH3,5,6,5
India,Gujarat,Ankleshwar,"GIDC, Ankleshwar - GPCB",19-06-2026 14:00:00,21.613267,73.010555,SO2,23,120,32
India,Gujarat,Gandhinagar,"GIFT City, Gandhinagar - IITM",19-06-2026 14:00:00,23.163798,72.677768,PM2.5,2,28,13
India,Gujarat,Gandhinagar,"GIFT City, Gandhinagar - IITM",19-06-2026 14:00:00,23.163798,72.677768,SO2,1,8,5
India,Gujarat,Gandhinagar,"GIFT City, Gandhinagar - IITM",19-06-2026 14:00:00,23.163798,72.677768,CO,8,38,22
India,Gujarat,Gandhinagar,"GIFT City, Gandhinagar - IITM",19-06-2026 14:00:00,23.163798,72.677768,OZONE,8,55,30
India,Gujarat,Gandhinagar,"IIPHG Lekawada, Gandhinagar - IITM",19-06-2026 14:00:00,23.243639,72.68994,PM2.5,13,40,23
India,Gujarat,Gandhinagar,"Sector-10, Gandhinagar - GPCB",19-06-2026 14:00:00,23.221714,72.654328,SO2,9,19,13
India,Gujarat,Mehsana,"Sadanand Nagar, Mehsana - Nexteng Enviro",19-06-2026 14:00:00,23.593150,72.372792,PM10,19,86,51
India,Gujarat,Mehsana,"Sadanand Nagar, Mehsana - Nexteng Enviro",19-06-2026 14:00:00,23.593150,72.372792,NO2,11,14,12
India,Gujarat,Mehsana,"Sadanand Nagar, Mehsana - Nexteng Enviro",19-06-2026 14:00:00,23.593150,72.372792,OZONE,9,16,12
India,Gujarat,Nandesari,"GIDC, Nandesari - Nandesari Ind. Association",19-06-2026 14:00:00,22.410802,73.097923,PM2.5,12,162,79
India,Gujarat,Nandesari,"GIDC, Nandesari - Nandesari Ind. Association",19-06-2026 14:00:00,22.410802,73.097923,PM10,13,126,78
India,Haryana,Hisar,"Urban Estate-II, Hisar - HSPCB",19-06-2026 14:00:00,29.140560,75.744941,CO,50,70,58
India,Haryana,Jind,"Police Lines, Jind - HSPCB",19-06-2026 14:00:00,29.307814,76.337619,NO2,32,48,40
India,Haryana,Jind,"Police Lines, Jind - HSPCB",19-06-2026 14:00:00,29.307814,76.337619,SO2,1,4,2
India,Haryana,Jind,"Police Lines, Jind - HSPCB",19-06-2026 14:00:00,29.307814,76.337619,CO,1,108,39
India,Haryana,Kaithal,"Rishi Nagar, Kaithal - HSPCB",19-06-2026 14:00:00,29.8006,76.4155,CO,4,25,18
India,Haryana,Karnal,"Sector-12, Karnal - HSPCB",19-06-2026 14:00:00,29.695300,77.002700,PM10,15,205,84
India,Haryana,Karnal,"Sector-12, Karnal - HSPCB",19-06-2026 14:00:00,29.695300,77.002700,NO2,6,7,6
India,Haryana,Karnal,"Sector-12, Karnal - HSPCB",19-06-2026 14:00:00,29.695300,77.002700,CO,8,38,12
India,Haryana,Kurukshetra,"Sector-7, Kurukshetra - HSPCB",19-06-2026 14:00:00,29.966942,76.875879,OZONE,39,121,74
India,Haryana,Manesar,"Sector-2 IMT, Manesar - HSPCB",19-06-2026 14:00:00,28.360699,76.936090,PM2.5,54,321,142
India,Delhi,Delhi,"Burari Crossing, Delhi - IITM",19-06-2026 14:00:00,28.7256504,77.2011573,CO,14,31,26
India,Delhi,Delhi,"CRRI Mathura Road, Delhi - IITM",19-06-2026 14:00:00,28.5512005,77.2735737,OZONE,10,88,46
India,Delhi,Delhi,"Cantonment Area, Delhi - DPCC ",19-06-2026 14:00:00,28.594169 ,77.125100 ,NH3,1,6,1
India,Delhi,Delhi,"Cantonment Area, Delhi - DPCC ",19-06-2026 14:00:00,28.594169 ,77.125100 ,OZONE,29,103,66
India,Delhi,Delhi,"Commonwealth Sports Complex, Delhi - DPCC",19-06-2026 14:00:00,28.615828 ,77.271992 ,PM10,85,162,118
India,Delhi,Delhi,"Commonwealth Sports Complex, Delhi - DPCC",19-06-2026 14:00:00,28.615828 ,77.271992 ,SO2,NA,NA,NA
India,Delhi,Delhi,"DTU, Delhi - CPCB",19-06-2026 14:00:00,28.7500499,77.1112615,NO2,9,44,22
India,Delhi,Delhi,"Dr. Karni Singh Shooting Range, Delhi - DPCC",19-06-2026 14:00:00,28.498571,77.264840,CO,12,27,20
India,Delhi,Delhi,"Dwarka-Sector 8, Delhi - DPCC ",19-06-2026 14:00:00,28.5710274,77.0719006,OZONE,13,40,26
India,Delhi,Delhi,"IMD Lodhi Road, Delhi - IITM",19-06-2026 14:00:00,28.5918245,77.2273074,CO,16,27,25
India,Delhi,Delhi,"ITO, Delhi - CPCB",19-06-2026 14:00:00,28.628624,77.241060,PM2.5,30,71,51
India,Delhi,Delhi,"ITO, Delhi - CPCB",19-06-2026 14:00:00,28.628624,77.241060,CO,46,71,63
India,Delhi,Delhi,"Jahangirpuri, Delhi - DPCC",19-06-2026 14:00:00,28.732820,77.170633,PM2.5,7,237,87
India,Delhi,Delhi,"Major Dhyan Chand National Stadium, Delhi - DPCC",19-06-2026 14:00:00,28.611281,77.237738,PM2.5,10,60,31
India,Delhi,Delhi,"Major Dhyan Chand National Stadium, Delhi - DPCC",19-06-2026 14:00:00,28.611281,77.237738,NO2,12,79,31
India,Delhi,Delhi,"Major Dhyan Chand National Stadium, Delhi - DPCC",19-06-2026 14:00:00,28.611281,77.237738,CO,15,32,24
India,Karnataka,Mangalore,"Kadri, Mangalore - KSPCB",19-06-2026 14:00:00,12.889250,74.853000,NH3,NA,NA,NA
India,Karnataka,Mysuru,"Hebbal 1st Stage, Mysuru - KSPCB",19-06-2026 14:00:00,12.21041,76.37376,SO2,1,5,3
India,Karnataka,Ramanagara,"Vijay Nagar, Ramanagara - KSPCB",19-06-2026 14:00:00,12.733409,77.298051,PM2.5,30,58,41
India,Karnataka,Ramanagara,"Vijay Nagar, Ramanagara - KSPCB",19-06-2026 14:00:00,12.733409,77.298051,SO2,14,17,15
India,Karnataka,Shivamogga,"Vinoba Nagara, Shivamogga - KSPCB",19-06-2026 14:00:00,13.940000,75.555917,NO2,17,26,18
India,Karnataka,Shivamogga,"Vinoba Nagara, Shivamogga - KSPCB",19-06-2026 14:00:00,13.940000,75.555917,NH3,2,3,2
India,Karnataka,Shivamogga,"Vinoba Nagara, Shivamogga - KSPCB",19-06-2026 14:00:00,13.940000,75.555917,CO,7,32,17
India,Karnataka,Tumakuru,"Thimmalapura, Tumakuru - KSPCB",19-06-2026 14:00:00,13.377516,77.099072,CO,53,54,54
India,Karnataka,Vijayapura,"Ibrahimpur, Vijayapura - KSPCB",19-06-2026 14:00:00,16.802639,75.722694,NO2,11,12,11
India,Karnataka,Vijayapura,"Ibrahimpur, Vijayapura - KSPCB",19-06-2026 14:00:00,16.802639,75.722694,NH3,4,4,4
India,Karnataka,Vijayapura,"Ibrahimpur, Vijayapura - KSPCB",19-06-2026 14:00:00,16.802639,75.722694,SO2,3,6,3
India,Karnataka,Vijayapura,"Ibrahimpur, Vijayapura - KSPCB",19-06-2026 14:00:00,16.802639,75.722694,CO,17,32,23
India,Karnataka,Yadgir,"Collector Office, Yadgir - KSPCB",19-06-2026 14:00:00,16.7602,77.1428,NH3,NA,NA,NA
India,Karnataka,Yadgir,"Collector Office, Yadgir - KSPCB",19-06-2026 14:00:00,16.7602,77.1428,CO,16,37,19
India,Karnataka,Yadgir,"Collector Office, Yadgir - KSPCB",19-06-2026 14:00:00,16.7602,77.1428,OZONE,2,34,22
India,Kerala,Kannur,"Thavakkara, Kannur - Kerala PCB",19-06-2026 14:00:00,11.875000,75.373200,CO,9,12,10
India,Kerala,Kollam,"Polayathode, Kollam - Kerala PCB",19-06-2026 14:00:00,8.8787,76.6073,PM10,40,62,53
India,Kerala,Kollam,"Polayathode, Kollam - Kerala PCB",19-06-2026 14:00:00,8.8787,76.6073,NH3,1,1,1
India,Kerala,Kollam,"Polayathode, Kollam - Kerala PCB",19-06-2026 14:00:00,8.8787,76.6073,CO,13,19,15
India,Kerala,Thiruvananthapuram,"Kariavattom, Thiruvananthapuram - Kerala PCB",19-06-2026 14:00:00,8.563700,76.886500,CO,6,22,18
India,Haryana,Panchgaon,"Amity University, Panchgaon - IITM",19-06-2026 14:00:00,28.3153,76.9143,PM10,58,449,145
India,Haryana,Panchkula,"Sector-6, Panchkula - HSPCB ",19-06-2026 14:00:00,30.7057778,76.8531805555555,OZONE,39,78,49
India,Haryana,Panipat,"Sector-18, Panipat - HSPCB",19-06-2026 14:00:00,29.432304,76.972765,NO2,31,32,31
India,Haryana,Panipat,"Sector-18, Panipat - HSPCB",19-06-2026 14:00:00,29.432304,76.972765,SO2,18,19,19
India,Haryana,Rohtak,"MD University, Rohtak - HSPCB",19-06-2026 14:00:00,28.52123,76.37138,SO2,8,11,10
India,Haryana,Sirsa,"F-Block, Sirsa - HSPCB",19-06-2026 14:00:00,29.536400,75.015800,CO,68,96,81
India,Haryana,Yamuna Nagar,"Gobind Pura, Yamuna Nagar - HSPCB",19-06-2026 14:00:00,30.1480566,77.2893471,CO,10,54,40
India,Himachal Pradesh,Baddi,"HIMUDA Complex Phase-1, Baddi - HPPCB",19-06-2026 14:00:00,30.943887,76.801991,PM10,105,281,179
India,Himachal Pradesh,Baddi,"HIMUDA Complex Phase-1, Baddi - HPPCB",19-06-2026 14:00:00,30.943887,76.801991,NH3,3,5,4
India,Jammu_and_Kashmir,Pampore,"Khrew, Pampore - JKPCC",19-06-2026 14:00:00,34.031606,75.009712,SO2,4,5,5
India,Jammu_and_Kashmir,Srinagar,"Khunmoh, Srinagar - JKPCC",19-06-2026 14:00:00,34.06313,74.96017,SO2,6,9,7
India,Jammu_and_Kashmir,Srinagar,"Rajbagh, Srinagar - JKPCC",19-06-2026 14:00:00,34.066206,74.819820,PM2.5,18,31,24
India,Jammu_and_Kashmir,Srinagar,"Rajbagh, Srinagar - JKPCC",19-06-2026 14:00:00,34.066206,74.819820,SO2,3,4,3
India,Jharkhand,Dhanbad,"Sardar Patel Nagar, Dhanbad - JSPCB",19-06-2026 14:00:00,23.80569,86.44268,PM10,53,500,155
India,Jharkhand,Jorapokhar,"Tata Stadium, Jorapokhar - JSPCB",19-06-2026 14:00:00,23.707909,86.414670,NO2,8,8,8
India,Jharkhand,Jorapokhar,"Tata Stadium, Jorapokhar - JSPCB",19-06-2026 14:00:00,23.707909,86.414670,NH3,3,3,3
India,Karnataka,Bengaluru,"BWSSB Kadabesanahalli, Bengaluru - CPCB",19-06-2026 14:00:00,12.9352049,77.6814488,PM2.5,57,61,60
India,Karnataka,Bengaluru,"Bapuji Nagar, Bengaluru - KSPCB",19-06-2026 14:00:00,12.951913,77.539784,PM10,27,98,62
India,Karnataka,Bengaluru,"Bapuji Nagar, Bengaluru - KSPCB",19-06-2026 14:00:00,12.951913,77.539784,SO2,2,43,22
India,Karnataka,Bengaluru,"Bapuji Nagar, Bengaluru - KSPCB",19-06-2026 14:00:00,12.951913,77.539784,CO,18,65,46
India,Karnataka,Bengaluru,"Bapuji Nagar, Bengaluru - KSPCB",19-06-2026 14:00:00,12.951913,77.539784,OZONE,19,67,32
India,Karnataka,Bengaluru,"City Railway Station, Bengaluru - KSPCB",19-06-2026 14:00:00,12.9756843,77.5660749,PM10,103,106,106
India,Karnataka,Bengaluru,"City Railway Station, Bengaluru - KSPCB",19-06-2026 14:00:00,12.9756843,77.5660749,CO,34,57,44
India,Karnataka,Bengaluru,"Hebbal, Bengaluru - KSPCB",19-06-2026 14:00:00,13.029152,77.585901,PM10,22,89,41
India,Karnataka,Bengaluru,"Hebbal, Bengaluru - KSPCB",19-06-2026 14:00:00,13.029152,77.585901,NO2,17,21,19
India,Karnataka,Bengaluru,"Hombegowda Nagar, Bengaluru - KSPCB",19-06-2026 14:00:00,12.938539,77.590100,PM10,NA,NA,NA
India,Karnataka,Bengaluru,"Hombegowda Nagar, Bengaluru - KSPCB",19-06-2026 14:00:00,12.938539,77.590100,NH3,NA,NA,NA
India,Karnataka,Bengaluru,"Jayanagar 5th Block, Bengaluru - KSPCB",19-06-2026 14:00:00,12.920984,77.584908,SO2,12,26,19
India,Madhya Pradesh,Pithampur,"Sector-2 Industrial Area, Pithampur - MPPCB",19-06-2026 14:00:00,22.624758,75.675238,NH3,2,5,4
India,Madhya Pradesh,Pithampur,"Sector-2 Industrial Area, Pithampur - MPPCB",19-06-2026 14:00:00,22.624758,75.675238,CO,6,155,30
India,Madhya Pradesh,Ratlam,"Shasthri Nagar, Ratlam - IPCA Lab",19-06-2026 14:00:00,23.331731,75.045981,PM10,17,99,54
India,Madhya Pradesh,Sagar,"Civil Lines, Sagar - MPPCB",19-06-2026 14:00:00,23.838586,78.759431,OZONE,13,96,35
India,Madhya Pradesh,Singrauli,"Suryakiran Bhawan NCL, Singrauli - MPPCB",19-06-2026 14:00:00,24.108970,82.645580,PM2.5,35,132,66
India,Madhya Pradesh,Singrauli,"Suryakiran Bhawan NCL, Singrauli - MPPCB",19-06-2026 14:00:00,24.108970,82.645580,SO2,23,57,41
India,Madhya Pradesh,Ujjain,"Mahashweta Nagar, Ujjain - MPPCB",19-06-2026 14:00:00,23.1633321,75.800225,SO2,4,6,5
India,Madhya Pradesh,Ujjain,"Mahashweta Nagar, Ujjain - MPPCB",19-06-2026 14:00:00,23.1633321,75.800225,CO,1,26,11
India,Madhya Pradesh,Ujjain,"Mahashweta Nagar, Ujjain - MPPCB",19-06-2026 14:00:00,23.1633321,75.800225,OZONE,20,64,28
India,Maharashtra,Ahmednagar,"Tarakpur, Ahmednagar - MPCB",19-06-2026 14:00:00,19.10122,74.73339,PM2.5,8,317,50
India,Maharashtra,Ahmednagar,"Tarakpur, Ahmednagar - MPCB",19-06-2026 14:00:00,19.10122,74.73339,NH3,2,10,6
India,Karnataka,Bengaluru,"Silk Board, Bengaluru - KSPCB",19-06-2026 14:00:00,12.917348,77.622813,SO2,2,9,6
India,Karnataka,Chamarajanagar,"Urban, Chamarajanagar - KSPCB",19-06-2026 14:00:00,11.55358,76.55521,SO2,3,8,4
India,Karnataka,Chikkaballapur,"Chikkaballapur Rural, Chikkaballapur - KSPCB",19-06-2026 14:00:00,13.428828,77.731418,NH3,1,1,1
India,Karnataka,Chikkamagaluru,"Kalyana Nagara, Chikkamagaluru - KSPCB",19-06-2026 14:00:00,13.328028,75.797056,SO2,2,5,4
India,Karnataka,Dharwad,"Kalabhavan, Dharwad - KSPCB",19-06-2026 14:00:00,15.459706,75.008381,NO2,26,27,27
India,Karnataka,Dharwad,"Kalabhavan, Dharwad - KSPCB",19-06-2026 14:00:00,15.459706,75.008381,CO,16,39,28
India,Karnataka,Kalaburagi,"Lal Bahadur Shastri Nagar, Kalaburagi - KSPCB",19-06-2026 14:00:00,17.321993,76.822628,PM2.5,NA,NA,NA
India,Karnataka,Kalaburagi,"Lal Bahadur Shastri Nagar, Kalaburagi - KSPCB",19-06-2026 14:00:00,17.321993,76.822628,PM10,NA,NA,NA
India,Karnataka,Kalaburagi,"Lal Bahadur Shastri Nagar, Kalaburagi - KSPCB",19-06-2026 14:00:00,17.321993,76.822628,SO2,NA,NA,NA
India,Karnataka,Kalaburagi,"Lal Bahadur Shastri Nagar, Kalaburagi - KSPCB",19-06-2026 14:00:00,17.321993,76.822628,OZONE,20,61,53
India,Karnataka,Madikeri,"Stuart Hill, Madikeri - KSPCB",19-06-2026 14:00:00,12.415911,75.735050,CO,7,18,14
India,Maharashtra,Aurangabad,"MIDC Chilkalthana, Aurangabad - MPCB",19-06-2026 14:00:00,19.875620,75.387310,NO2,6,24,10
India,Maharashtra,Aurangabad,"More Chowk Waluj, Aurangabad - MPCB",19-06-2026 14:00:00,19.8389439,75.244448,PM2.5,46,53,50
India,Maharashtra,Aurangabad,"More Chowk Waluj, Aurangabad - MPCB",19-06-2026 14:00:00,19.8389439,75.244448,SO2,24,33,28
India,Maharashtra,Aurangabad,"More Chowk Waluj, Aurangabad - MPCB",19-06-2026 14:00:00,19.8389439,75.244448,CO,2,101,48
India,Maharashtra,Badlapur,"Katrap, Badlapur - MPCB",19-06-2026 14:00:00,19.16485,73.23409,NO2,9,35,18
India,Maharashtra,Badlapur,"Katrap, Badlapur - MPCB",19-06-2026 14:00:00,19.16485,73.23409,NH3,3,7,5
India,Maharashtra,Badlapur,"Katrap, Badlapur - MPCB",19-06-2026 14:00:00,19.16485,73.23409,OZONE,12,84,43
India,Maharashtra,Beed,"Bir, Beed - MPCB",19-06-2026 14:00:00,18.988474,75.753873,PM10,38,181,61
India,Maharashtra,Belapur,"CBD Belapur, Belapur - MPCB",19-06-2026 14:00:00,19.0243902,73.0406721,NO2,NA,NA,NA
India,Maharashtra,Belapur,"CBD Belapur, Belapur - MPCB",19-06-2026 14:00:00,19.0243902,73.0406721,CO,NA,NA,NA
India,Maharashtra,Belapur,"CBD Belapur, Belapur - MPCB",19-06-2026 14:00:00,19.0243902,73.0406721,OZONE,NA,NA,NA
India,Madhya Pradesh,Jabalpur,"Marhatal, Jabalpur - MPPCB",19-06-2026 14:00:00,23.168606,79.932247,OZONE,36,103,76
India,Madhya Pradesh,Jabalpur,"Suhagi, Jabalpur - JMC",19-06-2026 14:00:00,23.218135,79.957770,PM2.5,17,59,34
India,Madhya Pradesh,Jabalpur,"Suhagi, Jabalpur - JMC",19-06-2026 14:00:00,23.218135,79.957770,PM10,28,68,45
India,Madhya Pradesh,Jabalpur,"Suhagi, Jabalpur - JMC",19-06-2026 14:00:00,23.218135,79.957770,NO2,71,75,73
India,Madhya Pradesh,Katni,"Gole Bazar, Katni - MPPCB",19-06-2026 14:00:00,23.50016,80.23284,CO,15,46,27
India,Madhya Pradesh,Maihar,"Sahilara, Maihar - KJS Cements",19-06-2026 14:00:00,24.2613009,80.7231783,SO2,7,9,8
India,Madhya Pradesh,Mandideep,"Sector-D Industrial Area, Mandideep - MPPCB",19-06-2026 14:00:00,23.108440,77.511428,PM2.5,38,74,51
India,Madhya Pradesh,Pithampur,"Sector-2 Industrial Area, Pithampur - MPPCB",19-06-2026 14:00:00,22.624758,75.675238,PM2.5,10,134,50
India,Madhya Pradesh,Bhopal,"Paryavaran Parisar, Bhopal - MPPCB",19-06-2026 14:00:00,23.210494,77.425409,NO2,10,15,12
India,Madhya Pradesh,Bhopal,"T T Nagar, Bhopal - MPPCB",19-06-2026 14:00:00,23.233584,77.400574,NO2,12,25,17
India,Madhya Pradesh,Dewas,"Bhopal Chauraha, Dewas - MPPCB",19-06-2026 14:00:00,22.9682591,76.064118,PM2.5,11,55,32
India,Madhya Pradesh,Dewas,"Bhopal Chauraha, Dewas - MPPCB",19-06-2026 14:00:00,22.9682591,76.064118,SO2,4,78,34
India,Madhya Pradesh,Gwalior,"Deen Dayal Nagar, Gwalior - MPPCB",19-06-2026 14:00:00,26.259242,78.216432,OZONE,13,130,40
India,Madhya Pradesh,Gwalior,"Maharaj Bada, Gwalior - MPPCB",19-06-2026 14:00:00,26.200388,78.147714,PM2.5,20,48,32
India,Madhya Pradesh,Gwalior,"Maharaj Bada, Gwalior - MPPCB",19-06-2026 14:00:00,26.200388,78.147714,PM10,61,134,98
India,Madhya Pradesh,Gwalior,"Maharaj Bada, Gwalior - MPPCB",19-06-2026 14:00:00,26.200388,78.147714,SO2,1,20,9
India,Madhya Pradesh,Gwalior,"Maharaj Bada, Gwalior - MPPCB",19-06-2026 14:00:00,26.200388,78.147714,OZONE,43,74,54
India,Madhya Pradesh,Indore,"Airport Area, Indore - IMC",19-06-2026 14:00:00,22.7289,75.8076,PM2.5,16,56,42
India,Madhya Pradesh,Indore,"Airport Area, Indore - IMC",19-06-2026 14:00:00,22.7289,75.8076,PM10,11,69,37
India,Madhya Pradesh,Indore,"Airport Area, Indore - IMC",19-06-2026 14:00:00,22.7289,75.8076,CO,41,48,42
India,Madhya Pradesh,Indore,"Chhoti Gwaltoli, Indore - MPPCB",19-06-2026 14:00:00,22.4310,75.5213,NO2,64,144,126
India,Madhya Pradesh,Indore,"Chhoti Gwaltoli, Indore - MPPCB",19-06-2026 14:00:00,22.4310,75.5213,SO2,7,10,8
India,Madhya Pradesh,Indore,"Maguda Nagar, Indore - IMC",19-06-2026 14:00:00,22.7524,75.8872,NO2,2,3,2
India,Madhya Pradesh,Indore,"Regional Park, Indore - IMC",19-06-2026 14:00:00,22.6780,75.8559,PM2.5,3,42,23
India,Madhya Pradesh,Indore,"Residency Area, Indore - IMC",19-06-2026 14:00:00,22.7084,75.8815,PM10,22,73,39
India,Maharashtra,Navi Mumbai,"Sector-2E Kalamboli, Navi Mumbai - MPCB",19-06-2026 14:00:00,19.02579,73.10297,NO2,12,20,15
India,Maharashtra,Navi Mumbai,"Sector-2E Kalamboli, Navi Mumbai - MPCB",19-06-2026 14:00:00,19.02579,73.10297,CO,12,16,14
India,Maharashtra,Navi Mumbai,"Sector-2E Kalamboli, Navi Mumbai - MPCB",19-06-2026 14:00:00,19.02579,73.10297,OZONE,1,72,32
India,Maharashtra,Navi Mumbai,"Tondare-Taloja, Navi Mumbai - MPCB",19-06-2026 14:00:00,19.0630,73.1209,PM2.5,NA,NA,NA
India,Maharashtra,Navi Mumbai,"Tondare-Taloja, Navi Mumbai - MPCB",19-06-2026 14:00:00,19.0630,73.1209,SO2,10,10,10
India,Maharashtra,Navi Mumbai,"Tondare-Taloja, Navi Mumbai - MPCB",19-06-2026 14:00:00,19.0630,73.1209,CO,5,14,9
India,Maharashtra,Parbhani,"Masoom Colony, Parbhani - MPCB",19-06-2026 14:00:00,19.265594,76.761463,PM2.5,17,46,30
India,Maharashtra,Parbhani,"Masoom Colony, Parbhani - MPCB",19-06-2026 14:00:00,19.265594,76.761463,CO,10,16,12
India,Maharashtra,Pimpri-Chinchwad,"Bhosari,Pimpri-Chinchwad - IITM",19-06-2026 14:00:00,18.640051,73.848956,PM10,22,71,50
India,Maharashtra,Pimpri-Chinchwad,"Bhosari,Pimpri-Chinchwad - IITM",19-06-2026 14:00:00,18.640051,73.848956,OZONE,11,26,21
India,Maharashtra,Pimpri-Chinchwad,"Bhumkar Nagar, Pimpri-Chinchwad - IITM",19-06-2026 14:00:00,18.605770,73.749976,OZONE,10,26,18
India,Maharashtra,Pimpri-Chinchwad,"Gavalinagar, Pimpri Chinchwad - MPCB",19-06-2026 14:00:00,18.63673,73.82487,PM10,16,208,53
India,Maharashtra,Pimpri-Chinchwad,"Gavalinagar, Pimpri Chinchwad - MPCB",19-06-2026 14:00:00,18.63673,73.82487,SO2,1,2,2
India,Maharashtra,Pimpri-Chinchwad,"Park Street Wakad, Pimpri Chinchwad - MPCB",19-06-2026 14:00:00,18.59051,73.77946,NH3,2,3,2
India,Maharashtra,Pimpri-Chinchwad,"Savta Mali Nagar, Pimpri-Chinchwad - IITM",19-06-2026 14:00:00,18.614767,73.799516,PM10,35,71,56
India,Maharashtra,Pimpri-Chinchwad,"Savta Mali Nagar, Pimpri-Chinchwad - IITM",19-06-2026 14:00:00,18.614767,73.799516,CO,24,46,34
India,Maharashtra,Pimpri-Chinchwad,"Thergaon, Pimpri Chinchwad - MPCB",19-06-2026 14:00:00,18.616318,73.765797,NO2,9,18,13
India,Maharashtra,Pimpri-Chinchwad,"Thergaon, Pimpri Chinchwad - MPCB",19-06-2026 14:00:00,18.616318,73.765797,NH3,10,12,11
India,Maharashtra,Pune,"Dhankawadi, Pune - IITM",19-06-2026 14:00:00,18.459883,73.852193,NO2,18,26,21
India,Maharashtra,Pune,"Dhankawadi, Pune - IITM",19-06-2026 14:00:00,18.459883,73.852193,CO,10,104,95
India,Maharashtra,Pune,"Hadapsar, Pune - IITM",19-06-2026 14:00:00,18.501793,73.927532,NO2,10,64,36
India,Maharashtra,Pune,"Hadapsar, Pune - IITM",19-06-2026 14:00:00,18.501793,73.927532,CO,30,114,82
India,Maharashtra,Pune,"Katraj Dairy, Pune - MPCB",19-06-2026 14:00:00,18.454450,73.854155,SO2,2,3,2
India,Maharashtra,Pune,"Panchawati_Pashan, Pune - IITM",19-06-2026 14:00:00,18.536457,73.805454,PM10,41,71,51
India,Maharashtra,Pune,"Revenue Colony-Shivajinagar, Pune - IITM",19-06-2026 14:00:00,18.530085,73.849598,PM2.5,9,70,33
India,Maharashtra,Pune,"Savitribai Phule Pune University, Pune - MPCB",19-06-2026 14:00:00,18.547056,73.826908,PM10,19,38,27
India,Maharashtra,Pune,"Savitribai Phule Pune University, Pune - MPCB",19-06-2026 14:00:00,18.547056,73.826908,OZONE,4,61,36
India,Maharashtra,Sangli,"Vijay Nagar, Sangli - MPCB",19-06-2026 14:00:00, 16.5038,74.3623,PM10,28,54,40
India,Maharashtra,Sangli,"Vijay Nagar, Sangli - MPCB",19-06-2026 14:00:00, 16.5038,74.3623,CO,8,16,14
India,Maharashtra,Satara,"Koyana Nagar, Satara - MPCB",19-06-2026 14:00:00,17.696651,74.003387,SO2,1,2,1
India,Maharashtra,Satara,"Koyana Nagar, Satara - MPCB",19-06-2026 14:00:00,17.696651,74.003387,OZONE,29,58,42
India,Maharashtra,Solapur,"Dnyaneshwar Nagar, Solapur - MPCB",19-06-2026 14:00:00,17.6336264,75.9132495,NH3,NA,NA,NA
India,Maharashtra,Solapur,"Dnyaneshwar Nagar, Solapur - MPCB",19-06-2026 14:00:00,17.6336264,75.9132495,CO,NA,NA,NA
India,Maharashtra,Mumbai,"Shivaji Nagar, Mumbai - BMC",19-06-2026 14:00:00,19.060498,72.923356,OZONE,40,41,40
India,Maharashtra,Mumbai,"Siddharth Nagar-Worli, Mumbai - IITM",19-06-2026 14:00:00,19.000083,72.813993,PM2.5,22,29,25
India,Maharashtra,Mumbai,"Siddharth Nagar-Worli, Mumbai - IITM",19-06-2026 14:00:00,19.000083,72.813993,PM10,49,69,58
India,Maharashtra,Mumbai,"Siddharth Nagar-Worli, Mumbai - IITM",19-06-2026 14:00:00,19.000083,72.813993,NO2,18,29,20
India,Maharashtra,Mumbai,"Siddharth Nagar-Worli, Mumbai - IITM",19-06-2026 14:00:00,19.000083,72.813993,NH3,2,3,2
India,Maharashtra,Mumbai,"Siddharth Nagar-Worli, Mumbai - IITM",19-06-2026 14:00:00,19.000083,72.813993,OZONE,3,8,7
India,Maharashtra,Mumbai,"Worli, Mumbai -MPCB",19-06-2026 14:00:00,18.9942180,72.8158167,SO2,30,35,31
India,Maharashtra,Nagpur,"Ambazari, Nagpur - MPCB",19-06-2026 14:00:00,21.121801,79.04952,PM2.5,43,90,63
India,Maharashtra,Nagpur,"Ambazari, Nagpur - MPCB",19-06-2026 14:00:00,21.121801,79.04952,OZONE,1,41,22
India,Maharashtra,Nagpur,"Mahal, Nagpur - MPCB",19-06-2026 14:00:00,21.14472,79.107595,NO2,12,47,28
India,Maharashtra,Nagpur,"Opp GPO Civil Lines, Nagpur - MPCB",19-06-2026 14:00:00,21.152875,79.0517531,PM10,19,114,69
India,Maharashtra,Nagpur,"Opp GPO Civil Lines, Nagpur - MPCB",19-06-2026 14:00:00,21.152875,79.0517531,NH3,4,5,5
India,Maharashtra,Nagpur,"Opp GPO Civil Lines, Nagpur - MPCB",19-06-2026 14:00:00,21.152875,79.0517531,SO2,4,83,24
India,Maharashtra,Nagpur,"Ram Nagar, Nagpur - MPCB",19-06-2026 14:00:00,21.143383,79.048912,PM10,58,121,87
India,Maharashtra,Nagpur,"Ram Nagar, Nagpur - MPCB",19-06-2026 14:00:00,21.143383,79.048912,NH3,4,9,6
India,Maharashtra,Nagpur,"Ram Nagar, Nagpur - MPCB",19-06-2026 14:00:00,21.143383,79.048912,CO,6,74,8
India,Maharashtra,Nanded,"Sneh Nagar, Nanded - MPCB",19-06-2026 14:00:00,19.173852,77.296291,OZONE,21,69,45
India,Maharashtra,Nashik,"Gangapur Road, Nashik - MPCB",19-06-2026 14:00:00,20.0073285,73.7762427,PM10,18,52,38
India,Maharashtra,Nashik,"Gangapur Road, Nashik - MPCB",19-06-2026 14:00:00,20.0073285,73.7762427,NH3,3,3,3
India,Maharashtra,Nashik,"Pandav Nagari, Nashik - MPCB",19-06-2026 14:00:00,19.9591346,73.7788008,PM10,22,64,41
India,Maharashtra,Nashik,"Pandav Nagari, Nashik - MPCB",19-06-2026 14:00:00,19.9591346,73.7788008,NO2,7,16,11
India,Maharashtra,Nashik,"Pandav Nagari, Nashik - MPCB",19-06-2026 14:00:00,19.9591346,73.7788008,NH3,1,3,2
India,Maharashtra,Navi Mumbai,"Kopripada-Vashi, Navi Mumbai - MPCB",19-06-2026 14:00:00,19.090337,73.014232,NH3,6,9,7
India,Maharashtra,Navi Mumbai,"Kopripada-Vashi, Navi Mumbai - MPCB",19-06-2026 14:00:00,19.090337,73.014232,CO,7,42,24
India,Maharashtra,Navi Mumbai,"Kopripada-Vashi, Navi Mumbai - MPCB",19-06-2026 14:00:00,19.090337,73.014232,OZONE,19,20,20
India,Maharashtra,Navi Mumbai,"Mahape, Navi Mumbai - MPCB",19-06-2026 14:00:00,19.1135051,73.008978,PM2.5,18,60,32
India,Maharashtra,Navi Mumbai,"Mahape, Navi Mumbai - MPCB",19-06-2026 14:00:00,19.1135051,73.008978,SO2,14,16,15
India,Maharashtra,Navi Mumbai,"Nerul, Navi Mumbai - MPCB",19-06-2026 14:00:00,19.008751,73.016620,NH3,7,7,7
India,Maharashtra,Navi Mumbai,"Sanpada, Navi Mumbai - MPCB",19-06-2026 14:00:00,19.0575752,73.0151367,PM2.5,20,26,22
India,Maharashtra,Navi Mumbai,"Sanpada, Navi Mumbai - MPCB",19-06-2026 14:00:00,19.0575752,73.0151367,NO2,2,11,5
India,Maharashtra,Mira-Bhayandar,"Bhayandar West, Mira-Bhayandar - MPCB",19-06-2026 14:00:00,19.296481,72.840923,PM2.5,8,34,17
India,Maharashtra,Mumbai,"Bandra Kurla Complex, Mumbai - IITM",19-06-2026 14:00:00,19.053536,72.84643,OZONE,8,12,9
India,Maharashtra,Mumbai,"Bandra Kurla Complex, Mumbai - MPCB",19-06-2026 14:00:00,19.065931,72.862131,NO2,5,32,29
India,Maharashtra,Mumbai,"Bandra Kurla Complex, Mumbai - MPCB",19-06-2026 14:00:00,19.065931,72.862131,SO2,2,4,3
India,Maharashtra,Mumbai,"Bandra Kurla Complex, Mumbai - MPCB",19-06-2026 14:00:00,19.065931,72.862131,OZONE,3,54,13
India,Maharashtra,Mumbai,"Borivali East, Mumbai - IITM",19-06-2026 14:00:00,19.23241,72.86895,PM10,26,47,38
India,Maharashtra,Mumbai,"Byculla, Mumbai - BMC",19-06-2026 14:00:00,18.9767,72.8380,NH3,1,2,1
India,Maharashtra,Mumbai,"Chembur, Mumbai - MPCB",19-06-2026 14:00:00,19.0364585,72.8954371,NO2,6,22,12
India,Maharashtra,Mumbai,"Chembur, Mumbai - MPCB",19-06-2026 14:00:00,19.0364585,72.8954371,NH3,9,21,16
India,Maharashtra,Mumbai,"Chembur, Mumbai - MPCB",19-06-2026 14:00:00,19.0364585,72.8954371,OZONE,3,16,11
India,Maharashtra,Mumbai,"Deonar, Mumbai - IITM",19-06-2026 14:00:00,19.04946,72.9230,SO2,1,3,1
India,Maharashtra,Mumbai,"Kandivali West, Mumbai - BMC",19-06-2026 14:00:00,19.215859,72.831718,PM2.5,9,27,17
India,Maharashtra,Mumbai,"Kandivali West, Mumbai - BMC",19-06-2026 14:00:00,19.215859,72.831718,OZONE,6,11,9
India,Maharashtra,Mumbai,"Khindipada-Bhandup West, Mumbai - IITM",19-06-2026 14:00:00,19.1653323,72.922099,NO2,6,17,10
India,Maharashtra,Mumbai,"Malad West, Mumbai - IITM",19-06-2026 14:00:00,19.19709,72.82204,PM2.5,2,43,19
India,Maharashtra,Mumbai,"Malad West, Mumbai - IITM",19-06-2026 14:00:00,19.19709,72.82204,OZONE,9,35,20
India,Maharashtra,Mumbai,"Mazgaon, Mumbai - IITM",19-06-2026 14:00:00,18.96702,72.84214,PM10,36,71,54
India,Maharashtra,Mumbai,"Mindspace-Malad West, Mumbai - MPCB",19-06-2026 14:00:00,19.1878657,72.8304069,CO,10,12,12
India,Maharashtra,Mumbai,"Mulund West, Mumbai - MPCB",19-06-2026 14:00:00,19.1750,72.9419,NH3,2,4,3
India,Maharashtra,Mumbai,"Navy Nagar-Colaba, Mumbai - IITM",19-06-2026 14:00:00,18.897756,72.813320,SO2,1,16,8
India,Maharashtra,Mumbai,"Powai, Mumbai - MPCB",19-06-2026 14:00:00,19.137500,72.915056,PM10,10,32,20
India,Maharashtra,Mumbai,"Sewri, Mumbai - BMC",19-06-2026 14:00:00,19.000084,72.856730,CO,14,26,18
India,Maharashtra,Chandrapur,"Chauhan Colony, Chandrapur - MPCB",19-06-2026 14:00:00,19.962900,79.298714,PM10,58,154,89
India,Maharashtra,Chandrapur,"Chauhan Colony, Chandrapur - MPCB",19-06-2026 14:00:00,19.962900,79.298714,NO2,32,48,38
India,Maharashtra,Chandrapur,"Chauhan Colony, Chandrapur - MPCB",19-06-2026 14:00:00,19.962900,79.298714,OZONE,12,20,19
India,Maharashtra,Dhule,"Deopur, Dhule - MPCB",19-06-2026 14:00:00,20.918946,74.776388,PM10,28,151,65
India,Maharashtra,Dhule,"Deopur, Dhule - MPCB",19-06-2026 14:00:00,20.918946,74.776388,NO2,7,13,9
India,Maharashtra,Dhule,"Deopur, Dhule - MPCB",19-06-2026 14:00:00,20.918946,74.776388,CO,10,24,20
India,Maharashtra,Dombivli,"Kalu Nagar, Dombivli - MPCB",19-06-2026 14:00:00,19.2268427 ,73.0788456 ,PM2.5,3,15,8
India,Maharashtra,Dombivli,"Kalu Nagar, Dombivli - MPCB",19-06-2026 14:00:00,19.2268427 ,73.0788456 ,PM10,17,44,26
India,Maharashtra,Dombivli,"Kalu Nagar, Dombivli - MPCB",19-06-2026 14:00:00,19.2268427 ,73.0788456 ,CO,6,16,10
India,Maharashtra,Dombivli,"Kalu Nagar, Dombivli - MPCB",19-06-2026 14:00:00,19.2268427 ,73.0788456 ,OZONE,4,49,21
India,Maharashtra,Hingoli,"Ashta Vinayak Nagar, Hingoli - MPCB",19-06-2026 14:00:00,19.710842,77.151824,SO2,2,3,2
India,Maharashtra,Kalyan,"Pimpleshwar Mandir, Kalyan - MPCB",19-06-2026 14:00:00,19.192056,72.9585188,CO,5,66,58
India,Maharashtra,Kolhapur,"Shivaji University, Kolhapur - MPCB",19-06-2026 14:00:00,16.6870449,74.2505872,OZONE,7,65,24
India,Maharashtra,Latur,"Sawe Wadi, Latur - MPCB",19-06-2026 14:00:00,18.39963,76.57452,CO,2,46,8
India,Maharashtra,Mahad,"Kamble Tarf Birwadi, Mahad - MPCB",19-06-2026 14:00:00,18.1023399,73.4783687,NO2,8,26,14
India,Maharashtra,Mahad,"Kamble Tarf Birwadi, Mahad - MPCB",19-06-2026 14:00:00,18.1023399,73.4783687,NH3,7,8,8
India,Maharashtra,Malegaon,"Mahesh Nagar, Malegaon - MPCB",19-06-2026 14:00:00,20.555712,74.529236,CO,1,15,3
India,Maharashtra,Bhiwandi,"Gokul Nagar, Bhiwandi - MPCB",19-06-2026 14:00:00,19.309073,73.057223,NO2,14,30,21
India,Maharashtra,Boisar,"Khaira, Boisar - MPCB",19-06-2026 14:00:00,19.786089,72.757971,PM2.5,NA,NA,NA
India,Maharashtra,Boisar,"Khaira, Boisar - MPCB",19-06-2026 14:00:00,19.786089,72.757971,SO2,NA,NA,NA
India,Maharashtra,Boisar,"Khaira, Boisar - MPCB",19-06-2026 14:00:00,19.786089,72.757971,CO,1,26,15
India,Odisha,Rourkela,"Raghunathpali, Rourkela - OSPCB",19-06-2026 14:00:00,22.220833,84.809444,NH3,2,2,2
India,Odisha,Rourkela,"Raghunathpali, Rourkela - OSPCB",19-06-2026 14:00:00,22.220833,84.809444,OZONE,9,23,13
India,Odisha,Rourkela,"Sector-2, Rourkela - OSPCB",19-06-2026 14:00:00,22.24500000,84.88111111,CO,12,12,12
India,Odisha,Suakati,"OMC Colony, Suakati - OSPCB",19-06-2026 14:00:00,21.606865,85.510538,SO2,7,14,9
India,Odisha,Tensa,"Barsua Iron Ore Mines, Tensa - OSPCB",19-06-2026 14:00:00,21.869985,85.167016,PM10,NA,NA,NA
India,Odisha,Tensa,"Barsua Iron Ore Mines, Tensa - OSPCB",19-06-2026 14:00:00,21.869985,85.167016,SO2,54,100,68
India,Puducherry,Puducherry,"Jawahar Nagar, Puducherry - PPCC",19-06-2026 14:00:00,11.9309,79.8027,SO2,2,13,8
India,Puducherry,Puducherry,"Jawahar Nagar, Puducherry - PPCC",19-06-2026 14:00:00,11.9309,79.8027,CO,16,40,28
India,Punjab,Amritsar,"Golden Temple, Amritsar - PPCB",19-06-2026 14:00:00,31.620000,74.876512,PM2.5,55,65,59
India,Punjab,Amritsar,"Golden Temple, Amritsar - PPCB",19-06-2026 14:00:00,31.620000,74.876512,PM10,64,76,69
India,Punjab,Bathinda,"Hardev Nagar, Bathinda - PPCB",19-06-2026 14:00:00,30.233011,74.907758,NO2,18,42,38
India,Punjab,Bathinda,"Hardev Nagar, Bathinda - PPCB",19-06-2026 14:00:00,30.233011,74.907758,SO2,1,108,42
India,Punjab,Jalandhar,"Civil Line, Jalandhar - PPCB",19-06-2026 14:00:00,31.321907,75.578914,NO2,13,22,17
India,Punjab,Jalandhar,"Civil Line, Jalandhar - PPCB",19-06-2026 14:00:00,31.321907,75.578914,NH3,6,7,7
India,Punjab,Jalandhar,"Civil Line, Jalandhar - PPCB",19-06-2026 14:00:00,31.321907,75.578914,SO2,20,21,20
India,Punjab,Jalandhar,"Civil Line, Jalandhar - PPCB",19-06-2026 14:00:00,31.321907,75.578914,CO,56,60,58
India,Punjab,Khanna,"Kalal Majra, Khanna - PPCB",19-06-2026 14:00:00,30.736056 ,76.209694,PM2.5,43,53,50
India,Punjab,Khanna,"Kalal Majra, Khanna - PPCB",19-06-2026 14:00:00,30.736056 ,76.209694,PM10,74,89,85
India,Punjab,Mandi Gobindgarh,"RIMT University, Mandi Gobindgarh - PPCB",19-06-2026 14:00:00,30.649961,76.331442,PM2.5,24,64,43
India,Punjab,Mandi Gobindgarh,"RIMT University, Mandi Gobindgarh - PPCB",19-06-2026 14:00:00,30.649961,76.331442,PM10,48,102,76
India,Maharashtra,Solapur,"Ratandeep Housing Society, Solapur - MPCB",19-06-2026 14:00:00,17.65439,75.90649,SO2,1,5,2
India,Maharashtra,Thane,"Kasarvadavali, Thane - MPCB",19-06-2026 14:00:00,19.26777,72.97182,PM2.5,NA,NA,NA
India,Maharashtra,Thane,"Kasarvadavali, Thane - MPCB",19-06-2026 14:00:00,19.26777,72.97182,SO2,NA,NA,NA
India,Maharashtra,Thane,"Kasarvadavali, Thane - MPCB",19-06-2026 14:00:00,19.26777,72.97182,CO,2,11,10
India,Maharashtra,Thane,"Upvan Fort, Thane - MPCB",19-06-2026 14:00:00,19.222279,72.957979,SO2,4,6,5
India,Maharashtra,Ulhasnagar,"Sidhi Vinayak Nagar, Ulhasnagar - MPCB",19-06-2026 14:00:00,19.235581,73.159121,NO2,8,36,24
India,Maharashtra,Ulhasnagar,"Sidhi Vinayak Nagar, Ulhasnagar - MPCB",19-06-2026 14:00:00,19.235581,73.159121,CO,12,36,17
India,Maharashtra,Ulhasnagar,"Vithalwadi, Ulhasnagar - MPCB",19-06-2026 14:00:00,19.2307571 ,73.1551920,PM10,19,38,29
India,Meghalaya,Byrnihat,"15th Mile-Nongthymmai, Byrnihat - Meghalaya PCB",19-06-2026 14:00:00,26.05374,91.86796,CO,2,59,3
India,Meghalaya,Shillong,"JN Stadium, Shillong - Meghalaya PCB",19-06-2026 14:00:00,25.5803419,91.8942571,OZONE,5,12,10
India,Mizoram,Aizawl,"Sikulpuikawn, Aizawl - Mizoram PCB",19-06-2026 14:00:00,23.7176342,92.7192841,PM10,17,50,32
India,Mizoram,Aizawl,"Sikulpuikawn, Aizawl - Mizoram PCB",19-06-2026 14:00:00,23.7176342,92.7192841,SO2,14,16,15
India,Nagaland,Kohima,"PWD Junction, Kohima - NPCB",19-06-2026 14:00:00,25.6635413,94.0989878,NO2,3,4,3
India,Odisha,Angul,"Hakimapada, Angul - OSPCB",19-06-2026 14:00:00,20.832874,85.104082,PM10,26,439,126
India,Odisha,Angul,"Hakimapada, Angul - OSPCB",19-06-2026 14:00:00,20.832874,85.104082,CO,47,106,54
India,Odisha,Angul,"Hakimapada, Angul - OSPCB",19-06-2026 14:00:00,20.832874,85.104082,OZONE,26,154,58
India,Odisha,Balasore,"Kalidaspur, Balasore - OSPCB",19-06-2026 14:00:00,21.51161,86.89088,NH3,2,7,3
India,Odisha,Balasore,"Kalidaspur, Balasore - OSPCB",19-06-2026 14:00:00,21.51161,86.89088,CO,30,42,36
India,Odisha,Balasore,"Kalidaspur, Balasore - OSPCB",19-06-2026 14:00:00,21.51161,86.89088,OZONE,37,94,64
India,Odisha,Baripada,"Meher Colony, Baripada - OSPCB",19-06-2026 14:00:00,21.941841,86.728318,SO2,5,17,8
India,Odisha,Baripada,"Meher Colony, Baripada - OSPCB",19-06-2026 14:00:00,21.941841,86.728318,OZONE,18,65,40
India,Odisha,Bhubaneswar,"Lingraj Mandir, Bhubaneswar - OSPCB",19-06-2026 14:00:00,20.240790,85.836784,PM2.5,5,305,38
India,Odisha,Bhubaneswar,"Lingraj Mandir, Bhubaneswar - OSPCB",19-06-2026 14:00:00,20.240790,85.836784,NO2,7,30,16
India,Odisha,Bhubaneswar,"Patia, Bhubaneswar - OSPCB",19-06-2026 14:00:00,20.34652,85.81630,PM2.5,8,87,49
India,Odisha,Bhubaneswar,"Patia, Bhubaneswar - OSPCB",19-06-2026 14:00:00,20.34652,85.81630,PM10,45,99,68
India,Odisha,Bhubaneswar,"Patia, Bhubaneswar - OSPCB",19-06-2026 14:00:00,20.34652,85.81630,SO2,4,12,8
India,Odisha,Brajrajnagar,"GM Office, Brajrajnagar - OSPCB",19-06-2026 14:00:00,21.8004996,83.8396977,PM2.5,7,73,42
India,Odisha,Byasanagar,"Ferro Chrome Colony, Byasanagar - OSPCB",19-06-2026 14:00:00,20.94185,86.11510,PM10,17,102,59
India,Odisha,Byasanagar,"Ferro Chrome Colony, Byasanagar - OSPCB",19-06-2026 14:00:00,20.94185,86.11510,NH3,1,2,1
India,Odisha,Byasanagar,"Ferro Chrome Colony, Byasanagar - OSPCB",19-06-2026 14:00:00,20.94185,86.11510,SO2,5,10,8
India,Odisha,Cuttack,"CDA Area, Cuttack - OSPCB",19-06-2026 14:00:00,20.48891     ,85.84768     ,SO2,2,5,4
India,Odisha,Cuttack,"CDA Area, Cuttack - OSPCB",19-06-2026 14:00:00,20.48891     ,85.84768     ,CO,14,32,26
India,Odisha,Cuttack,"CDA Area, Cuttack - OSPCB",19-06-2026 14:00:00,20.48891     ,85.84768     ,OZONE,39,114,57
India,Odisha,Rairangpur,"Divisional Forest Office, Rairangpur - OSPCB",19-06-2026 14:00:00,22.265816,86.174829,PM2.5,40,80,58
India,Odisha,Rourkela,"Fertilizer Township, Rourkela - OSPCB",19-06-2026 14:00:00,22.18972222,84.86277778,PM2.5,55,88,62
India,Rajasthan,Pali,"Indira Colony Vistar, Pali - RSPCB",19-06-2026 14:00:00,25.771061, 73.340227,PM2.5,60,174,109
India,Rajasthan,Pali,"Indira Colony Vistar, Pali - RSPCB",19-06-2026 14:00:00,25.771061, 73.340227,CO,18,42,28
India,Rajasthan,Pratapgarh,"Pragati Nagar, Pratapgarh - RSPCB",19-06-2026 14:00:00,24.041198,74.780702,NO2,8,15,12
India,Rajasthan,Pratapgarh,"Pragati Nagar, Pratapgarh - RSPCB",19-06-2026 14:00:00,24.041198,74.780702,CO,12,21,16
India,Rajasthan,Rajsamand,"Dhoinda, Rajsamand - RSPCB",19-06-2026 14:00:00,25.036360,73.883502,NH3,NA,NA,NA
India,Rajasthan,Sawai Madhopur,"Sahu Nagar, Sawai Madhopur - RSPCB",19-06-2026 14:00:00,26.031443,76.359327,PM2.5,2,43,16
India,Rajasthan,Sikar,"Radhakishan Pura, Sikar - RSPCB",19-06-2026 14:00:00,27.608912,75.153302,OZONE,51,93,76
India,Rajasthan,Sirohi,"Vedhaynath Colony, Sirohi - RSPCB",19-06-2026 14:00:00,24.885261,72.857549,PM2.5,13,68,33
India,Rajasthan,Sirohi,"Vedhaynath Colony, Sirohi - RSPCB",19-06-2026 14:00:00,24.885261,72.857549,NH3,1,4,2
India,Rajasthan,Sirohi,"Vedhaynath Colony, Sirohi - RSPCB",19-06-2026 14:00:00,24.885261,72.857549,CO,6,28,14
India,Rajasthan,Sri Ganganagar,"Old City, Sri Ganganagar - RSPCB",19-06-2026 14:00:00,29.931624,73.864511,NH3,2,6,3
India,Rajasthan,Sri Ganganagar,"Old City, Sri Ganganagar - RSPCB",19-06-2026 14:00:00,29.931624,73.864511,SO2,1,5,3
India,Rajasthan,Tonk,"Shastri Nagar, Tonk - RSPCB",19-06-2026 14:00:00,26.159933,75.780517,NO2,2,18,4
India,Rajasthan,Tonk,"Shastri Nagar, Tonk - RSPCB",19-06-2026 14:00:00,26.159933,75.780517,SO2,2,3,2
India,Rajasthan,Tonk,"Shastri Nagar, Tonk - RSPCB",19-06-2026 14:00:00,26.159933,75.780517,CO,10,40,28
India,Rajasthan,Udaipur,"Ashok Nagar, Udaipur - RSPCB",19-06-2026 14:00:00,24.5886166,73.6321397,NO2,10,47,37
India,Rajasthan,Udaipur,"Ashok Nagar, Udaipur - RSPCB",19-06-2026 14:00:00,24.5886166,73.6321397,NH3,1,5,2
India,Punjab,Mandi Gobindgarh,"RIMT University, Mandi Gobindgarh - PPCB",19-06-2026 14:00:00,30.649961,76.331442,NH3,6,6,6
India,Punjab,Mandi Gobindgarh,"RIMT University, Mandi Gobindgarh - PPCB",19-06-2026 14:00:00,30.649961,76.331442,SO2,NA,NA,NA
India,Punjab,Patiala,"Model Town, Patiala - PPCB",19-06-2026 14:00:00,30.349388,76.366642,PM10,64,150,111
India,Punjab,Patiala,"Model Town, Patiala - PPCB",19-06-2026 14:00:00,30.349388,76.366642,SO2,1,17,7
India,Punjab,Patiala,"Model Town, Patiala - PPCB",19-06-2026 14:00:00,30.349388,76.366642,CO,7,26,14
India,Rajasthan,Ajmer,"Civil Lines,  Ajmer - RSPCB",19-06-2026 14:00:00,26.470859,74.646594,PM2.5,32,87,55
India,Rajasthan,Ajmer,"Civil Lines,  Ajmer - RSPCB",19-06-2026 14:00:00,26.470859,74.646594,SO2,10,26,20
India,Rajasthan,Alwar,"Moti Doongri, Alwar - RSPCB",19-06-2026 14:00:00,27.554793,76.611536,SO2,NA,NA,NA
India,Rajasthan,Banswara,"Rati Talai, Banswara - RSPCB",19-06-2026 14:00:00,23.555190,74.440010,PM2.5,NA,NA,NA
India,Rajasthan,Banswara,"Rati Talai, Banswara - RSPCB",19-06-2026 14:00:00,23.555190,74.440010,NO2,NA,NA,NA
India,Rajasthan,Banswara,"Rati Talai, Banswara - RSPCB",19-06-2026 14:00:00,23.555190,74.440010,OZONE,13,42,19
India,Rajasthan,Baran,"Bamboliya, Baran - RSPCB",19-06-2026 14:00:00,25.106006,76.469948,PM10,33,94,57
India,Rajasthan,Baran,"Bamboliya, Baran - RSPCB",19-06-2026 14:00:00,25.106006,76.469948,NO2,12,51,36
India,Rajasthan,Barmer,"Railway Colony, Barmer - RSPCB",19-06-2026 14:00:00,25.747299,71.393989,CO,6,22,10
India,Rajasthan,Bharatpur,"Krishna Nagar, Bharatpur - RSPCB",19-06-2026 14:00:00,27.215415,77.50873,CO,12,26,16
India,Rajasthan,Bhiwadi,"RIICO Ind. Area III, Bhiwadi - RSPCB",19-06-2026 14:00:00,28.194909,76.862296,CO,4,42,26
India,Rajasthan,Bundi,"New Colony, Bundi - RSPCB",19-06-2026 14:00:00,25.435774,75.644272,SO2,4,6,5
India,Rajasthan,Chittorgarh,"Shastri Nagar, Chittorgarh - RSPCB",19-06-2026 14:00:00,24.892047,74.623527,NO2,5,28,12
India,Rajasthan,Churu,"Subash Chowk, Churu - RSPCB",19-06-2026 14:00:00,28.296139,74.961696,NO2,2,16,6
India,Rajasthan,Churu,"Subash Chowk, Churu - RSPCB",19-06-2026 14:00:00,28.296139,74.961696,NH3,6,10,7
India,Rajasthan,Churu,"Subash Chowk, Churu - RSPCB",19-06-2026 14:00:00,28.296139,74.961696,SO2,2,3,2
India,Rajasthan,Churu,"Subash Chowk, Churu - RSPCB",19-06-2026 14:00:00,28.296139,74.961696,CO,5,8,6
India,Rajasthan,Dausa,"Khatikan Mohalla, Dausa - RSPCB",19-06-2026 14:00:00,26.895552,76.334753,NH3,9,13,11
India,Rajasthan,Dholpur,"Raja Ganj, Dholpur - RSPCB",19-06-2026 14:00:00,26.699557,77.898881,CO,17,39,26
India,Rajasthan,Hanumangarh,"Housing Board, Hanumangarh - RSPCB",19-06-2026 14:00:00,29.610750,74.283608,NH3,4,15,9
India,Rajasthan,Jaipur,"Adarsh Nagar, Jaipur - RSPCB",19-06-2026 14:00:00,26.902909,75.836858,PM2.5,33,104,67
India,Rajasthan,Jaipur,"Adarsh Nagar, Jaipur - RSPCB",19-06-2026 14:00:00,26.902909,75.836858,PM10,42,113,67
India,Rajasthan,Jaipur,"Adarsh Nagar, Jaipur - RSPCB",19-06-2026 14:00:00,26.902909,75.836858,OZONE,34,66,57
India,Rajasthan,Jaipur,"Mansarovar Sector-12, Jaipur - RSPCB",19-06-2026 14:00:00,26.843698,75.766894,PM10,21,195,71
India,Rajasthan,Jaipur,"Police Commissionerate, Jaipur - RSPCB",19-06-2026 14:00:00,26.9164092,75.7994901,PM10,16,142,60
India,Rajasthan,Jaipur,"Police Commissionerate, Jaipur - RSPCB",19-06-2026 14:00:00,26.9164092,75.7994901,SO2,18,37,24
India,Rajasthan,Jaipur,"Police Commissionerate, Jaipur - RSPCB",19-06-2026 14:00:00,26.9164092,75.7994901,CO,32,71,66
India,Rajasthan,Jaipur,"RIICO Sitapura, Jaipur - RSPCB",19-06-2026 14:00:00,26.786682,75.827928,PM2.5,3,63,35
India,Rajasthan,Jaipur,"RIICO Sitapura, Jaipur - RSPCB",19-06-2026 14:00:00,26.786682,75.827928,PM10,22,246,71
India,Rajasthan,Jaipur,"RIICO Sitapura, Jaipur - RSPCB",19-06-2026 14:00:00,26.786682,75.827928,OZONE,34,72,54
India,Rajasthan,Jaipur,"Sector-2 Murlipura, Jaipur - RSPCB",19-06-2026 14:00:00,26.960669,75.771817,SO2,NA,NA,NA
India,Rajasthan,Jaisalmer,"Sadar Bazar, Jaisalmer - RSPCB",19-06-2026 14:00:00,26.912329,70.909168,PM2.5,17,370,54
India,Rajasthan,Jaisalmer,"Sadar Bazar, Jaisalmer - RSPCB",19-06-2026 14:00:00,26.912329,70.909168,SO2,2,7,5
India,Rajasthan,Jalore,"Mudtra Sili, Jalore - RSPCB",19-06-2026 14:00:00,25.344694,72.626208,CO,9,26,17
India,Rajasthan,Jhunjhunu,"Indra Nagar, Jhunjhunu - RSPCB",19-06-2026 14:00:00,28.108988,75.386577,PM2.5,5,35,17
India,Rajasthan,Jodhpur,"Collectorate, Jodhpur - RSPCB",19-06-2026 14:00:00,26.268249,73.0193853,PM10,24,187,90
India,Rajasthan,Jodhpur,"Digari Kalan, Jodhpur - RSPCB",19-06-2026 14:00:00,26.295810,73.082283,SO2,4,7,5
India,Rajasthan,Jodhpur,"Jhalamand, Jodhpur - RSPCB",19-06-2026 14:00:00,26.215415,73.070156,PM10,57,472,112
India,Rajasthan,Jodhpur,"Mandor, Jodhpur - RSPCB",19-06-2026 14:00:00,26.358805,73.047444,NO2,2,13,5
India,Rajasthan,Jodhpur,"Mandor, Jodhpur - RSPCB",19-06-2026 14:00:00,26.358805,73.047444,SO2,1,3,2
India,Rajasthan,Jodhpur,"Mandor, Jodhpur - RSPCB",19-06-2026 14:00:00,26.358805,73.047444,OZONE,36,74,52
India,Rajasthan,Jodhpur,"Samrat Ashok Udhyan, Jodhpur - RSPCB",19-06-2026 14:00:00,26.253384,72.976571,PM10,65,500,120
India,Rajasthan,Jodhpur,"Samrat Ashok Udhyan, Jodhpur - RSPCB",19-06-2026 14:00:00,26.253384,72.976571,SO2,2,6,3
India,Rajasthan,Khairthal,"New Anaj Mandi, Khairthal - RSPCB",19-06-2026 14:00:00,27.8015617,76.6365217,PM2.5,23,131,57
India,Rajasthan,Kota,"Dhanmandi, Kota - RSPCB",19-06-2026 14:00:00,25.164090,75.858137,OZONE,18,64,31
India,Rajasthan,Kota,"Nayapura, Kota - RSPCB",19-06-2026 14:00:00,25.196024,75.855668,CO,10,36,19
India,Rajasthan,Kota,"Shrinath Puram, Kota - RSPCB",19-06-2026 14:00:00,25.14389,75.821256,PM10,51,79,65
India,Sikkim,Gangtok,"Zero Point GICI, Gangtok - SSPCB",19-06-2026 14:00:00,27.338530,88.614099,PM10,7,35,20
India,TamilNadu,Chennai,"Kodungaiyur, Chennai - TNPCB",19-06-2026 14:00:00,13.1278,80.2642,PM2.5,26,79,49
India,TamilNadu,Chennai,"Kodungaiyur, Chennai - TNPCB",19-06-2026 14:00:00,13.1278,80.2642,OZONE,28,35,31
India,TamilNadu,Chennai,"Manali, Chennai - CPCB",19-06-2026 14:00:00,13.164544,80.26285,PM10,NA,NA,NA
India,TamilNadu,Chennai,"Manali, Chennai - CPCB",19-06-2026 14:00:00,13.164544,80.26285,NH3,6,7,6
India,TamilNadu,Chennai,"Manali, Chennai - CPCB",19-06-2026 14:00:00,13.164544,80.26285,CO,12,123,64
India,TamilNadu,Chennai,"Royapuram, Chennai - TNPCB",19-06-2026 14:00:00,13.1036,80.2909,NH3,4,4,4
India,TamilNadu,Chennai,"Velachery Res. Area, Chennai - CPCB",19-06-2026 14:00:00,13.0052189,80.2398125,PM2.5,57,57,57
India,TamilNadu,Coimbatore,"SIDCO Kurichi, Coimbatore - TNPCB",19-06-2026 14:00:00,10.942451,76.978996,NH3,1,1,1
India,Uttar_Pradesh,Ghaziabad,"Indirapuram, Ghaziabad - UPPCB",19-06-2026 14:00:00,28.646233,77.358075,SO2,11,19,17
India,Uttar_Pradesh,Ghaziabad,"Loni, Ghaziabad - UPPCB",19-06-2026 14:00:00,28.757294,77.278792,PM10,104,359,174
India,Uttar_Pradesh,Ghaziabad,"Loni, Ghaziabad - UPPCB",19-06-2026 14:00:00,28.757294,77.278792,SO2,8,30,17
India,Uttar_Pradesh,Ghaziabad,"Loni, Ghaziabad - UPPCB",19-06-2026 14:00:00,28.757294,77.278792,CO,12,47,27
India,Uttar_Pradesh,Ghaziabad,"Sanjay Nagar, Ghaziabad - UPPCB",19-06-2026 14:00:00,28.685382,77.453839,NH3,10,13,11
India,Uttar_Pradesh,Ghaziabad,"Sanjay Nagar, Ghaziabad - UPPCB",19-06-2026 14:00:00,28.685382,77.453839,CO,20,45,38
India,Uttar_Pradesh,Ghaziabad,"Sanjay Nagar, Ghaziabad - UPPCB",19-06-2026 14:00:00,28.685382,77.453839,OZONE,45,212,110
India,Uttar_Pradesh,Ghaziabad,"Vasundhara, Ghaziabad - UPPCB",19-06-2026 14:00:00,28.6603346,77.3572563,NO2,20,50,35
India,Uttar_Pradesh,Ghaziabad,"Vasundhara, Ghaziabad - UPPCB",19-06-2026 14:00:00,28.6603346,77.3572563,NH3,7,13,9
India,Uttar_Pradesh,Ghaziabad,"Vasundhara, Ghaziabad - UPPCB",19-06-2026 14:00:00,28.6603346,77.3572563,SO2,5,65,20
India,Uttar_Pradesh,Ghaziabad,"Vasundhara, Ghaziabad - UPPCB",19-06-2026 14:00:00,28.6603346,77.3572563,CO,44,88,54
India,Uttar_Pradesh,Ghaziabad,"Ved Vihar-Loni, Ghaziabad - UPPCB",19-06-2026 14:00:00,28.739153,77.273668,PM2.5,63,362,187
India,Uttar_Pradesh,Ghaziabad,"Ved Vihar-Loni, Ghaziabad - UPPCB",19-06-2026 14:00:00,28.739153,77.273668,NO2,18,31,25
India,Uttar_Pradesh,Gorakhpur,"Madan Mohan Malaviya University of Technology, Gorakhpur - UPPCB",19-06-2026 14:00:00,26.730136,83.433859,NO2,11,12,11
India,Uttar_Pradesh,Gorakhpur,"Madan Mohan Malaviya University of Technology, Gorakhpur - UPPCB",19-06-2026 14:00:00,26.730136,83.433859,OZONE,8,17,12
India,Uttar_Pradesh,Greater Noida,"Knowledge Park - III, Greater Noida - UPPCB",19-06-2026 14:00:00,28.47272,77.482000,PM2.5,NA,NA,NA
India,Uttar_Pradesh,Greater Noida,"Knowledge Park - III, Greater Noida - UPPCB",19-06-2026 14:00:00,28.47272,77.482000,NH3,5,6,5
India,Uttar_Pradesh,Greater Noida,"Knowledge Park - III, Greater Noida - UPPCB",19-06-2026 14:00:00,28.47272,77.482000,OZONE,11,126,78
India,Uttar_Pradesh,Greater Noida,"Knowledge Park - V, Greater Noida - UPPCB",19-06-2026 14:00:00,28.557054,77.453663,PM10,101,266,169
India,Uttar_Pradesh,Greater Noida,"Knowledge Park - V, Greater Noida - UPPCB",19-06-2026 14:00:00,28.557054,77.453663,SO2,4,15,11
India,Uttar_Pradesh,Greater Noida,"Knowledge Park - V, Greater Noida - UPPCB",19-06-2026 14:00:00,28.557054,77.453663,CO,24,52,49
India,Uttar_Pradesh,Hapur,"Anand Vihar, Hapur - UPPCB",19-06-2026 14:00:00,28.725645,77.749675,SO2,25,52,34
India,Uttar_Pradesh,Jhansi,"Shivaji Nagar, Jhansi - UPPCB",19-06-2026 14:00:00,25.4547,78.6039,PM2.5,15,31,23
India,Telangana,Hyderabad,"Kokapet, Hyderabad - TSPCB",19-06-2026 14:00:00,17.393559,78.339194,CO,16,38,22
India,Telangana,Hyderabad,"Kokapet, Hyderabad - TSPCB",19-06-2026 14:00:00,17.393559,78.339194,OZONE,15,30,20
India,Telangana,Hyderabad,"Kompally Municipal Office, Hyderabad - TSPCB",19-06-2026 14:00:00,17.544899,78.486949,NO2,15,16,15
India,Telangana,Hyderabad,"Kompally Municipal Office, Hyderabad - TSPCB",19-06-2026 14:00:00,17.544899,78.486949,NH3,2,2,2
India,Telangana,Hyderabad,"Nacharam_TSIIC IALA, Hyderabad - TSPCB",19-06-2026 14:00:00,17.429398,78.569354,PM10,NA,NA,NA
India,Telangana,Hyderabad,"New Malakpet, Hyderabad - TSPCB",19-06-2026 14:00:00,17.37206,78.50864,SO2,7,15,10
India,Telangana,Hyderabad,"Ramachandrapuram, Hyderabad - TSPCB",19-06-2026 14:00:00,17.528544,78.286195,PM10,71,89,76
India,Telangana,Hyderabad,"Sanathnagar, Hyderabad - TSPCB",19-06-2026 14:00:00,17.4559458,78.4332152,NO2,17,112,52
India,Telangana,Hyderabad,"Somajiguda, Hyderabad - TSPCB",19-06-2026 14:00:00,17.417094,78.457437,PM2.5,25,61,34
India,Telangana,Hyderabad,"Somajiguda, Hyderabad - TSPCB",19-06-2026 14:00:00,17.417094,78.457437,NH3,4,5,4
India,Telangana,Hyderabad,"Zoo Park, Hyderabad - TSPCB",19-06-2026 14:00:00,17.349694,78.451437,PM2.5,NA,NA,NA
India,Telangana,Hyderabad,"Zoo Park, Hyderabad - TSPCB",19-06-2026 14:00:00,17.349694,78.451437,PM10,NA,NA,NA
India,Telangana,Hyderabad,"Zoo Park, Hyderabad - TSPCB",19-06-2026 14:00:00,17.349694,78.451437,NO2,NA,NA,NA
India,Uttar_Pradesh,Agra,"Manoharpur, Agra - UPPCB",19-06-2026 14:00:00,27.23711,78.01936,NO2,27,39,31
India,Uttar_Pradesh,Agra,"Rohta, Agra - UPPCB",19-06-2026 14:00:00,27.106972,78.000111,PM10,60,166,98
India,Uttar_Pradesh,Agra,"Sanjay Palace, Agra - UPPCB",19-06-2026 14:00:00,27.19865833,78.00598056,PM10,59,200,104
India,Uttar_Pradesh,Agra,"Sanjay Palace, Agra - UPPCB",19-06-2026 14:00:00,27.19865833,78.00598056,SO2,18,21,20
India,Uttar_Pradesh,Agra,"Sanjay Palace, Agra - UPPCB",19-06-2026 14:00:00,27.19865833,78.00598056,CO,27,33,32
India,Uttar_Pradesh,Varanasi,"Maldahiya, Varanasi - UPPCB",19-06-2026 14:00:00,25.32393,82.99687,NO2,2,4,2
India,Uttarakhand,Dehradun,"Doon University, Dehradun - UKPCB",19-06-2026 14:00:00,30.269444,78.044167,OZONE,14,77,44
India,Uttarakhand,Kashipur,"Govt. Girls Inter College, Kashipur - UKPCB",19-06-2026 14:00:00,29.2124114,78.9611753,NO2,NA,NA,NA
India,Uttarakhand,Kashipur,"Govt. Girls Inter College, Kashipur - UKPCB",19-06-2026 14:00:00,29.2124114,78.9611753,SO2,NA,NA,NA
India,West_Bengal,Asansol,"Asansol Court Area, Asansol - WBPCB",19-06-2026 14:00:00,23.685297,86.945968,NO2,27,37,32
India,West_Bengal,Asansol,"Asansol Court Area, Asansol - WBPCB",19-06-2026 14:00:00,23.685297,86.945968,SO2,11,20,14
India,West_Bengal,Asansol,"Evelyn Lodge, Asansol - WBPCB",19-06-2026 14:00:00,23.6979360,86.9443950,OZONE,13,57,18
India,West_Bengal,Asansol,"Mahabir Colliery, Asansol - WBPCB",19-06-2026 14:00:00,23.6181830,87.1057180,NO2,NA,NA,NA
India,West_Bengal,Asansol,"Trivenidevi Bhalotia College, Asansol - WBPCB",19-06-2026 14:00:00,23.616515,87.119133,PM2.5,1,52,31
India,West_Bengal,Asansol,"Trivenidevi Bhalotia College, Asansol - WBPCB",19-06-2026 14:00:00,23.616515,87.119133,CO,22,54,31
India,West_Bengal,Asansol,"Trivenidevi Bhalotia College, Asansol - WBPCB",19-06-2026 14:00:00,23.616515,87.119133,OZONE,7,27,11
India,West_Bengal,Barrackpore,"SVSPA Campus, Barrackpore - WBPCB",19-06-2026 14:00:00,22.7605581,88.3617589,NO2,13,31,22
India,West_Bengal,Durgapur,"Mahishkapur Road_B-Zone, Durgapur - WBPCB",19-06-2026 14:00:00,23.567923,87.306843,PM2.5,7,45,21
India,Uttar_Pradesh,Kanpur,"FTI Kidwai Nagar, Kanpur - UPPCB",19-06-2026 14:00:00,26.428282,80.327067,OZONE,13,13,13
India,Uttar_Pradesh,Kanpur,"NSI Kalyanpur, Kanpur - UPPCB",19-06-2026 14:00:00,26.509954,80.249612,PM10,51,133,99
India,Uttar_Pradesh,Kanpur,"NSI Kalyanpur, Kanpur - UPPCB",19-06-2026 14:00:00,26.509954,80.249612,SO2,21,28,24
India,Uttar_Pradesh,Khora,"Prashant Garden, Khora - UPPCB",19-06-2026 14:00:00,28.61119,77.34206,OZONE,24,273,131
India,Uttar_Pradesh,Khurja,"Kalindi Kunj, Khurja - UPPCB",19-06-2026 14:00:00,28.2348927,77.8683002,OZONE,21,22,21
India,Uttar_Pradesh,Lucknow,"B R Ambedkar University, Lucknow - UPPCB",19-06-2026 14:00:00,26.766433,80.927299,NO2,11,12,12
India,Uttar_Pradesh,Lucknow,"B R Ambedkar University, Lucknow - UPPCB",19-06-2026 14:00:00,26.766433,80.927299,NH3,3,4,3
India,Uttar_Pradesh,Lucknow,"Gomti Nagar, Lucknow - UPPCB",19-06-2026 14:00:00,26.868120,81.005119,PM2.5,80,183,118
India,Uttar_Pradesh,Lucknow,"Gomti Nagar, Lucknow - UPPCB",19-06-2026 14:00:00,26.868120,81.005119,OZONE,44,53,51
India,Uttar_Pradesh,Lucknow,"Kendriya Vidyalaya, Lucknow - CPCB",19-06-2026 14:00:00,26.906111,80.948222,SO2,7,15,11
India,Uttar_Pradesh,Lucknow,"Kukrail Picnic Spot-1, Lucknow - UPPCB",19-06-2026 14:00:00,26.90723,80.98579,PM10,NA,NA,NA
India,Uttar_Pradesh,Lucknow,"Kukrail Picnic Spot-1, Lucknow - UPPCB",19-06-2026 14:00:00,26.90723,80.98579,NH3,NA,NA,NA
India,Uttar_Pradesh,Lucknow,"Kukrail Picnic Spot-1, Lucknow - UPPCB",19-06-2026 14:00:00,26.90723,80.98579,SO2,NA,NA,NA
India,Uttar_Pradesh,Agra,"Shahjahan Garden, Agra - UPPCB",19-06-2026 14:00:00,27.169338,78.03582,NH3,1,1,1
India,Uttar_Pradesh,Agra,"Shahjahan Garden, Agra - UPPCB",19-06-2026 14:00:00,27.169338,78.03582,CO,20,20,20
India,Uttar_Pradesh,Agra,"Shastripuram, Agra - UPPCB",19-06-2026 14:00:00,27.19862,77.92066,PM2.5,28,97,42
India,Uttar_Pradesh,Agra,"Shastripuram, Agra - UPPCB",19-06-2026 14:00:00,27.19862,77.92066,OZONE,13,43,31
India,Uttar_Pradesh,Baghpat,"Sardar Patel Inter College, Baghpat - UPPCB",19-06-2026 14:00:00,28.964949,77.278761,SO2,11,33,21
India,Uttar_Pradesh,Baghpat,"Sardar Patel Inter College, Baghpat - UPPCB",19-06-2026 14:00:00,28.964949,77.278761,CO,16,53,37
India,Uttar_Pradesh,Bulandshahr,"Yamunapuram, Bulandshahr - UPPCB",19-06-2026 14:00:00,28.406963,77.849831,PM2.5,31,88,66
India,Uttar_Pradesh,Bulandshahr,"Yamunapuram, Bulandshahr - UPPCB",19-06-2026 14:00:00,28.406963,77.849831,NO2,7,56,26
India,Uttar_Pradesh,Bulandshahr,"Yamunapuram, Bulandshahr - UPPCB",19-06-2026 14:00:00,28.406963,77.849831,NH3,7,14,10
India,Uttar_Pradesh,Firozabad,"Nagla Bhau, Firozabad - UPPCB",19-06-2026 14:00:00,27.168897,78.376960,SO2,15,48,25
India,Uttar_Pradesh,Firozabad,"Nagla Bhau, Firozabad - UPPCB",19-06-2026 14:00:00,27.168897,78.376960,OZONE,6,18,10
India,Uttar_Pradesh,Ghaziabad,"Govindpuram, Ghaziabad - UPPCB",19-06-2026 14:00:00,28.694528 ,77.494705 ,SO2,10,34,18
India,Uttar_Pradesh,Ghaziabad,"Indirapuram, Ghaziabad - UPPCB",19-06-2026 14:00:00,28.646233,77.358075,PM2.5,20,84,48
India,Uttar_Pradesh,Ghaziabad,"Indirapuram, Ghaziabad - UPPCB",19-06-2026 14:00:00,28.646233,77.358075,NO2,8,37,22
India,Uttar_Pradesh,Prayagraj,"Jhunsi, Prayagraj - UPPCB",19-06-2026 14:00:00,25.425602,81.917152,CO,7,22,9
India,Uttar_Pradesh,Prayagraj,"Jhunsi, Prayagraj - UPPCB",19-06-2026 14:00:00,25.425602,81.917152,OZONE,27,78,42
India,Uttar_Pradesh,Prayagraj,"Motilal Nehru NIT, Prayagraj - UPPCB",19-06-2026 14:00:00,25.494,81.863,NH3,8,8,8
India,Uttar_Pradesh,Prayagraj,"Nagar Nigam, Prayagraj - UPPCB",19-06-2026 14:00:00,25.44919916 ,81.82735986 ,NH3,4,8,6
India,Uttar_Pradesh,Prayagraj,"Nagar Nigam, Prayagraj - UPPCB",19-06-2026 14:00:00,25.44919916 ,81.82735986 ,CO,12,44,12
India,Uttar_Pradesh,Raebareli," Indira Nagar, Raebareli - NTPC Unchahar",19-06-2026 14:00:00,26.207781,81.245571,NO2,15,24,19
India,Uttar_Pradesh,Raebareli," Indira Nagar, Raebareli - NTPC Unchahar",19-06-2026 14:00:00,26.207781,81.245571,SO2,11,14,13
India,Uttar_Pradesh,Varanasi,"Ardhali Bazar, Varanasi - UPPCB",19-06-2026 14:00:00,25.3505986,82.9083074,PM2.5,24,96,62
India,Uttar_Pradesh,Varanasi,"Bhelupur, Varanasi - UPPCB",19-06-2026 14:00:00,25.301778,82.996789,PM2.5,15,49,31
India,Uttar_Pradesh,Varanasi,"IESD Banaras Hindu University, Varanasi - UPPCB",19-06-2026 14:00:00,25.262326,82.995408,PM10,31,103,64
India,Uttar_Pradesh,Varanasi,"IESD Banaras Hindu University, Varanasi - UPPCB",19-06-2026 14:00:00,25.262326,82.995408,OZONE,1,7,4
India,Uttar_Pradesh,Varanasi,"Maldahiya, Varanasi - UPPCB",19-06-2026 14:00:00,25.32393,82.99687,PM2.5,34,78,51
India,TamilNadu,Madurai,"Uchapatti, Madurai - TNPCB",19-06-2026 14:00:00,9.865935,78.022669,SO2,54,59,57
India,TamilNadu,Thoothukudi,"Meelavittan, Thoothukudi - TNPCB",19-06-2026 14:00:00,8.816428 ,78.099039,SO2,7,15,11
India,TamilNadu,Thoothukudi,"Meelavittan, Thoothukudi - TNPCB",19-06-2026 14:00:00,8.816428 ,78.099039,OZONE,26,36,30
India,Telangana,Hyderabad,"ICRISAT Patancheru, Hyderabad - TSPCB",19-06-2026 14:00:00,17.518400,78.278777,PM10,22,131,52
India,Telangana,Hyderabad,"IDA Pashamylaram, Hyderabad - TSPCB",19-06-2026 14:00:00,17.5316895,78.218939,NO2,10,49,27
India,Telangana,Hyderabad,"IITH Kandi, Hyderabad - TSPCB",19-06-2026 14:00:00,17.585705,78.126199,PM2.5,39,67,51
India,Telangana,Hyderabad,"IITH Kandi, Hyderabad - TSPCB",19-06-2026 14:00:00,17.585705,78.126199,NH3,4,7,5
India,Telangana,Hyderabad,"IITH Kandi, Hyderabad - TSPCB",19-06-2026 14:00:00,17.585705,78.126199,CO,24,36,30
India,Uttar_Pradesh,Lucknow,"Lalbagh, Lucknow - CPCB",19-06-2026 14:00:00,26.8458805,80.9365541,PM10,83,120,100
India,Uttar_Pradesh,Lucknow,"Lalbagh, Lucknow - CPCB",19-06-2026 14:00:00,26.8458805,80.9365541,CO,26,108,60
India,Uttar_Pradesh,Lucknow,"Talkatora District Industries Center, Lucknow - CPCB",19-06-2026 14:00:00,26.83399722,80.8917361,CO,27,102,44
India,Uttar_Pradesh,Meerut,"MIET College, Meerut - UPPCB",19-06-2026 14:00:00,28.972677 ,77.641018 ,NO2,19,27,23
India,Uttar_Pradesh,Meerut,"Pallavpuram Phase 2, Meerut - UPPCB",19-06-2026 14:00:00,29.063510,77.709723,PM10,86,175,129
India,Uttar_Pradesh,Modinagar,"SRM University, Modinagar - UPPCB",19-06-2026 14:00:00,28.798171,77.540243,PM10,76,144,113
India,Uttar_Pradesh,Modinagar,"SRM University, Modinagar - UPPCB",19-06-2026 14:00:00,28.798171,77.540243,SO2,15,36,24
India,Uttar_Pradesh,Muzaffarnagar,"New Mandi, Muzaffarnagar - UPPCB",19-06-2026 14:00:00,29.4723508,77.7194031,PM2.5,43,122,69
India,Uttar_Pradesh,Muzaffarnagar,"New Mandi, Muzaffarnagar - UPPCB",19-06-2026 14:00:00,29.4723508,77.7194031,NH3,2,3,2
India,Uttar_Pradesh,Noida,"Sector - 125, Noida - UPPCB",19-06-2026 14:00:00,28.5447608,77.3231257,PM10,80,174,124
India,West_Bengal,Durgapur,"Womens College_City Center, Durgapur - WBPCB",19-06-2026 14:00:00,23.549395,87.300496,CO,17,44,29
India,West_Bengal,Haldia,"Priyambada Housing Estate, Haldia - WBPCB",19-06-2026 14:00:00,22.06047,88.109737,PM2.5,10,43,18
India,West_Bengal,Haldia,"Priyambada Housing Estate, Haldia - WBPCB",19-06-2026 14:00:00,22.06047,88.109737,SO2,5,13,8
India,West_Bengal,Howrah,"Belur Math, Howrah - WBPCB",19-06-2026 14:00:00,22.629801,88.352017,PM2.5,27,114,46
India,West_Bengal,Howrah,"Belur Math, Howrah - WBPCB",19-06-2026 14:00:00,22.629801,88.352017,NO2,22,98,48
India,West_Bengal,Howrah,"Belur Math, Howrah - WBPCB",19-06-2026 14:00:00,22.629801,88.352017,NH3,4,9,5
India,West_Bengal,Howrah,"Botanical Garden, Howrah - WBPCB",19-06-2026 14:00:00,22.554954,88.292568,SO2,3,6,5
India,West_Bengal,Howrah,"Ghusuri, Howrah - WBPCB",19-06-2026 14:00:00,22.611968,88.347422,NO2,9,47,25
India,West_Bengal,Howrah,"Ghusuri, Howrah - WBPCB",19-06-2026 14:00:00,22.611968,88.347422,NH3,3,6,4
India,West_Bengal,Kolkata,"Ballygunge, Kolkata - WBPCB",19-06-2026 14:00:00,22.5367507,88.3638022,NH3,6,8,7
India,West_Bengal,Kolkata,"Bidhannagar, Kolkata - WBPCB",19-06-2026 14:00:00,22.58157048,88.41002457,PM10,34,71,47
India,West_Bengal,Kolkata,"Bidhannagar, Kolkata - WBPCB",19-06-2026 14:00:00,22.58157048,88.41002457,NH3,5,6,6
India,West_Bengal,Kolkata,"Bidhannagar, Kolkata - WBPCB",19-06-2026 14:00:00,22.58157048,88.41002457,OZONE,18,48,25
India,West_Bengal,Kolkata,"Rabindra Bharati University, Kolkata - WBPCB",19-06-2026 14:00:00,22.627847,88.380669,NH3,6,7,6
India,West_Bengal,Kolkata,"Rabindra Sarobar, Kolkata - WBPCB",19-06-2026 14:00:00,22.51106,88.35142,PM10,16,55,35
India,West_Bengal,Kolkata,"Rabindra Sarobar, Kolkata - WBPCB",19-06-2026 14:00:00,22.51106,88.35142,NH3,6,14,8
India,Andhra_Pradesh,Visakhapatnam,"GVM Corporation, Visakhapatnam - APPCB",19-06-2026 14:00:00,17.72,83.3,PM10,71,263,135
India,Arunachal_Pradesh,Naharlagun,"Naharlagun, Naharlagun - APSPCB",19-06-2026 14:00:00,27.103358,93.679645,PM10,34,73,49
India,Arunachal_Pradesh,Naharlagun,"Naharlagun, Naharlagun - APSPCB",19-06-2026 14:00:00,27.103358,93.679645,NH3,NA,NA,NA
India,Arunachal_Pradesh,Naharlagun,"Naharlagun, Naharlagun - APSPCB",19-06-2026 14:00:00,27.103358,93.679645,SO2,NA,NA,NA
India,Arunachal_Pradesh,Naharlagun,"Naharlagun, Naharlagun - APSPCB",19-06-2026 14:00:00,27.103358,93.679645,CO,5,24,10
India,Arunachal_Pradesh,Naharlagun,"Naharlagun, Naharlagun - APSPCB",19-06-2026 14:00:00,27.103358,93.679645,OZONE,5,6,6
India,Assam,Byrnihat,"Central Academy for SFS, Byrnihat - PCBA",19-06-2026 14:00:00,26.071318,91.87488,NO2,5,9,7
India,Assam,Byrnihat,"Central Academy for SFS, Byrnihat - PCBA",19-06-2026 14:00:00,26.071318,91.87488,OZONE,19,52,31
India,Assam,Guwahati,"IITG, Guwahati - PCBA",19-06-2026 14:00:00,26.2028636,91.70046436,PM10,16,55,32
India,Assam,Guwahati,"IITG, Guwahati - PCBA",19-06-2026 14:00:00,26.2028636,91.70046436,CO,4,11,6
India,Assam,Guwahati,"IITG, Guwahati - PCBA",19-06-2026 14:00:00,26.2028636,91.70046436,OZONE,1,35,22
India,Assam,Guwahati,"LGBI Airport, Guwahati - PCBA",19-06-2026 14:00:00,26.10887,91.589544,PM2.5,15,55,30
India,Assam,Guwahati,"Pan Bazaar, Guwahati - PCBA",19-06-2026 14:00:00,26.187500,91.744194,NH3,1,1,1
India,Assam,Guwahati,"Pan Bazaar, Guwahati - PCBA",19-06-2026 14:00:00,26.187500,91.744194,OZONE,11,27,21
India,Assam,Guwahati,"Railway Colony, Guwahati - PCBA",19-06-2026 14:00:00,26.181742,91.78063,PM2.5,35,87,54
India,Assam,Nagaon,"Christianpatty, Nagaon - PCBA",19-06-2026 14:00:00,26.349082,92.68449,NO2,1,2,1
India,Assam,Nagaon,"Christianpatty, Nagaon - PCBA",19-06-2026 14:00:00,26.349082,92.68449,NH3,1,1,1
India,Assam,Nalbari,"Bata Chowk, Nalbari - PCBA",19-06-2026 14:00:00,26.446912,91.439057,PM2.5,19,86,32
India,Bihar,Samastipur,"DM Office_Kasipur, Samastipur - BSPCB",19-06-2026 14:00:00,25.859655,85.77944,OZONE,7,10,8
India,Bihar,Siwan,"Chitragupta Nagar, Siwan - BSPCB",19-06-2026 14:00:00,26.2271665,84.3570427,PM10,12,157,70
India,Chandigarh,Chandigarh,"Sector 22, Chandigarh - CPCC",19-06-2026 14:00:00,30.735567,76.775714,PM10,31,108,68
India,Chandigarh,Chandigarh,"Sector 22, Chandigarh - CPCC",19-06-2026 14:00:00,30.735567,76.775714,OZONE,22,85,44
India,Chandigarh,Chandigarh,"Sector-25, Chandigarh - CPCC",19-06-2026 14:00:00,30.751462,76.762879,NO2,4,40,12
India,Chandigarh,Chandigarh,"Sector-53, Chandigarh - CPCC",19-06-2026 14:00:00,30.719859,76.738637,PM10,20,88,46
India,Chandigarh,Chandigarh,"Sector-53, Chandigarh - CPCC",19-06-2026 14:00:00,30.719859,76.738637,NO2,1,33,8
India,Chhattisgarh,Bhilai,"32Bungalows, Bhilai - CECB",19-06-2026 14:00:00,21.194815,81.314770,NH3,3,4,3
India,Chhattisgarh,Bhilai,"32Bungalows, Bhilai - CECB",19-06-2026 14:00:00,21.194815,81.314770,SO2,2,8,5
India,Chhattisgarh,Bhilai,"32Bungalows, Bhilai - CECB",19-06-2026 14:00:00,21.194815,81.314770,CO,4,88,12
India,Chhattisgarh,Bhilai,"Civic Center, Bhilai - Bhilai Steel Plant",19-06-2026 14:00:00,21.185571,81.343175,OZONE,11,16,11
India,Chhattisgarh,Bhilai,"Hathkhoj, Bhilai - CECB",19-06-2026 14:00:00,21.224231,81.408350,OZONE,6,21,14
India,Chhattisgarh,Bilaspur,"Mangala, Bilaspur - NTPC",19-06-2026 14:00:00,22.08815,82.13737,PM10,32,90,53
India,Chhattisgarh,Bilaspur,"Mangala, Bilaspur - NTPC",19-06-2026 14:00:00,22.08815,82.13737,CO,4,52,41
India,Chhattisgarh,Chhal,"Nawapara SECL Colony, Chhal - CECB",19-06-2026 14:00:00,22.118125,83.140608,PM2.5,NA,NA,NA
India,Assam,Nalbari,"Bata Chowk, Nalbari - PCBA",19-06-2026 14:00:00,26.446912,91.439057,SO2,8,8,8
India,Assam,Nalbari,"Bata Chowk, Nalbari - PCBA",19-06-2026 14:00:00,26.446912,91.439057,CO,20,22,21
India,Assam,Nalbari,"Bata Chowk, Nalbari - PCBA",19-06-2026 14:00:00,26.446912,91.439057,OZONE,19,19,19
India,Assam,Sivasagar,"Girls College, Sivasagar - PCBA",19-06-2026 14:00:00,26.987634,94.636574,OZONE,21,75,59
India,Bihar,Araria,"Kharahiya Basti, Araria - BSPCB",19-06-2026 14:00:00,26.146529,87.454184,SO2,33,59,45
India,Bihar,Arrah,"New DM Office, Arrah - BSPCB",19-06-2026 14:00:00,25.5626095,84.663264,OZONE,6,27,8
India,Bihar,Aurangabad,"Gurdeo Nagar, Aurangabad - BSPCB",19-06-2026 14:00:00,24.75746,84.366208,PM2.5,NA,NA,NA
India,Bihar,Aurangabad,"Gurdeo Nagar, Aurangabad - BSPCB",19-06-2026 14:00:00,24.75746,84.366208,NH3,1,2,2
India,Bihar,Aurangabad,"Gurdeo Nagar, Aurangabad - BSPCB",19-06-2026 14:00:00,24.75746,84.366208,SO2,1,14,8
India,Bihar,Begusarai,"Lohiyanagar, Begusarai - BSPCB",19-06-2026 14:00:00,25.42742023,86.13886079,PM2.5,30,123,63
India,Bihar,Bettiah,"Kamalnath Nagar, Bettiah - BSPCB",19-06-2026 14:00:00,26.80365,84.51954,PM10,NA,NA,NA
India,Bihar,Bettiah,"Kamalnath Nagar, Bettiah - BSPCB",19-06-2026 14:00:00,26.80365,84.51954,SO2,15,18,17
India,Bihar,Bhagalpur,"DM Office_Kachari Chowk, Bhagalpur - BSPCB",19-06-2026 14:00:00,25.251013,86.989001,CO,12,37,24
India,Bihar,Bhagalpur,"Mayaganj, Bhagalpur - BSPCB",19-06-2026 14:00:00,25.265194,87.012947,PM2.5,13,103,42
India,Chhattisgarh,Chhal,"Nawapara SECL Colony, Chhal - CECB",19-06-2026 14:00:00,22.118125,83.140608,CO,20,61,32
India,Chhattisgarh,Korba,"Urja Nagar, Korba - CECB",19-06-2026 14:00:00,22.348441,82.549611,PM10,NA,NA,NA
India,Chhattisgarh,Korba,"Urja Nagar, Korba - CECB",19-06-2026 14:00:00,22.348441,82.549611,CO,8,54,24
India,Chhattisgarh,Milupara,"Govt. Higher Secondary School, Milupara - CECB",19-06-2026 14:00:00,22.1910172,83.5197009,PM10,NA,NA,NA
India,Chhattisgarh,Milupara,"Govt. Higher Secondary School, Milupara - CECB",19-06-2026 14:00:00,22.1910172,83.5197009,NH3,NA,NA,NA
India,Chhattisgarh,Raipur,"AIIMS, Raipur - CECB",19-06-2026 14:00:00,21.258815,81.578979,NO2,4,11,7
India,Chhattisgarh,Raipur,"Bhatagaon New ISBT, Raipur - CECB",19-06-2026 14:00:00,21.219665,81.630094,NO2,3,15,8
India,Chhattisgarh,Raipur,"Krishak Nagar, Raipur - CECB",19-06-2026 14:00:00,21.237755,81.705301,PM2.5,20,34,25
India,Chhattisgarh,Raipur,"Krishak Nagar, Raipur - CECB",19-06-2026 14:00:00,21.237755,81.705301,NO2,1,8,3
India,Chhattisgarh,Raipur,"Krishak Nagar, Raipur - CECB",19-06-2026 14:00:00,21.237755,81.705301,NH3,2,2,2
India,Chhattisgarh,Raipur,"Krishak Nagar, Raipur - CECB",19-06-2026 14:00:00,21.237755,81.705301,SO2,4,9,6
India,Chhattisgarh,Raipur,"Siltara Phase-II, Raipur - CECB",19-06-2026 14:00:00,21.371751,81.664929,NO2,3,26,11
India,Chhattisgarh,Tumidih,"OP Jindal Industrial Park, Tumidih - CECB",19-06-2026 14:00:00,22.06631475,83.33820077,PM2.5,NA,NA,NA
India,Chhattisgarh,Tumidih,"OP Jindal Industrial Park, Tumidih - CECB",19-06-2026 14:00:00,22.06631475,83.33820077,NH3,NA,NA,NA
India,Chhattisgarh,Tumidih,"OP Jindal Industrial Park, Tumidih - CECB",19-06-2026 14:00:00,22.06631475,83.33820077,SO2,NA,NA,NA
India,Chhattisgarh,Tumidih,"OP Jindal Industrial Park, Tumidih - CECB",19-06-2026 14:00:00,22.06631475,83.33820077,OZONE,26,127,32
India,Bihar,Bihar Sharif,"D M Colony, Bihar Sharif - BSPCB",19-06-2026 14:00:00,25.204762,85.514960,PM2.5,27,63,38
India,Bihar,Bihar Sharif,"D M Colony, Bihar Sharif - BSPCB",19-06-2026 14:00:00,25.204762,85.514960,NH3,3,4,3
India,Bihar,Bihar Sharif,"D M Colony, Bihar Sharif - BSPCB",19-06-2026 14:00:00,25.204762,85.514960,OZONE,1,3,2
India,Bihar,Buxar,"Charitra Van, Buxar - BSPCB",19-06-2026 14:00:00,25.567520,83.966379,PM10,18,63,40
India,Bihar,Chhapra,"Darshan Nagar, Chhapra - BSPCB",19-06-2026 14:00:00,25.7808257,84.7446768,NH3,3,6,4
India,Bihar,Gaya,"Collectorate, Gaya - BSPCB",19-06-2026 14:00:00,24.7955,84.9994,CO,10,12,12
India,Bihar,Gaya,"Kareemganj, Gaya - BSPCB",19-06-2026 14:00:00,24.792403,84.992416,PM2.5,37,100,61
India,Bihar,Gaya,"Kareemganj, Gaya - BSPCB",19-06-2026 14:00:00,24.792403,84.992416,PM10,65,150,101
India,Bihar,Gaya,"Kareemganj, Gaya - BSPCB",19-06-2026 14:00:00,24.792403,84.992416,NH3,1,1,1
India,Bihar,Gaya,"Kareemganj, Gaya - BSPCB",19-06-2026 14:00:00,24.792403,84.992416,OZONE,52,129,78
India,Bihar,Gaya,"SFTI Kusdihra, Gaya - BSPCB",19-06-2026 14:00:00,24.762518,84.982348,PM2.5,33,100,51
India,Bihar,Gaya,"SFTI Kusdihra, Gaya - BSPCB",19-06-2026 14:00:00,24.762518,84.982348,PM10,34,87,58
India,Bihar,Gaya,"SFTI Kusdihra, Gaya - BSPCB",19-06-2026 14:00:00,24.762518,84.982348,NH3,4,4,4
India,Bihar,Hajipur,"Industrial Area, Hajipur - BSPCB",19-06-2026 14:00:00,25.697189,85.245900,NO2,8,23,13
India,Bihar,Katihar,"Mirchaibari, Katihar - BSPCB",19-06-2026 14:00:00,25.560083,87.553265,CO,66,95,75
India,Bihar,Kishanganj,"SDM Office_Khagra, Kishanganj - BSPCB",19-06-2026 14:00:00,26.0881305,87.93840336,PM2.5,42,305,77
India,Bihar,Kishanganj,"SDM Office_Khagra, Kishanganj - BSPCB",19-06-2026 14:00:00,26.0881305,87.93840336,PM10,49,152,71
India,Bihar,Manguraha,"Forest Rest House, Manguraha - BSPCB",19-06-2026 14:00:00,27.308328,84.531742,NH3,1,1,1
India,Bihar,Motihari,"Gandak Colony, Motihari - BSPCB",19-06-2026 14:00:00,26.63086,84.90051,PM10,NA,NA,NA
India,Bihar,Motihari,"Gandak Colony, Motihari - BSPCB",19-06-2026 14:00:00,26.63086,84.90051,NO2,2,3,3
India,Bihar,Munger,"Town Hall, Munger - BSPCB",19-06-2026 14:00:00,25.376776,86.471523,NH3,3,3,3
India,Bihar,Munger,"Town Hall, Munger - BSPCB",19-06-2026 14:00:00,25.376776,86.471523,SO2,41,47,44
India,Bihar,Munger,"Town Hall, Munger - BSPCB",19-06-2026 14:00:00,25.376776,86.471523,CO,14,24,19
India,Bihar,Muzaffarpur,"Buddha Colony, Muzaffarpur - BSPCB",19-06-2026 14:00:00,26.11442,85.39813,NO2,8,23,14
India,Bihar,Muzaffarpur,"Buddha Colony, Muzaffarpur - BSPCB",19-06-2026 14:00:00,26.11442,85.39813,SO2,6,20,10
India,Bihar,Patna,"DRM Office Danapur, Patna - BSPCB",19-06-2026 14:00:00,25.586562,85.043586,PM2.5,47,64,52
India,Andhra_Pradesh,Tirumala,"Toll Gate, Tirumala - APPCB",19-06-2026 14:00:00,13.67,79.35,NH3,2,3,3
India,Andhra_Pradesh,Tirumala,"Toll Gate, Tirumala - APPCB",19-06-2026 14:00:00,13.67,79.35,CO,18,32,24
India,Andhra_Pradesh,Vijayawada,"HB Colony, Vijayawada - APPCB",19-06-2026 14:00:00,16.536107,80.594233,PM2.5,41,73,50
India,Andhra_Pradesh,Vijayawada,"HB Colony, Vijayawada - APPCB",19-06-2026 14:00:00,16.536107,80.594233,CO,28,40,35
India,Andhra_Pradesh,Vijayawada,"Kanuru, Vijayawada - APPCB",19-06-2026 14:00:00,16.486692,80.699436,PM10,46,76,56
India,Andhra_Pradesh,Vijayawada,"Kanuru, Vijayawada - APPCB",19-06-2026 14:00:00,16.486692,80.699436,NH3,4,5,4
India,Andhra_Pradesh,Vijayawada,"Kanuru, Vijayawada - APPCB",19-06-2026 14:00:00,16.486692,80.699436,OZONE,22,61,29
India,Andhra_Pradesh,Vijayawada,"Rajiv Gandhi Park, Vijayawada - APPCB",19-06-2026 14:00:00,16.509717,80.612222,PM2.5,39,99,67
India,Andhra_Pradesh,Vijayawada,"Rajiv Nagar, Vijayawada - APPCB",19-06-2026 14:00:00,16.554731,80.649110,PM10,56,77,64
India,Andhra_Pradesh,Vijayawada,"Rajiv Nagar, Vijayawada - APPCB",19-06-2026 14:00:00,16.554731,80.649110,NH3,3,5,4
India,Andhra_Pradesh,Vijayawada,"Rajiv Nagar, Vijayawada - APPCB",19-06-2026 14:00:00,16.554731,80.649110,SO2,10,20,15
India,Bihar,Patna,"Govt. High School Shikarpur, Patna - BSPCB",19-06-2026 14:00:00,25.592539,85.227158,NH3,6,6,6
India,Bihar,Patna,"Muradpur, Patna - BSPCB",19-06-2026 14:00:00,25.619651,85.147382,NH3,4,5,5
India,Bihar,Patna,"Muradpur, Patna - BSPCB",19-06-2026 14:00:00,25.619651,85.147382,OZONE,4,93,39
India,Bihar,Patna,"Rajbansi Nagar, Patna - BSPCB",19-06-2026 14:00:00,25.599486,85.113666,CO,34,49,45
India,Bihar,Patna,"Samanpura, Patna - BSPCB",19-06-2026 14:00:00,25.596727,85.085624,SO2,4,6,5
India,Bihar,Patna,"Samanpura, Patna - BSPCB",19-06-2026 14:00:00,25.596727,85.085624,OZONE,18,23,20
India,Bihar,Purnia,"Mariam Nagar, Purnia - BSPCB",19-06-2026 14:00:00,25.366336,87.117468,CO,36,58,54
India,Bihar,Samastipur,"DM Office_Kasipur, Samastipur - BSPCB",19-06-2026 14:00:00,25.859655,85.77944,PM10,13,167,58
India,Andhra_Pradesh,Eluru,"District Court, Eluru - APPCB",19-06-2026 14:00:00,16.711754,81.092095,SO2,10,14,16
India,Andhra_Pradesh,Kadapa,"Yerramukkapalli, Kadapa - APPCB",19-06-2026 14:00:00,14.465052,78.824187,SO2,9,19,17
India,Andhra_Pradesh,Kadapa,"Yerramukkapalli, Kadapa - APPCB",19-06-2026 14:00:00,14.465052,78.824187,OZONE,45,52,47
India,Andhra_Pradesh,Machilipatnam,"Srinivas Nagar Colony, Machilipatnam - APPCB",19-06-2026 14:00:00,16.186555,81.13219,SO2,12,19,14
India,Andhra_Pradesh,Nellore,"Ambedkar Nagar, Nellore - APPCB ",19-06-2026 14:00:00,14.438164 ,79.966814 ,NH3,5,6,5
India,Andhra_Pradesh,Rajamahendravaram,"Anand Kala Kshetram, Rajamahendravaram - APPCB",19-06-2026 14:00:00,16.9872867,81.7363176,PM2.5,25,144,54
India,Andhra_Pradesh,Amaravati,"Secretariat, Amaravati - APPCB",19-06-2026 14:00:00,16.5150833,80.5181667,NO2,12,57,24
India,Andhra_Pradesh,Amaravati,"Secretariat, Amaravati - APPCB",19-06-2026 14:00:00,16.5150833,80.5181667,SO2,10,27,15
India,Andhra_Pradesh,Chittoor,"Gangineni Cheruvu, Chittoor - APPCB",19-06-2026 14:00:00,13.204880,79.097889,OZONE,46,51,46
India,Andhra_Pradesh,Eluru,"District Court, Eluru - APPCB",19-06-2026 14:00:00,16.711754,81.092095,PM10,31,50,41
India,Andhra_Pradesh,Eluru,"District Court, Eluru - APPCB",19-06-2026 14:00:00,16.711754,81.092095,NO2,11,38,21
India,Delhi,Delhi,"Alipur, Delhi - DPCC",19-06-2026 14:00:00,28.815329,77.153010,NH3,7,13,11
India,Delhi,Delhi,"Anand Vihar, Delhi - DPCC",19-06-2026 14:00:00,28.647622,77.3158090,PM2.5,NA,NA,NA
India,Delhi,Delhi,"Anand Vihar, Delhi - DPCC",19-06-2026 14:00:00,28.647622,77.3158090,OZONE,7,55,41
India,Delhi,Delhi,"Ashok Vihar, Delhi - DPCC",19-06-2026 14:00:00,28.695381,77.181665,PM2.5,22,88,56
India,Delhi,Delhi,"Ashok Vihar, Delhi - DPCC",19-06-2026 14:00:00,28.695381,77.181665,OZONE,12,43,27
India,Delhi,Delhi,"Aya Nagar, Delhi - IITM",19-06-2026 14:00:00,28.4706914,77.1099364,OZONE,1,34,2
India,Delhi,Delhi,"Bawana, Delhi - DPCC",19-06-2026 14:00:00,28.776200,77.051074,NO2,6,19,12
India,Delhi,Delhi,"Bawana, Delhi - DPCC",19-06-2026 14:00:00,28.776200,77.051074,NH3,4,7,6
India,Delhi,Delhi,"Bawana, Delhi - DPCC",19-06-2026 14:00:00,28.776200,77.051074,SO2,8,30,16
India,Delhi,Delhi,"Burari Crossing, Delhi - IITM",19-06-2026 14:00:00,28.7256504,77.2011573,PM2.5,22,83,56
India,Delhi,Delhi,"Burari Crossing, Delhi - IITM",19-06-2026 14:00:00,28.7256504,77.2011573,PM10,12,246,122
India,Delhi,Delhi,"Burari Crossing, Delhi - IITM",19-06-2026 14:00:00,28.7256504,77.2011573,OZONE,9,87,57
India,Delhi,Delhi,"Cantonment Area, Delhi - DPCC ",19-06-2026 14:00:00,28.594169 ,77.125100 ,PM2.5,15,194,67
India,Delhi,Delhi,"Cantonment Area, Delhi - DPCC ",19-06-2026 14:00:00,28.594169 ,77.125100 ,NO2,8,38,21
India,Delhi,Delhi,"Chandni Chowk, Delhi - IITM",19-06-2026 14:00:00,28.656756,77.227234,NO2,13,41,28
India,Delhi,Delhi,"Commonwealth Sports Complex, Delhi - DPCC",19-06-2026 14:00:00,28.615828 ,77.271992 ,PM2.5,41,75,58
India,Delhi,Delhi,"Commonwealth Sports Complex, Delhi - DPCC",19-06-2026 14:00:00,28.615828 ,77.271992 ,NH3,1,6,1
India,Delhi,Delhi,"Commonwealth Sports Complex, Delhi - DPCC",19-06-2026 14:00:00,28.615828 ,77.271992 ,CO,6,98,20
India,Gujarat,Gandhinagar,"GIFT City, Gandhinagar - IITM",19-06-2026 14:00:00,23.163798,72.677768,NO2,17,34,22
India,Gujarat,Gandhinagar,"IIPHG Lekawada, Gandhinagar - IITM",19-06-2026 14:00:00,23.243639,72.68994,NH3,1,1,1
India,Gujarat,Gandhinagar,"IIPHG Lekawada, Gandhinagar - IITM",19-06-2026 14:00:00,23.243639,72.68994,CO,5,36,27
India,Gujarat,Gandhinagar,"Sector-10, Gandhinagar - GPCB",19-06-2026 14:00:00,23.221714,72.654328,PM10,28,66,44
India,Gujarat,Gandhinagar,"Sector-10, Gandhinagar - GPCB",19-06-2026 14:00:00,23.221714,72.654328,CO,8,36,14
India,Gujarat,Gandhinagar,"Sector-10, Gandhinagar - GPCB",19-06-2026 14:00:00,23.221714,72.654328,OZONE,3,25,8
India,Gujarat,Mehsana,"Sadanand Nagar, Mehsana - Nexteng Enviro",19-06-2026 14:00:00,23.593150,72.372792,PM2.5,7,63,24
India,Gujarat,Mehsana,"Sadanand Nagar, Mehsana - Nexteng Enviro",19-06-2026 14:00:00,23.593150,72.372792,CO,63,72,66
India,Gujarat,Rajkot,"Mavdi, Rajkot - Nexteng Enviro ",19-06-2026 14:00:00,22.248853,70.776774,PM2.5,16,40,31
India,Gujarat,Rajkot,"Mavdi, Rajkot - Nexteng Enviro ",19-06-2026 14:00:00,22.248853,70.776774,OZONE,6,8,7
India,Gujarat,Vadodara,"Bapunagar, Vadodara - Nexteng Enviro",19-06-2026 14:00:00,22.320153,73.216285,PM10,25,76,45
India,Gujarat,Vadodara,"Bapunagar, Vadodara - Nexteng Enviro",19-06-2026 14:00:00,22.320153,73.216285,NO2,12,14,13
India,Gujarat,Vadodara,"Bapunagar, Vadodara - Nexteng Enviro",19-06-2026 14:00:00,22.320153,73.216285,OZONE,3,5,3
India,Gujarat,Vapi,"Phase-1 GIDC, Vapi - GPCB",19-06-2026 14:00:00,20.362421,72.918013,PM10,75,100,85
India,Haryana,Fatehabad,"Huda Sector, Fatehabad - HSPCB",19-06-2026 14:00:00,29.503664,75.467934,PM2.5,17,45,30
India,Haryana,Fatehabad,"Huda Sector, Fatehabad - HSPCB",19-06-2026 14:00:00,29.503664,75.467934,PM10,20,54,36
India,Haryana,Fatehabad,"Huda Sector, Fatehabad - HSPCB",19-06-2026 14:00:00,29.503664,75.467934,NH3,13,15,14
India,Haryana,Fatehabad,"Huda Sector, Fatehabad - HSPCB",19-06-2026 14:00:00,29.503664,75.467934,SO2,2,105,39
India,Haryana,Gurugram,"NISE Gwal Pahari, Gurugram - IITM",19-06-2026 14:00:00,28.422681,77.148944,CO,26,34,32
India,Haryana,Gurugram,"NISE Gwal Pahari, Gurugram - IITM",19-06-2026 14:00:00,28.422681,77.148944,OZONE,18,94,64
India,Haryana,Gurugram,"Sector-51, Gurugram - HSPCB",19-06-2026 14:00:00,28.4227,77.0667,PM2.5,83,356,231
India,Haryana,Gurugram,"Sector-51, Gurugram - HSPCB",19-06-2026 14:00:00,28.4227,77.0667,PM10,71,225,135
India,Haryana,Gurugram,"Vikas Sadan, Gurugram - HSPCB",19-06-2026 14:00:00,28.4501238,77.0263051,SO2,4,11,6
India,Haryana,Jind,"Police Lines, Jind - HSPCB",19-06-2026 14:00:00,29.307814,76.337619,NH3,13,15,14
India,Haryana,Kaithal,"Rishi Nagar, Kaithal - HSPCB",19-06-2026 14:00:00,29.8006,76.4155,PM2.5,44,320,136
India,Gujarat,Ahmedabad,"Rakhial, Ahmedabad - IITM",19-06-2026 14:00:00,23.016834,72.625775,PM2.5,33,72,50
India,Gujarat,Ahmedabad,"Rakhial, Ahmedabad - IITM",19-06-2026 14:00:00,23.016834,72.625775,SO2,15,110,42
India,Gujarat,Ahmedabad,"SAC ISRO Bopal, Ahmedabad - IITM",19-06-2026 14:00:00,23.041137,72.456691,NO2,5,23,11
India,Gujarat,Ahmedabad,"SAC ISRO Satellite, Ahmedabad - IITM",19-06-2026 14:00:00,23.023389,72.515201,NO2,22,22,22
India,Gujarat,Ahmedabad,"SVPI Airport Hansol, Ahmedabad - IITM",19-06-2026 14:00:00,23.076793,72.627874,PM10,28,102,65
India,Gujarat,Ankleshwar,"GIDC, Ankleshwar - GPCB",19-06-2026 14:00:00,21.613267,73.010555,PM10,39,72,56
India,Gujarat,Ankleshwar,"GIDC, Ankleshwar - GPCB",19-06-2026 14:00:00,21.613267,73.010555,NO2,21,25,21
India,Gujarat,Ankleshwar,"GIDC, Ankleshwar - GPCB",19-06-2026 14:00:00,21.613267,73.010555,CO,40,54,46
India,Gujarat,Bhavnagar,"Vidhyanagar, Bhavnagar - Nexteng Enviro",19-06-2026 14:00:00,21.755417,72.139056,PM10,30,61,40
India,Gujarat,Gandhinagar,"GIFT City, Gandhinagar - IITM",19-06-2026 14:00:00,23.163798,72.677768,PM10,47,85,64
India,Delhi,Delhi,"Rohini, Delhi - DPCC",19-06-2026 14:00:00,28.732528,77.119920,CO,23,42,38
India,Delhi,Delhi,"Shadipur, Delhi - CPCB",19-06-2026 14:00:00,28.6514781,77.1473105,NO2,45,62,53
India,Delhi,Delhi,"Shadipur, Delhi - CPCB",19-06-2026 14:00:00,28.6514781,77.1473105,NH3,7,10,9
India,Delhi,Delhi,"Shadipur, Delhi - CPCB",19-06-2026 14:00:00,28.6514781,77.1473105,CO,21,70,51
India,Delhi,Delhi,"Sri Aurobindo Marg, Delhi - DPCC",19-06-2026 14:00:00,28.531346,77.190156,PM2.5,27,85,53
India,Gujarat,Ahmedabad,"Chandkheda, Ahmedabad - IITM",19-06-2026 14:00:00,23.107969,72.574648,PM2.5,14,66,35
India,Gujarat,Ahmedabad,"Chandkheda, Ahmedabad - IITM",19-06-2026 14:00:00,23.107969,72.574648,NH3,3,7,6
India,Gujarat,Ahmedabad,"Gyaspur, Ahmedabad - IITM",19-06-2026 14:00:00,22.977134,72.553024,PM10,31,98,59
India,Gujarat,Ahmedabad,"Gyaspur, Ahmedabad - IITM",19-06-2026 14:00:00,22.977134,72.553024,OZONE,20,29,22
India,Gujarat,Ahmedabad,"Maninagar, Ahmedabad - GPCB",19-06-2026 14:00:00,23.002657,72.591912,PM2.5,28,167,71
India,Delhi,Delhi,"Narela, Delhi - DPCC",19-06-2026 14:00:00,28.822836,77.101981,CO,22,109,34
India,Delhi,Delhi,"Nehru Nagar, Delhi - DPCC",19-06-2026 14:00:00,28.567890,77.250515,CO,27,38,32
India,Delhi,Delhi,"Okhla Phase-2, Delhi - DPCC",19-06-2026 14:00:00,28.530785,77.271255,PM2.5,23,75,45
India,Delhi,Delhi,"Patparganj, Delhi - DPCC",19-06-2026 14:00:00,28.623763,77.287209,CO,22,44,37
India,Delhi,Delhi,"Punjabi Bagh, Delhi - DPCC",19-06-2026 14:00:00,28.674045,77.131023,PM2.5,15,140,72
India,Delhi,Delhi,"Punjabi Bagh, Delhi - DPCC",19-06-2026 14:00:00,28.674045,77.131023,NO2,12,31,20
India,Delhi,Delhi,"Pusa, Delhi - DPCC",19-06-2026 14:00:00,28.639652,77.146275,NO2,28,79,56
India,Delhi,Delhi,"Pusa, Delhi - DPCC",19-06-2026 14:00:00,28.639652,77.146275,NH3,7,20,13
India,Delhi,Delhi,"Pusa, Delhi - IITM",19-06-2026 14:00:00,28.636110,77.173332,PM2.5,8,479,98
India,Delhi,Delhi,"Rohini, Delhi - DPCC",19-06-2026 14:00:00,28.732528,77.119920,PM10,75,308,150
India,Delhi,Delhi,"DTU, Delhi - CPCB",19-06-2026 14:00:00,28.7500499,77.1112615,OZONE,24,73,41
India,Delhi,Delhi,"Dr. Karni Singh Shooting Range, Delhi - DPCC",19-06-2026 14:00:00,28.498571,77.264840,NH3,5,7,6
India,Delhi,Delhi,"Dr. Karni Singh Shooting Range, Delhi - DPCC",19-06-2026 14:00:00,28.498571,77.264840,OZONE,16,69,46
India,Delhi,Delhi,"IGNOU_Maidan Garhi, Delhi - DPCC",19-06-2026 14:00:00,28.493624 ,77.201159 ,PM2.5,13,45,28
India,Delhi,Delhi,"IGNOU_Maidan Garhi, Delhi - DPCC",19-06-2026 14:00:00,28.493624 ,77.201159 ,OZONE,8,30,19
India,Delhi,Delhi,"IIT Delhi, Delhi - IITM",19-06-2026 14:00:00,28.542460,77.191651,NO2,6,16,10
India,Delhi,Delhi,"IIT Delhi, Delhi - IITM",19-06-2026 14:00:00,28.542460,77.191651,OZONE,18,61,43
India,Delhi,Delhi,"ITO, Delhi - CPCB",19-06-2026 14:00:00,28.628624,77.241060,PM10,64,177,110
India,Delhi,Delhi,"ITO, Delhi - CPCB",19-06-2026 14:00:00,28.628624,77.241060,NH3,3,6,4
India,Delhi,Delhi,"ITO, Delhi - CPCB",19-06-2026 14:00:00,28.628624,77.241060,SO2,16,39,28
India,Delhi,Delhi,"ITO, Delhi - CPCB",19-06-2026 14:00:00,28.628624,77.241060,OZONE,21,58,38
India,Gujarat,Vatva,"Phase-4 GIDC, Vatva - GPCB",19-06-2026 14:00:00,22.969611,72.643500,OZONE,20,39,30
India,Haryana,Ambala,"Patti Mehar, Ambala - HSPCB",19-06-2026 14:00:00,30.379589,76.778328,CO,10,102,48
India,Haryana,Ballabgarh,"Nathu Colony, Ballabgarh - HSPCB",19-06-2026 14:00:00,28.3419248,77.319699,NO2,19,21,20
India,Haryana,Ballabgarh,"Nathu Colony, Ballabgarh - HSPCB",19-06-2026 14:00:00,28.3419248,77.319699,NH3,3,3,3
India,Haryana,Ballabgarh,"Nathu Colony, Ballabgarh - HSPCB",19-06-2026 14:00:00,28.3419248,77.319699,SO2,3,4,4
India,Haryana,Bhiwani,"H.B. Colony, Bhiwani - HSPCB",19-06-2026 14:00:00,28.806223,76.141105,CO,20,44,40
India,Haryana,Charkhi Dadri,"Mini Secretariat, Charkhi Dadri - HSPCB",19-06-2026 14:00:00,28.593883,76.270653,PM2.5,57,141,85
India,Haryana,Charkhi Dadri,"Mini Secretariat, Charkhi Dadri - HSPCB",19-06-2026 14:00:00,28.593883,76.270653,NO2,9,25,15
