country,state,city,station,last_update,latitude,longitude,pollutant_id,min_value,max_value,avg_value
India,Andhra_Pradesh,Eluru,"District Court, Eluru - APPCB",16-06-2026 15:00:00,16.711754,81.092095,PM2.5,42,60,50
India,Andhra_Pradesh,Eluru,"District Court, Eluru - APPCB",16-06-2026 15:00:00,16.711754,81.092095,CO,11,42,24
India,Andhra_Pradesh,Eluru,"District Court, Eluru - APPCB",16-06-2026 15:00:00,16.711754,81.092095,OZONE,10,52,24
India,Andhra_Pradesh,Guntur,"Rajendra Nagar North, Guntur - APPCB",16-06-2026 15:00:00,16.316553,80.413302,PM10,52,83,62
India,Andhra_Pradesh,Guntur,"Rajendra Nagar North, Guntur - APPCB",16-06-2026 15:00:00,16.316553,80.413302,NH3,6,19,11
India,Andhra_Pradesh,Guntur,"Rajendra Nagar North, Guntur - APPCB",16-06-2026 15:00:00,16.316553,80.413302,SO2,13,24,17
India,Andhra_Pradesh,Kadapa,"Yerramukkapalli, Kadapa - APPCB",16-06-2026 15:00:00,14.465052,78.824187,NO2,19,27,26
India,Andhra_Pradesh,Machilipatnam,"Srinivas Nagar Colony, Machilipatnam - APPCB",16-06-2026 15:00:00,16.186555,81.13219,PM10,40,293,79
India,Andhra_Pradesh,Machilipatnam,"Srinivas Nagar Colony, Machilipatnam - APPCB",16-06-2026 15:00:00,16.186555,81.13219,SO2,13,24,16
India,Bihar,Arrah,"New DM Office, Arrah - BSPCB",16-06-2026 15:00:00,25.5626095,84.663264,OZONE,4,12,7
India,Bihar,Aurangabad,"Gurdeo Nagar, Aurangabad - BSPCB",16-06-2026 15:00:00,24.75746,84.366208,NH3,1,2,2
India,Bihar,Begusarai,"Lohiyanagar, Begusarai - BSPCB",16-06-2026 15:00:00,25.42742023,86.13886079,PM2.5,38,148,73
India,Bihar,Begusarai,"Lohiyanagar, Begusarai - BSPCB",16-06-2026 15:00:00,25.42742023,86.13886079,SO2,13,41,29
India,Bihar,Bettiah,"Kamalnath Nagar, Bettiah - BSPCB",16-06-2026 15:00:00,26.80365,84.51954,CO,24,56,39
India,Bihar,Bhagalpur,"Mayaganj, Bhagalpur - BSPCB",16-06-2026 15:00:00,25.265194,87.012947,CO,25,59,39
India,Bihar,Bihar Sharif,"D M Colony, Bihar Sharif - BSPCB",16-06-2026 15:00:00,25.204762,85.514960,PM2.5,25,68,46
India,Assam,Guwahati,"LGBI Airport, Guwahati - PCBA",16-06-2026 15:00:00,26.10887,91.589544,OZONE,19,44,38
India,Assam,Guwahati,"Pan Bazaar, Guwahati - PCBA",16-06-2026 15:00:00,26.187500,91.744194,NO2,NA,NA,NA
India,Assam,Guwahati,"Railway Colony, Guwahati - PCBA",16-06-2026 15:00:00,26.181742,91.78063,NH3,1,1,1
India,Assam,Nagaon,"Christianpatty, Nagaon - PCBA",16-06-2026 15:00:00,26.349082,92.68449,CO,10,25,22
India,Assam,Silchar,"Tarapur, Silchar - PCBA",16-06-2026 15:00:00,24.82827,92.79525,NH3,1,1,1
India,Andhra_Pradesh,Amaravati,"Secretariat, Amaravati - APPCB",16-06-2026 15:00:00,16.5150833,80.5181667,PM2.5,NA,NA,NA
India,Andhra_Pradesh,Amaravati,"Secretariat, Amaravati - APPCB",16-06-2026 15:00:00,16.5150833,80.5181667,NO2,NA,NA,NA
India,Andhra_Pradesh,Anantapur,"Gulzarpet, Anantapur - APPCB",16-06-2026 15:00:00,14.675886,77.593027,NO2,18,29,23
India,Andhra_Pradesh,Anantapur,"Gulzarpet, Anantapur - APPCB",16-06-2026 15:00:00,14.675886,77.593027,NH3,1,3,2
India,Andhra_Pradesh,Chittoor,"Gangineni Cheruvu, Chittoor - APPCB",16-06-2026 15:00:00,13.204880,79.097889,SO2,14,29,27
India,Andhra_Pradesh,Tirumala,"Toll Gate, Tirumala - APPCB",16-06-2026 15:00:00,13.67,79.35,OZONE,16,31,23
India,Andhra_Pradesh,Tirupati,"Vaikuntapuram, Tirupati - APPCB",16-06-2026 15:00:00,13.615387,79.409230,PM2.5,49,62,53
India,Andhra_Pradesh,Vijayawada,"HB Colony, Vijayawada - APPCB",16-06-2026 15:00:00,16.536107,80.594233,NO2,17,23,21
India,Andhra_Pradesh,Vijayawada,"Kanuru, Vijayawada - APPCB",16-06-2026 15:00:00,16.486692,80.699436,SO2,14,21,16
India,Andhra_Pradesh,Vijayawada,"Kanuru, Vijayawada - APPCB",16-06-2026 15:00:00,16.486692,80.699436,OZONE,31,49,39
India,Andhra_Pradesh,Vijayawada,"Rajiv Gandhi Park, Vijayawada - APPCB",16-06-2026 15:00:00,16.509717,80.612222,NH3,4,5,4
India,Andhra_Pradesh,Vijayawada,"Rajiv Gandhi Park, Vijayawada - APPCB",16-06-2026 15:00:00,16.509717,80.612222,OZONE,19,56,40
India,Assam,Silchar,"Tarapur, Silchar - PCBA",16-06-2026 15:00:00,24.82827,92.79525,CO,25,44,30
India,Assam,Sivasagar,"Girls College, Sivasagar - PCBA",16-06-2026 15:00:00,26.987634,94.636574,OZONE,12,76,59
India,Andhra_Pradesh,Rajamahendravaram,"Anand Kala Kshetram, Rajamahendravaram - APPCB",16-06-2026 15:00:00,16.9872867,81.7363176,NH3,3,4,4
India,Andhra_Pradesh,Rajamahendravaram,"Anand Kala Kshetram, Rajamahendravaram - APPCB",16-06-2026 15:00:00,16.9872867,81.7363176,SO2,5,15,9
India,Andhra_Pradesh,Visakhapatnam,"GVM Corporation, Visakhapatnam - APPCB",16-06-2026 15:00:00,17.72,83.3,SO2,2,38,14
India,Arunachal_Pradesh,Naharlagun,"Naharlagun, Naharlagun - APSPCB",16-06-2026 15:00:00,27.103358,93.679645,SO2,11,11,11
India,Chhattisgarh,Bhilai,"Hathkhoj, Bhilai - CECB",16-06-2026 15:00:00,21.224231,81.408350,NO2,8,61,30
India,Chhattisgarh,Bhilai,"Hathkhoj, Bhilai - CECB",16-06-2026 15:00:00,21.224231,81.408350,NH3,4,6,5
India,Chhattisgarh,Bhilai,"Hathkhoj, Bhilai - CECB",16-06-2026 15:00:00,21.224231,81.408350,SO2,7,14,10
India,Chhattisgarh,Bhilai,"Hathkhoj, Bhilai - CECB",16-06-2026 15:00:00,21.224231,81.408350,OZONE,5,24,19
India,Chhattisgarh,Chhal,"Nawapara SECL Colony, Chhal - CECB",16-06-2026 15:00:00,22.118125,83.140608,NO2,9,26,17
India,Chhattisgarh,Korba,"Rampur, Korba - CECB",16-06-2026 15:00:00,22.368195,82.746431,PM2.5,13,50,30
India,Chhattisgarh,Korba,"Rampur, Korba - CECB",16-06-2026 15:00:00,22.368195,82.746431,NO2,14,90,32
India,Chhattisgarh,Korba,"Urja Nagar, Korba - CECB",16-06-2026 15:00:00,22.348441,82.549611,PM2.5,NA,NA,NA
India,Chhattisgarh,Korba,"Urja Nagar, Korba - CECB",16-06-2026 15:00:00,22.348441,82.549611,OZONE,2,5,3
India,Chhattisgarh,Milupara,"Govt. Higher Secondary School, Milupara - CECB",16-06-2026 15:00:00,22.1910172,83.5197009,OZONE,2,180,104
India,Chhattisgarh,Raipur,"AIIMS, Raipur - CECB",16-06-2026 15:00:00,21.258815,81.578979,PM10,29,70,53
India,Chhattisgarh,Raipur,"AIIMS, Raipur - CECB",16-06-2026 15:00:00,21.258815,81.578979,SO2,5,10,6
India,Chhattisgarh,Raipur,"AIIMS, Raipur - CECB",16-06-2026 15:00:00,21.258815,81.578979,CO,20,36,31
India,Bihar,Muzaffarpur,"Muzaffarpur Collectorate, Muzaffarpur - BSPCB",16-06-2026 15:00:00,26.1209,85.3647,CO,18,93,54
India,Bihar,Patna,"DRM Office Danapur, Patna - BSPCB",16-06-2026 15:00:00,25.586562,85.043586,SO2,5,9,7
India,Bihar,Patna,"Govt. High School Shikarpur, Patna - BSPCB",16-06-2026 15:00:00,25.592539,85.227158,NO2,12,12,12
India,Bihar,Patna,"Govt. High School Shikarpur, Patna - BSPCB",16-06-2026 15:00:00,25.592539,85.227158,OZONE,22,90,65
India,Bihar,Patna,"IGSC Planetarium Complex, Patna - BSPCB",16-06-2026 15:00:00,25.610369,85.132568,PM2.5,42,120,66
India,Bihar,Patna,"IGSC Planetarium Complex, Patna - BSPCB",16-06-2026 15:00:00,25.610369,85.132568,CO,25,39,33
India,Bihar,Patna,"Muradpur, Patna - BSPCB",16-06-2026 15:00:00,25.619651,85.147382,PM10,125,190,155
India,Bihar,Patna,"Muradpur, Patna - BSPCB",16-06-2026 15:00:00,25.619651,85.147382,NH3,4,5,5
India,Bihar,Patna,"Rajbansi Nagar, Patna - BSPCB",16-06-2026 15:00:00,25.599486,85.113666,NO2,26,34,31
India,Bihar,Patna,"Rajbansi Nagar, Patna - BSPCB",16-06-2026 15:00:00,25.599486,85.113666,OZONE,23,34,31
India,Bihar,Patna,"Samanpura, Patna - BSPCB",16-06-2026 15:00:00,25.596727,85.085624,NO2,15,23,20
India,Bihar,Gaya,"SFTI Kusdihra, Gaya - BSPCB",16-06-2026 15:00:00,24.762518,84.982348,NO2,18,26,23
India,Bihar,Gaya,"SFTI Kusdihra, Gaya - BSPCB",16-06-2026 15:00:00,24.762518,84.982348,NH3,4,6,5
India,Bihar,Gaya,"SFTI Kusdihra, Gaya - BSPCB",16-06-2026 15:00:00,24.762518,84.982348,SO2,8,12,9
India,Bihar,Gaya,"SFTI Kusdihra, Gaya - BSPCB",16-06-2026 15:00:00,24.762518,84.982348,OZONE,10,81,52
India,Bihar,Katihar,"Mirchaibari, Katihar - BSPCB",16-06-2026 15:00:00,25.560083,87.553265,PM2.5,13,38,20
India,Bihar,Kishanganj,"SDM Office_Khagra, Kishanganj - BSPCB",16-06-2026 15:00:00,26.0881305,87.93840336,PM2.5,42,312,105
India,Bihar,Kishanganj,"SDM Office_Khagra, Kishanganj - BSPCB",16-06-2026 15:00:00,26.0881305,87.93840336,NH3,3,3,3
India,Bihar,Kishanganj,"SDM Office_Khagra, Kishanganj - BSPCB",16-06-2026 15:00:00,26.0881305,87.93840336,OZONE,32,34,33
India,Bihar,Manguraha,"Forest Rest House, Manguraha - BSPCB",16-06-2026 15:00:00,27.308328,84.531742,NH3,1,1,1
India,Bihar,Manguraha,"Forest Rest House, Manguraha - BSPCB",16-06-2026 15:00:00,27.308328,84.531742,SO2,14,17,16
India,Bihar,Muzaffarpur,"Buddha Colony, Muzaffarpur - BSPCB",16-06-2026 15:00:00,26.11442,85.39813,NO2,8,23,13
India,Bihar,Muzaffarpur,"Buddha Colony, Muzaffarpur - BSPCB",16-06-2026 15:00:00,26.11442,85.39813,OZONE,30,127,77
India,Bihar,Muzaffarpur,"MIT-Daudpur Kothi, Muzaffarpur - BSPCB",16-06-2026 15:00:00,26.1403345,85.3650192,OZONE,16,79,46
India,Bihar,Muzaffarpur,"Muzaffarpur Collectorate, Muzaffarpur - BSPCB",16-06-2026 15:00:00,26.1209,85.3647,PM2.5,55,104,89
India,Bihar,Siwan,"Chitragupta Nagar, Siwan - BSPCB",16-06-2026 15:00:00,26.2271665,84.3570427,CO,60,115,97
India,Chandigarh,Chandigarh,"Sector 22, Chandigarh - CPCC",16-06-2026 15:00:00,30.735567,76.775714,PM2.5,7,45,24
India,Chandigarh,Chandigarh,"Sector-25, Chandigarh - CPCC",16-06-2026 15:00:00,30.751462,76.762879,PM10,20,98,51
India,Chandigarh,Chandigarh,"Sector-53, Chandigarh - CPCC",16-06-2026 15:00:00,30.719859,76.738637,NO2,1,25,10
India,Bihar,Buxar,"Charitra Van, Buxar - BSPCB",16-06-2026 15:00:00,25.567520,83.966379,NO2,9,10,9
India,Bihar,Chhapra,"Darshan Nagar, Chhapra - BSPCB",16-06-2026 15:00:00,25.7808257,84.7446768,PM2.5,95,143,133
India,Bihar,Chhapra,"Darshan Nagar, Chhapra - BSPCB",16-06-2026 15:00:00,25.7808257,84.7446768,PM10,129,138,136
India,Bihar,Gaya,"Collectorate, Gaya - BSPCB",16-06-2026 15:00:00,24.7955,84.9994,CO,10,12,12
India,Bihar,Gaya,"Kareemganj, Gaya - BSPCB",16-06-2026 15:00:00,24.792403,84.992416,PM2.5,62,307,126
India,Chhattisgarh,Raipur,"Bhatagaon New ISBT, Raipur - CECB",16-06-2026 15:00:00,21.219665,81.630094,SO2,4,11,7
India,Bihar,Samastipur,"DM Office_Kasipur, Samastipur - BSPCB",16-06-2026 15:00:00,25.859655,85.77944,NO2,8,9,8
India,Delhi,Delhi,"Sri Aurobindo Marg, Delhi - DPCC",16-06-2026 15:00:00,28.531346,77.190156,SO2,6,17,10
India,Delhi,Delhi,"Talkatora Garden, Delhi - DPCC",16-06-2026 15:00:00,28.621810,77.1944633,PM10,40,155,79
India,Delhi,Delhi,"Talkatora Garden, Delhi - DPCC",16-06-2026 15:00:00,28.621810,77.1944633,SO2,4,10,6
India,Delhi,Delhi,"Vivek Vihar, Delhi - DPCC",16-06-2026 15:00:00,28.672342,77.315260,PM2.5,27,305,96
India,Delhi,Delhi,"Wazirpur, Delhi - DPCC",16-06-2026 15:00:00,28.699793,77.165453,NO2,22,96,57
India,Delhi,Delhi,"Wazirpur, Delhi - DPCC",16-06-2026 15:00:00,28.699793,77.165453,NH3,5,8,6
India,Delhi,Delhi,"Wazirpur, Delhi - DPCC",16-06-2026 15:00:00,28.699793,77.165453,SO2,9,15,12
India,Delhi,Delhi,"Wazirpur, Delhi - DPCC",16-06-2026 15:00:00,28.699793,77.165453,CO,49,108,68
India,Delhi,Delhi,"Wazirpur, Delhi - DPCC",16-06-2026 15:00:00,28.699793,77.165453,OZONE,16,122,47
India,Gujarat,Ahmedabad,"Gyaspur, Ahmedabad - IITM",16-06-2026 15:00:00,22.977134,72.553024,PM10,68,112,88
India,Gujarat,Ahmedabad,"Maninagar, Ahmedabad - GPCB",16-06-2026 15:00:00,23.002657,72.591912,NO2,19,21,20
India,Gujarat,Ahmedabad,"Maninagar, Ahmedabad - GPCB",16-06-2026 15:00:00,23.002657,72.591912,CO,2,62,33
India,Gujarat,Ahmedabad,"Raikhad, Ahmedabad - IITM",16-06-2026 15:00:00,23.020509,72.579261,PM10,60,103,80
India,Gujarat,Ahmedabad,"Rakhial, Ahmedabad - IITM",16-06-2026 15:00:00,23.016834,72.625775,CO,26,34,29
India,Gujarat,Ahmedabad,"SAC ISRO Bopal, Ahmedabad - IITM",16-06-2026 15:00:00,23.041137,72.456691,PM10,38,80,59
India,Gujarat,Ahmedabad,"SAC ISRO Satellite, Ahmedabad - IITM",16-06-2026 15:00:00,23.023389,72.515201,SO2,5,10,7
India,Gujarat,Ahmedabad,"SAC ISRO Satellite, Ahmedabad - IITM",16-06-2026 15:00:00,23.023389,72.515201,OZONE,1,18,10
India,Delhi,Delhi,"Alipur, Delhi - DPCC",16-06-2026 15:00:00,28.815329,77.153010,PM10,40,268,123
India,Delhi,Delhi,"Alipur, Delhi - DPCC",16-06-2026 15:00:00,28.815329,77.153010,NO2,18,85,45
India,Delhi,Delhi,"Alipur, Delhi - DPCC",16-06-2026 15:00:00,28.815329,77.153010,NH3,10,14,12
India,Delhi,Delhi,"Alipur, Delhi - DPCC",16-06-2026 15:00:00,28.815329,77.153010,OZONE,1,24,14
India,Delhi,Delhi,"Anand Vihar, Delhi - DPCC",16-06-2026 15:00:00,28.647622,77.3158090,CO,6,83,37
India,Delhi,Delhi,"Ashok Vihar, Delhi - DPCC",16-06-2026 15:00:00,28.695381,77.181665,CO,18,98,30
India,Delhi,Delhi,"Aya Nagar, Delhi - IITM",16-06-2026 15:00:00,28.4706914,77.1099364,PM10,12,431,102
India,Delhi,Delhi,"Bawana, Delhi - DPCC",16-06-2026 15:00:00,28.776200,77.051074,OZONE,3,25,10
India,Delhi,Delhi,"Burari Crossing, Delhi - IITM",16-06-2026 15:00:00,28.7256504,77.2011573,CO,72,105,91
India,Delhi,Delhi,"CRRI Mathura Road, Delhi - IITM",16-06-2026 15:00:00,28.5512005,77.2735737,PM2.5,14,147,79
India,Delhi,Delhi,"Cantonment Area, Delhi - DPCC ",16-06-2026 15:00:00,28.594169 ,77.125100 ,NH3,2,6,3
India,Delhi,Delhi,"Chandni Chowk, Delhi - IITM",16-06-2026 15:00:00,28.656756,77.227234,PM2.5,42,128,81
India,Delhi,Delhi,"Chandni Chowk, Delhi - IITM",16-06-2026 15:00:00,28.656756,77.227234,NH3,7,19,12
India,Delhi,Delhi,"Chandni Chowk, Delhi - IITM",16-06-2026 15:00:00,28.656756,77.227234,CO,92,120,102
India,Delhi,Delhi,"Mandir Marg, Delhi - DPCC",16-06-2026 15:00:00,28.636429,77.201067,PM10,28,447,126
India,Delhi,Delhi,"Mandir Marg, Delhi - DPCC",16-06-2026 15:00:00,28.636429,77.201067,NH3,5,7,6
India,Delhi,Delhi,"Mundka, Delhi - DPCC",16-06-2026 15:00:00,28.684678,77.076574,OZONE,2,16,11
India,Delhi,Delhi,"NSIT Dwarka, Delhi - CPCB",16-06-2026 15:00:00,28.60909,77.0325413,PM2.5,26,458,82
India,Delhi,Delhi,"NSIT Dwarka, Delhi - CPCB",16-06-2026 15:00:00,28.60909,77.0325413,PM10,33,500,97
India,Delhi,Delhi,"NSIT Dwarka, Delhi - CPCB",16-06-2026 15:00:00,28.60909,77.0325413,NO2,37,67,49
India,Delhi,Delhi,"NSUT Jaffarpur, Delhi - DPCC",16-06-2026 15:00:00,28.594004 ,76.909423 ,OZONE,5,79,46
India,Delhi,Delhi,"Narela, Delhi - DPCC",16-06-2026 15:00:00,28.822836,77.101981,PM2.5,13,345,92
India,Delhi,Delhi,"Narela, Delhi - DPCC",16-06-2026 15:00:00,28.822836,77.101981,SO2,2,78,16
India,Delhi,Delhi,"North Campus, DU, Delhi - IITM",16-06-2026 15:00:00,28.6573814,77.1585447,NO2,51,182,106
India,Delhi,Delhi,"North Campus, DU, Delhi - IITM",16-06-2026 15:00:00,28.6573814,77.1585447,CO,11,94,33
India,Delhi,Delhi,"Patparganj, Delhi - DPCC",16-06-2026 15:00:00,28.623763,77.287209,NO2,20,98,62
India,Delhi,Delhi,"IIT Delhi, Delhi - IITM",16-06-2026 15:00:00,28.542460,77.191651,OZONE,11,44,26
India,Delhi,Delhi,"IMD Lodhi Road, Delhi - IITM",16-06-2026 15:00:00,28.5918245,77.2273074,PM2.5,1,256,70
India,Delhi,Delhi,"ITO, Delhi - CPCB",16-06-2026 15:00:00,28.628624,77.241060,NO2,28,97,64
India,Delhi,Delhi,"ITO, Delhi - CPCB",16-06-2026 15:00:00,28.628624,77.241060,SO2,14,28,20
India,Delhi,Delhi,"Jahangirpuri, Delhi - DPCC",16-06-2026 15:00:00,28.732820,77.170633,PM2.5,12,293,101
India,Delhi,Delhi,"Jahangirpuri, Delhi - DPCC",16-06-2026 15:00:00,28.732820,77.170633,PM10,55,276,151
India,Delhi,Delhi,"Jahangirpuri, Delhi - DPCC",16-06-2026 15:00:00,28.732820,77.170633,SO2,1,23,11
India,Delhi,Delhi,"Jawaharlal Nehru Stadium, Delhi - DPCC",16-06-2026 15:00:00,28.580280,77.233829,NO2,14,103,58
India,Delhi,Delhi,"Jawaharlal Nehru Stadium, Delhi - DPCC",16-06-2026 15:00:00,28.580280,77.233829,OZONE,3,44,24
India,Delhi,Delhi,"Major Dhyan Chand National Stadium, Delhi - DPCC",16-06-2026 15:00:00,28.611281,77.237738,NO2,15,111,67
India,Delhi,Delhi,"Punjabi Bagh, Delhi - DPCC",16-06-2026 15:00:00,28.674045,77.131023,PM10,47,196,129
India,Delhi,Delhi,"Pusa, Delhi - DPCC",16-06-2026 15:00:00,28.639652,77.146275,PM2.5,15,290,67
India,Delhi,Delhi,"Pusa, Delhi - DPCC",16-06-2026 15:00:00,28.639652,77.146275,CO,54,102,69
India,Delhi,Delhi,"Pusa, Delhi - IITM",16-06-2026 15:00:00,28.636110,77.173332,PM2.5,7,218,59
India,Delhi,Delhi,"Rohini, Delhi - DPCC",16-06-2026 15:00:00,28.732528,77.119920,SO2,5,19,9
India,Delhi,Delhi,"Shadipur, Delhi - CPCB",16-06-2026 15:00:00,28.6514781,77.1473105,PM2.5,24,339,94
India,Delhi,Delhi,"Shadipur, Delhi - CPCB",16-06-2026 15:00:00,28.6514781,77.1473105,PM10,61,308,128
India,Delhi,Delhi,"Sirifort, Delhi - CPCB",16-06-2026 15:00:00,28.5504249,77.2159377,NO2,7,37,23
India,Delhi,Delhi,"Sirifort, Delhi - CPCB",16-06-2026 15:00:00,28.5504249,77.2159377,CO,2,68,28
India,Delhi,Delhi,"Sonia Vihar, Delhi - DPCC",16-06-2026 15:00:00,28.710508,77.249485,NH3,6,10,7
India,Chhattisgarh,Raipur,"Krishak Nagar, Raipur - CECB",16-06-2026 15:00:00,21.237755,81.705301,NO2,3,20,11
India,Chhattisgarh,Raipur,"Krishak Nagar, Raipur - CECB",16-06-2026 15:00:00,21.237755,81.705301,OZONE,3,82,44
India,Chhattisgarh,Raipur,"Siltara Phase-II, Raipur - CECB",16-06-2026 15:00:00,21.371751,81.664929,NO2,3,27,12
India,Chhattisgarh,Raipur,"Siltara Phase-II, Raipur - CECB",16-06-2026 15:00:00,21.371751,81.664929,SO2,4,39,18
India,Chhattisgarh,Raipur,"Siltara Phase-II, Raipur - CECB",16-06-2026 15:00:00,21.371751,81.664929,OZONE,4,42,24
India,Chhattisgarh,Tumidih,"OP Jindal Industrial Park, Tumidih - CECB",16-06-2026 15:00:00,22.06631475,83.33820077,PM10,35,124,75
India,Delhi,Delhi,"Dwarka-Sector 8, Delhi - DPCC ",16-06-2026 15:00:00,28.5710274,77.0719006,CO,12,106,30
India,Delhi,Delhi,"IGI Airport (T3), Delhi - IITM",16-06-2026 15:00:00,28.5627763,77.1180053,PM10,4,423,124
India,Delhi,Delhi,"IGNOU_Maidan Garhi, Delhi - DPCC",16-06-2026 15:00:00,28.493624 ,77.201159 ,PM10,43,274,112
India,Delhi,Delhi,"DTU, Delhi - CPCB",16-06-2026 15:00:00,28.7500499,77.1112615,SO2,31,35,32
India,Delhi,Delhi,"DTU, Delhi - CPCB",16-06-2026 15:00:00,28.7500499,77.1112615,OZONE,26,29,27
India,Delhi,Delhi,"Dr. Karni Singh Shooting Range, Delhi - DPCC",16-06-2026 15:00:00,28.498571,77.264840,OZONE,2,50,30
India,Delhi,Delhi,"IGNOU_Maidan Garhi, Delhi - DPCC",16-06-2026 15:00:00,28.493624 ,77.201159 ,SO2,28,30,29
India,Delhi,Delhi,"IHBAS, Dilshad Garden, Delhi - CPCB",16-06-2026 15:00:00,28.6811736,77.3025234,SO2,11,28,16
India,Haryana,Sonipat,"Murthal, Sonipat - HSPCB",16-06-2026 15:00:00,29.027200,77.062100,NO2,NA,NA,NA
India,Haryana,Sonipat,"Murthal, Sonipat - HSPCB",16-06-2026 15:00:00,29.027200,77.062100,OZONE,18,76,61
India,Haryana,Yamuna Nagar,"Gobind Pura, Yamuna Nagar - HSPCB",16-06-2026 15:00:00,30.1480566,77.2893471,NH3,NA,NA,NA
India,Himachal Pradesh,Baddi,"HIMUDA Complex Phase-1, Baddi - HPPCB",16-06-2026 15:00:00,30.943887,76.801991,PM10,33,145,73
India,Himachal Pradesh,Baddi,"HIMUDA Complex Phase-1, Baddi - HPPCB",16-06-2026 15:00:00,30.943887,76.801991,NO2,4,20,10
India,Jammu_and_Kashmir,Pampore,"Khrew, Pampore - JKPCC",16-06-2026 15:00:00,34.031606,75.009712,PM10,14,59,39
India,Jammu_and_Kashmir,Srinagar,"Khunmoh, Srinagar - JKPCC",16-06-2026 15:00:00,34.06313,74.96017,NO2,24,25,25
India,Jammu_and_Kashmir,Srinagar,"Khunmoh, Srinagar - JKPCC",16-06-2026 15:00:00,34.06313,74.96017,SO2,6,8,7
India,Jammu_and_Kashmir,Srinagar,"Rajbagh, Srinagar - JKPCC",16-06-2026 15:00:00,34.066206,74.819820,PM2.5,19,34,26
India,Jammu_and_Kashmir,Srinagar,"Rajbagh, Srinagar - JKPCC",16-06-2026 15:00:00,34.066206,74.819820,CO,13,22,16
India,Jammu_and_Kashmir,Srinagar,"Rajbagh, Srinagar - JKPCC",16-06-2026 15:00:00,34.066206,74.819820,OZONE,1,3,2
India,Jharkhand,Dhanbad,"Sardar Patel Nagar, Dhanbad - JSPCB",16-06-2026 15:00:00,23.80569,86.44268,CO,2,120,6
India,Jharkhand,Jorapokhar,"Tata Stadium, Jorapokhar - JSPCB",16-06-2026 15:00:00,23.707909,86.414670,PM2.5,41,174,88
India,Jharkhand,Jorapokhar,"Tata Stadium, Jorapokhar - JSPCB",16-06-2026 15:00:00,23.707909,86.414670,PM10,40,125,80
India,Jharkhand,Jorapokhar,"Tata Stadium, Jorapokhar - JSPCB",16-06-2026 15:00:00,23.707909,86.414670,NO2,7,8,8
India,Jharkhand,Jorapokhar,"Tata Stadium, Jorapokhar - JSPCB",16-06-2026 15:00:00,23.707909,86.414670,NH3,3,3,3
India,Jharkhand,Jorapokhar,"Tata Stadium, Jorapokhar - JSPCB",16-06-2026 15:00:00,23.707909,86.414670,CO,38,42,40
India,Karnataka,Bagalkot,"Vidayagiri, Bagalkot - KSPCB",16-06-2026 15:00:00,16.172806,75.659694,PM2.5,35,36,36
India,Karnataka,Bagalkot,"Vidayagiri, Bagalkot - KSPCB",16-06-2026 15:00:00,16.172806,75.659694,OZONE,18,18,18
India,Karnataka,Bengaluru,"BTM Layout, Bengaluru - CPCB",16-06-2026 15:00:00,12.9135218,77.5950804,NO2,19,20,19
India,Karnataka,Bengaluru,"BTM Layout, Bengaluru - CPCB",16-06-2026 15:00:00,12.9135218,77.5950804,CO,37,57,55
India,Karnataka,Bengaluru,"BWSSB Kadabesanahalli, Bengaluru - CPCB",16-06-2026 15:00:00,12.9352049,77.6814488,PM2.5,56,61,60
India,Karnataka,Bengaluru,"BWSSB Kadabesanahalli, Bengaluru - CPCB",16-06-2026 15:00:00,12.9352049,77.6814488,OZONE,11,34,25
India,Karnataka,Bengaluru,"Bapuji Nagar, Bengaluru - KSPCB",16-06-2026 15:00:00,12.951913,77.539784,PM2.5,17,152,49
India,Karnataka,Bengaluru,"Bapuji Nagar, Bengaluru - KSPCB",16-06-2026 15:00:00,12.951913,77.539784,NH3,2,3,3
India,Karnataka,Bengaluru,"Bapuji Nagar, Bengaluru - KSPCB",16-06-2026 15:00:00,12.951913,77.539784,SO2,2,42,21
India,Karnataka,Bengaluru,"City Railway Station, Bengaluru - KSPCB",16-06-2026 15:00:00,12.9756843,77.5660749,CO,NA,NA,NA
India,Karnataka,Bengaluru,"Hebbal, Bengaluru - KSPCB",16-06-2026 15:00:00,13.029152,77.585901,PM10,31,154,59
India,Karnataka,Bengaluru,"Hombegowda Nagar, Bengaluru - KSPCB",16-06-2026 15:00:00,12.938539,77.590100,PM2.5,36,97,52
India,Karnataka,Bengaluru,"Hombegowda Nagar, Bengaluru - KSPCB",16-06-2026 15:00:00,12.938539,77.590100,PM10,51,128,75
India,Karnataka,Bengaluru,"Hombegowda Nagar, Bengaluru - KSPCB",16-06-2026 15:00:00,12.938539,77.590100,NO2,15,80,29
India,Karnataka,Bengaluru,"Hombegowda Nagar, Bengaluru - KSPCB",16-06-2026 15:00:00,12.938539,77.590100,NH3,1,2,1
India,Karnataka,Bengaluru,"Shivapura_Peenya, Bengaluru - KSPCB",16-06-2026 15:00:00,13.0246342,77.5080115,NO2,NA,NA,NA
India,Karnataka,Bengaluru,"Silk Board, Bengaluru - KSPCB",16-06-2026 15:00:00,12.917348,77.622813,PM10,65,465,172
India,Karnataka,Bengaluru,"Silk Board, Bengaluru - KSPCB",16-06-2026 15:00:00,12.917348,77.622813,CO,28,112,55
India,Karnataka,Chamarajanagar,"Urban, Chamarajanagar - KSPCB",16-06-2026 15:00:00,11.55358,76.55521,OZONE,13,39,35
India,Karnataka,Chikkaballapur,"Chikkaballapur Rural, Chikkaballapur - KSPCB",16-06-2026 15:00:00,13.428828,77.731418,PM2.5,21,69,39
India,Karnataka,Chikkamagaluru,"Kalyana Nagara, Chikkamagaluru - KSPCB",16-06-2026 15:00:00,13.328028,75.797056,SO2,NA,NA,NA
India,Karnataka,Chikkamagaluru,"Kalyana Nagara, Chikkamagaluru - KSPCB",16-06-2026 15:00:00,13.328028,75.797056,OZONE,34,60,41
India,Karnataka,Dharwad,"Kalabhavan, Dharwad - KSPCB",16-06-2026 15:00:00,15.459706,75.008381,OZONE,33,34,34
India,Karnataka,Gadag,"Panchal Nagar, Gadag - KSPCB",16-06-2026 15:00:00,15.411456,75.638133,PM2.5,3,10,7
India,Karnataka,Gadag,"Panchal Nagar, Gadag - KSPCB",16-06-2026 15:00:00,15.411456,75.638133,NO2,1,1,1
India,Karnataka,Gadag,"Panchal Nagar, Gadag - KSPCB",16-06-2026 15:00:00,15.411456,75.638133,NH3,3,5,4
India,Karnataka,Gadag,"Panchal Nagar, Gadag - KSPCB",16-06-2026 15:00:00,15.411456,75.638133,OZONE,19,19,19
India,Karnataka,Hubballi,"Lingaraj Nagar, Hubballi - KSPCB",16-06-2026 15:00:00,15.3714823,75.1160168,PM10,57,58,58
India,Karnataka,Hubballi,"Lingaraj Nagar, Hubballi - KSPCB",16-06-2026 15:00:00,15.3714823,75.1160168,NO2,7,7,7
India,Karnataka,Hubballi,"Lingaraj Nagar, Hubballi - KSPCB",16-06-2026 15:00:00,15.3714823,75.1160168,NH3,1,1,1
India,Karnataka,Koppal,"Diwator Nagar, Koppal - KSPCB",16-06-2026 15:00:00,15.347630,76.181767,SO2,13,16,14
India,Karnataka,Koppal,"Diwator Nagar, Koppal - KSPCB",16-06-2026 15:00:00,15.347630,76.181767,CO,28,47,41
India,Karnataka,Madikeri,"Stuart Hill, Madikeri - KSPCB",16-06-2026 15:00:00,12.415911,75.735050,PM10,15,36,26
India,Karnataka,Madikeri,"Stuart Hill, Madikeri - KSPCB",16-06-2026 15:00:00,12.415911,75.735050,CO,8,18,14
India,Karnataka,Ramanagara,"Vijay Nagar, Ramanagara - KSPCB",16-06-2026 15:00:00,12.733409,77.298051,PM2.5,28,55,37
India,Karnataka,Ramanagara,"Vijay Nagar, Ramanagara - KSPCB",16-06-2026 15:00:00,12.733409,77.298051,PM10,36,75,49
India,Karnataka,Ramanagara,"Vijay Nagar, Ramanagara - KSPCB",16-06-2026 15:00:00,12.733409,77.298051,OZONE,6,39,26
India,Karnataka,Shivamogga,"Vinoba Nagara, Shivamogga - KSPCB",16-06-2026 15:00:00,13.940000,75.555917,NH3,2,3,3
India,Karnataka,Shivamogga,"Vinoba Nagara, Shivamogga - KSPCB",16-06-2026 15:00:00,13.940000,75.555917,CO,6,41,17
India,Karnataka,Tumakuru,"Thimmalapura, Tumakuru - KSPCB",16-06-2026 15:00:00,13.377516,77.099072,NH3,3,3,3
India,Karnataka,Tumakuru,"Thimmalapura, Tumakuru - KSPCB",16-06-2026 15:00:00,13.377516,77.099072,CO,52,54,53
India,Karnataka,Vijayapura,"Ibrahimpur, Vijayapura - KSPCB",16-06-2026 15:00:00,16.802639,75.722694,SO2,3,6,3
India,Haryana,Fatehabad,"Huda Sector, Fatehabad - HSPCB",16-06-2026 15:00:00,29.503664,75.467934,NO2,18,20,19
India,Haryana,Fatehabad,"Huda Sector, Fatehabad - HSPCB",16-06-2026 15:00:00,29.503664,75.467934,SO2,1,70,22
India,Haryana,Fatehabad,"Huda Sector, Fatehabad - HSPCB",16-06-2026 15:00:00,29.503664,75.467934,OZONE,62,130,97
India,Haryana,Gurugram,"NISE Gwal Pahari, Gurugram - IITM",16-06-2026 15:00:00,28.422681,77.148944,NO2,10,27,16
India,Haryana,Gurugram,"NISE Gwal Pahari, Gurugram - IITM",16-06-2026 15:00:00,28.422681,77.148944,OZONE,1,153,42
India,Haryana,Gurugram,"Sector-51, Gurugram - HSPCB",16-06-2026 15:00:00,28.4227,77.0667,OZONE,64,89,76
India,Haryana,Gurugram,"Teri Gram, Gurugram - HSPCB",16-06-2026 15:00:00,28.4275,77.1465,PM10,37,143,85
India,Haryana,Gurugram,"Teri Gram, Gurugram - HSPCB",16-06-2026 15:00:00,28.4275,77.1465,NH3,11,20,15
India,Haryana,Hisar,"Urban Estate-II, Hisar - HSPCB",16-06-2026 15:00:00,29.140560,75.744941,NO2,1,19,17
India,Haryana,Jind,"Police Lines, Jind - HSPCB",16-06-2026 15:00:00,29.307814,76.337619,CO,1,68,8
India,Haryana,Kaithal,"Rishi Nagar, Kaithal - HSPCB",16-06-2026 15:00:00,29.8006,76.4155,PM10,29,112,46
India,Haryana,Kaithal,"Rishi Nagar, Kaithal - HSPCB",16-06-2026 15:00:00,29.8006,76.4155,NH3,5,6,6
India,Haryana,Kaithal,"Rishi Nagar, Kaithal - HSPCB",16-06-2026 15:00:00,29.8006,76.4155,CO,40,64,50
India,Haryana,Karnal,"Sector-12, Karnal - HSPCB",16-06-2026 15:00:00,29.695300,77.002700,OZONE,6,22,8
India,Haryana,Kurukshetra,"Sector-7, Kurukshetra - HSPCB",16-06-2026 15:00:00,29.966942,76.875879,PM10,73,251,106
India,Haryana,Kurukshetra,"Sector-7, Kurukshetra - HSPCB",16-06-2026 15:00:00,29.966942,76.875879,NO2,16,22,19
India,Haryana,Kurukshetra,"Sector-7, Kurukshetra - HSPCB",16-06-2026 15:00:00,29.966942,76.875879,SO2,5,18,11
India,Gujarat,Vadodara,"Bapunagar, Vadodara - Nexteng Enviro",16-06-2026 15:00:00,22.320153,73.216285,SO2,5,8,6
India,Gujarat,Vadodara,"Bapunagar, Vadodara - Nexteng Enviro",16-06-2026 15:00:00,22.320153,73.216285,OZONE,2,5,4
India,Gujarat,Vapi,"Phase-1 GIDC, Vapi - GPCB",16-06-2026 15:00:00,20.362421,72.918013,PM2.5,25,121,81
India,Gujarat,Vapi,"Phase-1 GIDC, Vapi - GPCB",16-06-2026 15:00:00,20.362421,72.918013,SO2,14,23,16
India,Haryana,Ambala,"Patti Mehar, Ambala - HSPCB",16-06-2026 15:00:00,30.379589,76.778328,PM2.5,23,96,42
India,Haryana,Ambala,"Patti Mehar, Ambala - HSPCB",16-06-2026 15:00:00,30.379589,76.778328,OZONE,10,10,10
India,Haryana,Ballabgarh,"Nathu Colony, Ballabgarh - HSPCB",16-06-2026 15:00:00,28.3419248,77.319699,NH3,3,3,3
India,Haryana,Bhiwani,"H.B. Colony, Bhiwani - HSPCB",16-06-2026 15:00:00,28.806223,76.141105,NO2,2,17,14
India,Haryana,Bhiwani,"H.B. Colony, Bhiwani - HSPCB",16-06-2026 15:00:00,28.806223,76.141105,CO,2,8,3
India,Haryana,Charkhi Dadri,"Mini Secretariat, Charkhi Dadri - HSPCB",16-06-2026 15:00:00,28.593883,76.270653,SO2,10,11,10
India,Haryana,Charkhi Dadri,"Mini Secretariat, Charkhi Dadri - HSPCB",16-06-2026 15:00:00,28.593883,76.270653,OZONE,11,39,31
India,Haryana,Dharuhera,"Municipal Corporation Office, Dharuhera -  HSPCB",16-06-2026 15:00:00,28.206800,76.799700,SO2,5,17,10
India,Haryana,Dharuhera,"Municipal Corporation Office, Dharuhera -  HSPCB",16-06-2026 15:00:00,28.206800,76.799700,OZONE,10,33,24
India,Haryana,Faridabad,"Sector 11, Faridabad - HSPCB",16-06-2026 15:00:00,28.376058,77.315741,NO2,30,33,32
India,Haryana,Faridabad,"Sector 11, Faridabad - HSPCB",16-06-2026 15:00:00,28.376058,77.315741,NH3,10,10,10
India,Haryana,Faridabad,"Sector 11, Faridabad - HSPCB",16-06-2026 15:00:00,28.376058,77.315741,SO2,5,11,8
India,Haryana,Mandikhera,"General Hospital, Mandikhera(Nuh) - HSPCB",16-06-2026 15:00:00,27.9002,76.9938,PM10,NA,NA,NA
India,Haryana,Mandikhera,"General Hospital, Mandikhera(Nuh) - HSPCB",16-06-2026 15:00:00,27.9002,76.9938,SO2,25,27,26
India,Haryana,Manesar,"Sector-2 IMT, Manesar - HSPCB",16-06-2026 15:00:00,28.360699,76.936090,CO,12,27,21
India,Haryana,Narnaul,"Shastri Nagar, Narnaul - HSPCB",16-06-2026 15:00:00,28.060249,76.113115,PM2.5,51,157,90
India,Haryana,Narnaul,"Shastri Nagar, Narnaul - HSPCB",16-06-2026 15:00:00,28.060249,76.113115,SO2,3,4,4
India,Haryana,Narnaul,"Shastri Nagar, Narnaul - HSPCB",16-06-2026 15:00:00,28.060249,76.113115,CO,13,39,34
India,Haryana,Panchgaon,"Amity University, Panchgaon - IITM",16-06-2026 15:00:00,28.3153,76.9143,PM10,34,500,81
India,Haryana,Panipat,"Sector-18, Panipat - HSPCB",16-06-2026 15:00:00,29.432304,76.972765,OZONE,30,30,30
India,Haryana,Rohtak,"MD University, Rohtak - HSPCB",16-06-2026 15:00:00,28.52123,76.37138,PM2.5,4,210,36
India,Haryana,Rohtak,"MD University, Rohtak - HSPCB",16-06-2026 15:00:00,28.52123,76.37138,SO2,8,10,9
India,Haryana,Rohtak,"MD University, Rohtak - HSPCB",16-06-2026 15:00:00,28.52123,76.37138,CO,27,54,48
India,Haryana,Rohtak,"MD University, Rohtak - HSPCB",16-06-2026 15:00:00,28.52123,76.37138,OZONE,1,54,30
India,Haryana,Sirsa,"F-Block, Sirsa - HSPCB",16-06-2026 15:00:00,29.536400,75.015800,NO2,15,23,18
India,Haryana,Sirsa,"F-Block, Sirsa - HSPCB",16-06-2026 15:00:00,29.536400,75.015800,SO2,NA,NA,NA
India,Madhya Pradesh,Dewas,"Bhopal Chauraha, Dewas - MPPCB",16-06-2026 15:00:00,22.9682591,76.064118,OZONE,6,110,32
India,Madhya Pradesh,Gwalior,"City Center, Gwalior - MPPCB",16-06-2026 15:00:00,26.203442,78.193251,PM2.5,26,81,52
India,Madhya Pradesh,Gwalior,"City Center, Gwalior - MPPCB",16-06-2026 15:00:00,26.203442,78.193251,OZONE,20,41,35
India,Madhya Pradesh,Indore,"Airport Area, Indore - IMC",16-06-2026 15:00:00,22.7289,75.8076,NO2,57,78,60
India,Madhya Pradesh,Indore,"Airport Area, Indore - IMC",16-06-2026 15:00:00,22.7289,75.8076,OZONE,4,9,6
India,Madhya Pradesh,Indore,"Chhoti Gwaltoli, Indore - MPPCB",16-06-2026 15:00:00,22.4310,75.5213,CO,16,43,22
India,Madhya Pradesh,Indore,"Maguda Nagar, Indore - IMC",16-06-2026 15:00:00,22.7524,75.8872,SO2,18,22,19
India,Madhya Pradesh,Indore,"Maguda Nagar, Indore - IMC",16-06-2026 15:00:00,22.7524,75.8872,OZONE,12,18,14
India,Madhya Pradesh,Indore,"Regional Park, Indore - IMC",16-06-2026 15:00:00,22.6780,75.8559,PM2.5,22,50,32
India,Madhya Pradesh,Indore,"Regional Park, Indore - IMC",16-06-2026 15:00:00,22.6780,75.8559,SO2,24,26,25
India,Madhya Pradesh,Jabalpur,"Govindh Bhavan Colony, Jabalpur - JMC",16-06-2026 15:00:00,23.163174,79.973061,PM2.5,32,73,50
India,Madhya Pradesh,Jabalpur,"Govindh Bhavan Colony, Jabalpur - JMC",16-06-2026 15:00:00,23.163174,79.973061,CO,14,42,23
India,Madhya Pradesh,Jabalpur,"Gupteshwar, Jabalpur - JMC",16-06-2026 15:00:00,23.142888,79.916147,NO2,8,71,21
India,Gujarat,Ahmedabad,"SVPI Airport Hansol, Ahmedabad - IITM",16-06-2026 15:00:00,23.076793,72.627874,SO2,9,36,19
India,Gujarat,Gandhinagar,"GIFT City, Gandhinagar - IITM",16-06-2026 15:00:00,23.163798,72.677768,NH3,5,7,6
India,Gujarat,Gandhinagar,"GIFT City, Gandhinagar - IITM",16-06-2026 15:00:00,23.163798,72.677768,OZONE,20,60,38
India,Gujarat,Gandhinagar,"IIPHG Lekawada, Gandhinagar - IITM",16-06-2026 15:00:00,23.243639,72.68994,PM10,53,104,72
India,Gujarat,Nandesari,"GIDC, Nandesari - Nandesari Ind. Association",16-06-2026 15:00:00,22.410802,73.097923,NO2,2,60,23
India,Gujarat,Nandesari,"GIDC, Nandesari - Nandesari Ind. Association",16-06-2026 15:00:00,22.410802,73.097923,CO,10,60,18
India,Gujarat,Rajkot,"Mavdi, Rajkot - Nexteng Enviro ",16-06-2026 15:00:00,22.248853,70.776774,NO2,51,63,57
India,Gujarat,Rajkot,"Mavdi, Rajkot - Nexteng Enviro ",16-06-2026 15:00:00,22.248853,70.776774,OZONE,6,7,7
India,Gujarat,Surat,"Katargam, Surat - Nexteng Enviro",16-06-2026 15:00:00,21.217779 ,72.834787 ,PM10,41,73,60
India,Gujarat,Vadodara,"Bapunagar, Vadodara - Nexteng Enviro",16-06-2026 15:00:00,22.320153,73.216285,PM2.5,19,129,48
India,Kerala,Kannur,"Thavakkara, Kannur - Kerala PCB",16-06-2026 15:00:00,11.875000,75.373200,NH3,1,1,1
India,Kerala,Kannur,"Thavakkara, Kannur - Kerala PCB",16-06-2026 15:00:00,11.875000,75.373200,SO2,1,1,1
India,Kerala,Kollam,"Polayathode, Kollam - Kerala PCB",16-06-2026 15:00:00,8.8787,76.6073,NO2,8,10,9
India,Kerala,Thiruvananthapuram,"Kariavattom, Thiruvananthapuram - Kerala PCB",16-06-2026 15:00:00,8.563700,76.886500,PM10,NA,NA,NA
India,Madhya Pradesh,Bhopal,"Idgah Hills, Bhopal - MPPCB",16-06-2026 15:00:00,23.264759,77.381568,SO2,6,8,7
India,Madhya Pradesh,Bhopal,"T T Nagar, Bhopal - MPPCB",16-06-2026 15:00:00,23.233584,77.400574,NO2,13,34,19
India,Madhya Pradesh,Bhopal,"T T Nagar, Bhopal - MPPCB",16-06-2026 15:00:00,23.233584,77.400574,CO,18,36,28
India,Madhya Pradesh,Bhopal,"T T Nagar, Bhopal - MPPCB",16-06-2026 15:00:00,23.233584,77.400574,OZONE,30,83,53
India,Maharashtra,Mumbai,"Kurla, Mumbai - MPCB",16-06-2026 15:00:00,19.0863,72.8888,PM10,28,135,62
India,Maharashtra,Mumbai,"Kurla, Mumbai - MPCB",16-06-2026 15:00:00,19.0863,72.8888,SO2,29,29,29
India,Maharashtra,Mumbai,"Kurla, Mumbai - MPCB",16-06-2026 15:00:00,19.0863,72.8888,CO,12,16,13
India,Maharashtra,Mumbai,"Malad West, Mumbai - IITM",16-06-2026 15:00:00,19.19709,72.82204,CO,16,41,21
India,Maharashtra,Mumbai,"Mazgaon, Mumbai - IITM",16-06-2026 15:00:00,18.96702,72.84214,PM2.5,23,53,32
India,Maharashtra,Mumbai,"Mazgaon, Mumbai - IITM",16-06-2026 15:00:00,18.96702,72.84214,PM10,47,67,58
India,Maharashtra,Mumbai,"Mazgaon, Mumbai - IITM",16-06-2026 15:00:00,18.96702,72.84214,OZONE,13,26,22
India,Maharashtra,Mumbai,"Mindspace-Malad West, Mumbai - MPCB",16-06-2026 15:00:00,19.1878657,72.8304069,NO2,9,11,9
India,Maharashtra,Mumbai,"Mindspace-Malad West, Mumbai - MPCB",16-06-2026 15:00:00,19.1878657,72.8304069,SO2,4,6,5
India,Maharashtra,Mumbai,"Navy Nagar-Colaba, Mumbai - IITM",16-06-2026 15:00:00,18.897756,72.813320,SO2,1,9,4
India,Maharashtra,Mumbai,"Powai, Mumbai - MPCB",16-06-2026 15:00:00,19.137500,72.915056,PM2.5,6,23,13
India,Maharashtra,Mumbai,"Powai, Mumbai - MPCB",16-06-2026 15:00:00,19.137500,72.915056,SO2,3,11,7
India,Maharashtra,Mumbai,"Sewri, Mumbai - BMC",16-06-2026 15:00:00,19.000084,72.856730,NH3,2,5,3
India,Maharashtra,Mumbai,"Sion, Mumbai - MPCB",16-06-2026 15:00:00,19.047000,72.874600,PM10,26,90,69
India,Maharashtra,Mumbai,"Worli, Mumbai -MPCB",16-06-2026 15:00:00,18.9942180,72.8158167,NO2,3,18,9
India,Maharashtra,Mumbai,"Worli, Mumbai -MPCB",16-06-2026 15:00:00,18.9942180,72.8158167,NH3,3,3,3
India,Maharashtra,Nagpur,"Ambazari, Nagpur - MPCB",16-06-2026 15:00:00,21.121801,79.04952,PM2.5,39,92,55
India,Maharashtra,Nagpur,"Ambazari, Nagpur - MPCB",16-06-2026 15:00:00,21.121801,79.04952,SO2,11,91,22
India,Maharashtra,Nagpur,"Mahal, Nagpur - MPCB",16-06-2026 15:00:00,21.14472,79.107595,SO2,10,41,17
India,Maharashtra,Nagpur,"Opp GPO Civil Lines, Nagpur - MPCB",16-06-2026 15:00:00,21.152875,79.0517531,PM2.5,26,69,49
India,Maharashtra,Nagpur,"Opp GPO Civil Lines, Nagpur - MPCB",16-06-2026 15:00:00,21.152875,79.0517531,PM10,46,99,67
India,Maharashtra,Nagpur,"Ram Nagar, Nagpur - MPCB",16-06-2026 15:00:00,21.143383,79.048912,PM10,55,88,67
India,Maharashtra,Nagpur,"Ram Nagar, Nagpur - MPCB",16-06-2026 15:00:00,21.143383,79.048912,NH3,4,6,5
India,Maharashtra,Nanded,"Sneh Nagar, Nanded - MPCB",16-06-2026 15:00:00,19.173852,77.296291,PM10,40,72,52
India,Maharashtra,Nashik,"Gangapur Road, Nashik - MPCB",16-06-2026 15:00:00,20.0073285,73.7762427,PM10,22,46,32
India,Maharashtra,Nashik,"Hirawadi, Nashik - MPCB",16-06-2026 15:00:00,20.021503,73.813844,PM2.5,14,30,21
India,Maharashtra,Nashik,"MIDC Ambad, Nashik - MPCB",16-06-2026 15:00:00,19.950220,73.731480,SO2,4,18,7
India,Maharashtra,Nashik,"Pandav Nagari, Nashik - MPCB",16-06-2026 15:00:00,19.9591346,73.7788008,PM2.5,11,45,30
India,Maharashtra,Navi Mumbai,"Kopripada-Vashi, Navi Mumbai - MPCB",16-06-2026 15:00:00,19.090337,73.014232,PM2.5,13,44,34
India,Madhya Pradesh,Ujjain,"Mahashweta Nagar, Ujjain - MPPCB",16-06-2026 15:00:00,23.1633321,75.800225,OZONE,16,67,28
India,Maharashtra,Ahmednagar,"Tarakpur, Ahmednagar - MPCB",16-06-2026 15:00:00,19.10122,74.73339,NH3,4,13,9
India,Maharashtra,Akola,"Ramdaspeth, Akola - MPCB",16-06-2026 15:00:00,20.719516,77.000253,CO,24,32,25
India,Maharashtra,Amravati,"Shri Shivaji Science College, Amravati - MPCB",16-06-2026 15:00:00,20.939198,77.765701,PM10,25,118,65
India,Maharashtra,Amravati,"Shri Shivaji Science College, Amravati - MPCB",16-06-2026 15:00:00,20.939198,77.765701,NO2,4,17,8
India,Maharashtra,Aurangabad,"MIDC Chilkalthana, Aurangabad - MPCB",16-06-2026 15:00:00,19.875620,75.387310,NO2,1,11,8
India,Maharashtra,Aurangabad,"MIDC Chilkalthana, Aurangabad - MPCB",16-06-2026 15:00:00,19.875620,75.387310,OZONE,4,33,24
India,Maharashtra,Aurangabad,"More Chowk Waluj, Aurangabad - MPCB",16-06-2026 15:00:00,19.8389439,75.244448,PM2.5,46,55,50
India,Maharashtra,Aurangabad,"More Chowk Waluj, Aurangabad - MPCB",16-06-2026 15:00:00,19.8389439,75.244448,CO,14,118,59
India,Maharashtra,Aurangabad,"Rachnakar Colony, Aurangabad - MPCB",16-06-2026 15:00:00,19.863756,75.321188,PM2.5,8,63,32
India,Maharashtra,Aurangabad,"Rachnakar Colony, Aurangabad - MPCB",16-06-2026 15:00:00,19.863756,75.321188,SO2,9,29,18
India,Maharashtra,Badlapur,"Katrap, Badlapur - MPCB",16-06-2026 15:00:00,19.16485,73.23409,NH3,3,7,6
India,Maharashtra,Badlapur,"Katrap, Badlapur - MPCB",16-06-2026 15:00:00,19.16485,73.23409,CO,12,45,30
India,Maharashtra,Beed,"Bir, Beed - MPCB",16-06-2026 15:00:00,18.988474,75.753873,CO,9,23,16
India,Maharashtra,Bhiwandi,"Gokul Nagar, Bhiwandi - MPCB",16-06-2026 15:00:00,19.309073,73.057223,NO2,11,40,24
India,Maharashtra,Bhiwandi,"Gokul Nagar, Bhiwandi - MPCB",16-06-2026 15:00:00,19.309073,73.057223,OZONE,12,83,58
India,Maharashtra,Boisar,"Khaira, Boisar - MPCB",16-06-2026 15:00:00,19.786089,72.757971,NH3,NA,NA,NA
India,Maharashtra,Boisar,"Khaira, Boisar - MPCB",16-06-2026 15:00:00,19.786089,72.757971,OZONE,9,14,12
India,Maharashtra,Chandrapur,"Chauhan Colony, Chandrapur - MPCB",16-06-2026 15:00:00,19.962900,79.298714,NH3,1,9,3
India,Maharashtra,Chandrapur,"Chauhan Colony, Chandrapur - MPCB",16-06-2026 15:00:00,19.962900,79.298714,CO,24,49,33
India,Maharashtra,Chandrapur,"MIDC Khutala, Chandrapur - MPCB",16-06-2026 15:00:00,19.9775302,79.2337086,NH3,4,5,5
India,Maharashtra,Chandrapur,"MIDC Khutala, Chandrapur - MPCB",16-06-2026 15:00:00,19.9775302,79.2337086,CO,36,41,39
India,Maharashtra,Chandrapur,"MIDC Khutala, Chandrapur - MPCB",16-06-2026 15:00:00,19.9775302,79.2337086,OZONE,3,98,60
India,Maharashtra,Dombivli,"Kalu Nagar, Dombivli - MPCB",16-06-2026 15:00:00,19.2268427 ,73.0788456 ,CO,4,18,8
India,Maharashtra,Hingoli,"Ashta Vinayak Nagar, Hingoli - MPCB",16-06-2026 15:00:00,19.710842,77.151824,SO2,1,4,2
India,Maharashtra,Mumbai,"Borivali East, Mumbai - MPCB",16-06-2026 15:00:00,19.2243333,72.8658113,PM2.5,11,28,19
India,Maharashtra,Mumbai,"Borivali East, Mumbai - MPCB",16-06-2026 15:00:00,19.2243333,72.8658113,PM10,21,43,31
India,Maharashtra,Mumbai,"Byculla, Mumbai - BMC",16-06-2026 15:00:00,18.9767,72.8380,PM2.5,16,32,23
India,Maharashtra,Mumbai,"Chakala-Andheri East, Mumbai - IITM",16-06-2026 15:00:00,19.11074,72.86084,NO2,NA,NA,NA
India,Maharashtra,Mumbai,"Chembur, Mumbai - MPCB",16-06-2026 15:00:00,19.0364585,72.8954371,SO2,2,3,2
India,Maharashtra,Mumbai,"Chhatrapati Shivaji Intl. Airport (T2), Mumbai - MPCB",16-06-2026 15:00:00,19.10078,72.87462,NO2,26,26,26
India,Maharashtra,Mumbai,"Deonar, Mumbai - IITM",16-06-2026 15:00:00,19.04946,72.9230,NO2,4,15,7
India,Maharashtra,Mumbai,"Deonar, Mumbai - IITM",16-06-2026 15:00:00,19.04946,72.9230,OZONE,5,17,13
India,Maharashtra,Mumbai,"Ghatkopar, Mumbai - BMC",16-06-2026 15:00:00,19.083694,72.920967,PM10,26,95,65
India,Maharashtra,Mumbai,"Ghatkopar, Mumbai - BMC",16-06-2026 15:00:00,19.083694,72.920967,NO2,3,50,25
India,Maharashtra,Mumbai,"Ghatkopar, Mumbai - BMC",16-06-2026 15:00:00,19.083694,72.920967,NH3,3,20,9
India,Maharashtra,Mumbai,"Kherwadi_Bandra East, Mumbai - MPCB",16-06-2026 15:00:00,19.0632143,72.8456324,SO2,3,3,3
India,Maharashtra,Navi Mumbai,"Kopripada-Vashi, Navi Mumbai - MPCB",16-06-2026 15:00:00,19.090337,73.014232,NO2,5,12,9
India,Maharashtra,Navi Mumbai,"Kopripada-Vashi, Navi Mumbai - MPCB",16-06-2026 15:00:00,19.090337,73.014232,NH3,6,7,6
India,Maharashtra,Navi Mumbai,"Sector-2E Kalamboli, Navi Mumbai - MPCB",16-06-2026 15:00:00,19.02579,73.10297,CO,10,18,14
India,Maharashtra,Navi Mumbai,"Tondare-Taloja, Navi Mumbai - MPCB",16-06-2026 15:00:00,19.0630,73.1209,OZONE,5,55,29
India,Maharashtra,Pimpri-Chinchwad,"Bhosari,Pimpri-Chinchwad - IITM",16-06-2026 15:00:00,18.640051,73.848956,PM2.5,3,50,26
India,Maharashtra,Pimpri-Chinchwad,"Bhosari,Pimpri-Chinchwad - IITM",16-06-2026 15:00:00,18.640051,73.848956,OZONE,3,27,19
India,Maharashtra,Pimpri-Chinchwad,"Bhumkar Nagar, Pimpri-Chinchwad - IITM",16-06-2026 15:00:00,18.605770,73.749976,NO2,14,28,18
India,Maharashtra,Pimpri-Chinchwad,"Bhumkar Nagar, Pimpri-Chinchwad - IITM",16-06-2026 15:00:00,18.605770,73.749976,OZONE,4,37,21
India,Maharashtra,Pimpri-Chinchwad,"Park Street Wakad, Pimpri Chinchwad - MPCB",16-06-2026 15:00:00,18.59051,73.77946,NH3,NA,NA,NA
India,Madhya Pradesh,Jabalpur,"Marhatal, Jabalpur - MPPCB",16-06-2026 15:00:00,23.168606,79.932247,SO2,10,17,12
India,Madhya Pradesh,Jabalpur,"Marhatal, Jabalpur - MPPCB",16-06-2026 15:00:00,23.168606,79.932247,CO,30,119,68
India,Madhya Pradesh,Maihar,"Sahilara, Maihar - KJS Cements",16-06-2026 15:00:00,24.2613009,80.7231783,PM10,16,76,42
India,Madhya Pradesh,Pithampur,"Sector-2 Industrial Area, Pithampur - MPPCB",16-06-2026 15:00:00,22.624758,75.675238,NO2,NA,NA,NA
India,Madhya Pradesh,Ratlam,"Shasthri Nagar, Ratlam - IPCA Lab",16-06-2026 15:00:00,23.331731,75.045981,PM10,51,101,76
India,Madhya Pradesh,Sagar,"Civil Lines, Sagar - MPPCB",16-06-2026 15:00:00,23.838586,78.759431,PM2.5,11,76,44
India,Madhya Pradesh,Satna,"Bandhavgar Colony, Satna - Birla Cement",16-06-2026 15:00:00,24.58434363,80.8549414,SO2,18,21,19
India,Madhya Pradesh,Satna,"Bandhavgar Colony, Satna - Birla Cement",16-06-2026 15:00:00,24.58434363,80.8549414,OZONE,10,61,30
India,Maharashtra,Pimpri-Chinchwad,"Thergaon, Pimpri Chinchwad - MPCB",16-06-2026 15:00:00,18.616318,73.765797,NO2,9,18,12
India,Maharashtra,Pune,"Hadapsar, Pune - IITM",16-06-2026 15:00:00,18.501793,73.927532,PM2.5,32,71,51
India,Maharashtra,Pune,"Hadapsar, Pune - IITM",16-06-2026 15:00:00,18.501793,73.927532,NO2,5,65,35
India,Maharashtra,Pune,"Katraj Dairy, Pune - MPCB",16-06-2026 15:00:00,18.454450,73.854155,PM10,22,55,36
India,Maharashtra,Pune,"Savitribai Phule Pune University, Pune - MPCB",16-06-2026 15:00:00,18.547056,73.826908,CO,26,34,29
India,Maharashtra,Sangli,"Vijay Nagar, Sangli - MPCB",16-06-2026 15:00:00, 16.5038,74.3623,PM2.5,10,36,17
India,Maharashtra,Sangli,"Vijay Nagar, Sangli - MPCB",16-06-2026 15:00:00, 16.5038,74.3623,PM10,36,50,43
India,Maharashtra,Satara,"Koyana Nagar, Satara - MPCB",16-06-2026 15:00:00,17.696651,74.003387,NO2,2,18,6
India,Maharashtra,Jalna,"Old MIDC, Jalna - MPCB",16-06-2026 15:00:00,19.854616,75.905894,PM10,NA,NA,NA
India,Maharashtra,Jalna,"Old MIDC, Jalna - MPCB",16-06-2026 15:00:00,19.854616,75.905894,CO,9,16,12
India,Maharashtra,Kolhapur,"Shivaji University, Kolhapur - MPCB",16-06-2026 15:00:00,16.6870449,74.2505872,PM2.5,15,60,35
India,Maharashtra,Mira-Bhayandar,"Bhayandar West, Mira-Bhayandar - MPCB",16-06-2026 15:00:00,19.296481,72.840923,CO,10,20,11
India,Maharashtra,Mumbai,"Bandra Kurla Complex, Mumbai - MPCB",16-06-2026 15:00:00,19.065931,72.862131,PM2.5,17,47,32
India,Maharashtra,Mumbai,"Bandra Kurla Complex, Mumbai - MPCB",16-06-2026 15:00:00,19.065931,72.862131,PM10,40,59,50
India,Maharashtra,Mumbai,"Bandra Kurla Complex, Mumbai - MPCB",16-06-2026 15:00:00,19.065931,72.862131,NO2,31,32,31
India,Rajasthan,Hanumangarh,"Housing Board, Hanumangarh - RSPCB",16-06-2026 15:00:00,29.610750,74.283608,OZONE,10,56,24
India,Rajasthan,Jaipur,"Adarsh Nagar, Jaipur - RSPCB",16-06-2026 15:00:00,26.902909,75.836858,NH3,5,10,7
India,Rajasthan,Jaipur,"Mansarovar Sector-12, Jaipur - RSPCB",16-06-2026 15:00:00,26.843698,75.766894,PM2.5,13,63,42
India,Rajasthan,Jaipur,"Police Commissionerate, Jaipur - RSPCB",16-06-2026 15:00:00,26.9164092,75.7994901,PM2.5,65,96,81
India,Rajasthan,Jaipur,"Police Commissionerate, Jaipur - RSPCB",16-06-2026 15:00:00,26.9164092,75.7994901,SO2,9,35,20
India,Rajasthan,Jaipur,"RIICO Sitapura, Jaipur - RSPCB",16-06-2026 15:00:00,26.786682,75.827928,PM2.5,20,197,86
India,Rajasthan,Jaipur,"RIICO Sitapura, Jaipur - RSPCB",16-06-2026 15:00:00,26.786682,75.827928,NO2,13,64,28
India,Rajasthan,Jaipur,"RIICO Sitapura, Jaipur - RSPCB",16-06-2026 15:00:00,26.786682,75.827928,SO2,1,3,2
India,Rajasthan,Jaipur,"Sector-2 Murlipura, Jaipur - RSPCB",16-06-2026 15:00:00,26.960669,75.771817,PM10,54,235,113
India,Rajasthan,Jaipur,"Sector-2 Murlipura, Jaipur - RSPCB",16-06-2026 15:00:00,26.960669,75.771817,CO,4,52,19
India,Rajasthan,Jaipur,"Shastri Nagar, Jaipur - RSPCB",16-06-2026 15:00:00,26.9502929,75.730943,PM2.5,49,182,87
India,Rajasthan,Jaipur,"Shastri Nagar, Jaipur - RSPCB",16-06-2026 15:00:00,26.9502929,75.730943,PM10,81,156,117
India,Rajasthan,Jaisalmer,"Sadar Bazar, Jaisalmer - RSPCB",16-06-2026 15:00:00,26.912329,70.909168,PM2.5,20,217,61
India,Rajasthan,Jaisalmer,"Sadar Bazar, Jaisalmer - RSPCB",16-06-2026 15:00:00,26.912329,70.909168,PM10,39,402,134
India,Rajasthan,Jaisalmer,"Sadar Bazar, Jaisalmer - RSPCB",16-06-2026 15:00:00,26.912329,70.909168,OZONE,22,51,33
India,Rajasthan,Jalore,"Mudtra Sili, Jalore - RSPCB",16-06-2026 15:00:00,25.344694,72.626208,PM2.5,17,48,34
India,Rajasthan,Jalore,"Mudtra Sili, Jalore - RSPCB",16-06-2026 15:00:00,25.344694,72.626208,CO,9,28,16
India,Rajasthan,Jalore,"Mudtra Sili, Jalore - RSPCB",16-06-2026 15:00:00,25.344694,72.626208,OZONE,22,53,37
India,Rajasthan,Jhalawar,"Rajlaxmi Nagar, Jhalawar - RSPCB",16-06-2026 15:00:00,24.588397,76.172782,OZONE,13,81,47
India,Maharashtra,Solapur,"Dnyaneshwar Nagar, Solapur - MPCB",16-06-2026 15:00:00,17.6336264,75.9132495,NH3,6,19,10
India,Maharashtra,Solapur,"Dnyaneshwar Nagar, Solapur - MPCB",16-06-2026 15:00:00,17.6336264,75.9132495,CO,12,24,18
India,Maharashtra,Solapur,"Ratandeep Housing Society, Solapur - MPCB",16-06-2026 15:00:00,17.65439,75.90649,NH3,2,6,4
India,Maharashtra,Thane,"Kasarvadavali, Thane - MPCB",16-06-2026 15:00:00,19.26777,72.97182,NO2,20,77,34
India,Maharashtra,Thane,"Kasarvadavali, Thane - MPCB",16-06-2026 15:00:00,19.26777,72.97182,NH3,1,3,2
India,Maharashtra,Thane,"Kasarvadavali, Thane - MPCB",16-06-2026 15:00:00,19.26777,72.97182,SO2,1,2,1
India,Maharashtra,Thane,"Upvan Fort, Thane - MPCB",16-06-2026 15:00:00,19.222279,72.957979,SO2,2,13,5
India,Maharashtra,Ulhasnagar,"Sidhi Vinayak Nagar, Ulhasnagar - MPCB",16-06-2026 15:00:00,19.235581,73.159121,NH3,3,7,5
India,Maharashtra,Ulhasnagar,"Vithalwadi, Ulhasnagar - MPCB",16-06-2026 15:00:00,19.2307571 ,73.1551920,PM10,21,47,29
India,Maharashtra,Ulhasnagar,"Vithalwadi, Ulhasnagar - MPCB",16-06-2026 15:00:00,19.2307571 ,73.1551920,SO2,2,8,5
India,Maharashtra,Virar,"Bolinj, Virar - MPCB",16-06-2026 15:00:00,19.4458210,72.7988231,PM2.5,11,24,17
India,Maharashtra,Virar,"Bolinj, Virar - MPCB",16-06-2026 15:00:00,19.4458210,72.7988231,SO2,3,4,3
India,Meghalaya,Byrnihat,"15th Mile-Nongthymmai, Byrnihat - Meghalaya PCB",16-06-2026 15:00:00,26.05374,91.86796,CO,2,77,34
India,Meghalaya,Shillong,"JN Stadium, Shillong - Meghalaya PCB",16-06-2026 15:00:00,25.5803419,91.8942571,NO2,4,13,6
India,Nagaland,Kohima,"PWD Junction, Kohima - NPCB",16-06-2026 15:00:00,25.6635413,94.0989878,CO,4,11,4
India,Punjab,Mandi Gobindgarh,"RIMT University, Mandi Gobindgarh - PPCB",16-06-2026 15:00:00,30.649961,76.331442,SO2,NA,NA,NA
India,Punjab,Rupnagar,"Ratanpura, Rupnagar - Ambuja Cements",16-06-2026 15:00:00,31.0325454,76.5623046,PM10,1,422,187
India,Punjab,Rupnagar,"Ratanpura, Rupnagar - Ambuja Cements",16-06-2026 15:00:00,31.0325454,76.5623046,NO2,10,47,27
India,Punjab,Rupnagar,"Ratanpura, Rupnagar - Ambuja Cements",16-06-2026 15:00:00,31.0325454,76.5623046,SO2,11,17,14
India,Rajasthan,Alwar,"Moti Doongri, Alwar - RSPCB",16-06-2026 15:00:00,27.554793,76.611536,PM10,37,119,57
India,Rajasthan,Alwar,"Moti Doongri, Alwar - RSPCB",16-06-2026 15:00:00,27.554793,76.611536,CO,23,85,55
India,Rajasthan,Banswara,"Rati Talai, Banswara - RSPCB",16-06-2026 15:00:00,23.555190,74.440010,PM2.5,37,80,64
India,Rajasthan,Baran,"Bamboliya, Baran - RSPCB",16-06-2026 15:00:00,25.106006,76.469948,PM2.5,27,162,62
India,Rajasthan,Barmer,"Railway Colony, Barmer - RSPCB",16-06-2026 15:00:00,25.747299,71.393989,NO2,1,8,4
India,Rajasthan,Barmer,"Railway Colony, Barmer - RSPCB",16-06-2026 15:00:00,25.747299,71.393989,NH3,2,4,2
India,Rajasthan,Barmer,"Railway Colony, Barmer - RSPCB",16-06-2026 15:00:00,25.747299,71.393989,SO2,6,8,7
India,Rajasthan,Barmer,"Railway Colony, Barmer - RSPCB",16-06-2026 15:00:00,25.747299,71.393989,CO,10,23,15
India,Rajasthan,Bharatpur,"Krishna Nagar, Bharatpur - RSPCB",16-06-2026 15:00:00,27.215415,77.50873,PM2.5,15,69,31
India,Rajasthan,Bharatpur,"Krishna Nagar, Bharatpur - RSPCB",16-06-2026 15:00:00,27.215415,77.50873,OZONE,18,161,98
India,Rajasthan,Bhilwara,"Pratap Nagar, Bhilwara - RSPCB",16-06-2026 15:00:00,25.339605,74.618883,SO2,7,13,11
India,Rajasthan,Jodhpur,"Collectorate, Jodhpur - RSPCB",16-06-2026 15:00:00,26.268249,73.0193853,NH3,4,9,6
India,Rajasthan,Jodhpur,"Digari Kalan, Jodhpur - RSPCB",16-06-2026 15:00:00,26.295810,73.082283,NH3,3,3,3
India,Rajasthan,Jodhpur,"Digari Kalan, Jodhpur - RSPCB",16-06-2026 15:00:00,26.295810,73.082283,OZONE,26,50,42
India,Rajasthan,Jodhpur,"Jhalamand, Jodhpur - RSPCB",16-06-2026 15:00:00,26.215415,73.070156,NO2,4,10,6
India,Rajasthan,Jodhpur,"Mandor, Jodhpur - RSPCB",16-06-2026 15:00:00,26.358805,73.047444,PM10,52,118,85
India,Rajasthan,Jodhpur,"Mandor, Jodhpur - RSPCB",16-06-2026 15:00:00,26.358805,73.047444,CO,4,16,11
India,Rajasthan,Karauli,"Satyawati Vihar, Karauli - RSPCB",16-06-2026 15:00:00,26.506177,77.025989,PM2.5,NA,NA,NA
India,Rajasthan,Karauli,"Satyawati Vihar, Karauli - RSPCB",16-06-2026 15:00:00,26.506177,77.025989,PM10,NA,NA,NA
India,Rajasthan,Karauli,"Satyawati Vihar, Karauli - RSPCB",16-06-2026 15:00:00,26.506177,77.025989,CO,36,44,42
India,Rajasthan,Khairthal,"New Anaj Mandi, Khairthal - RSPCB",16-06-2026 15:00:00,27.8015617,76.6365217,SO2,4,6,5
India,Rajasthan,Kota,"Dhanmandi, Kota - RSPCB",16-06-2026 15:00:00,25.164090,75.858137,NH3,3,5,4
India,Rajasthan,Kota,"Nayapura, Kota - RSPCB",16-06-2026 15:00:00,25.196024,75.855668,NH3,4,9,5
India,Rajasthan,Kota,"Shrinath Puram, Kota - RSPCB",16-06-2026 15:00:00,25.14389,75.821256,NH3,3,12,5
India,Rajasthan,Kota,"Shrinath Puram, Kota - RSPCB",16-06-2026 15:00:00,25.14389,75.821256,OZONE,7,13,10
India,Rajasthan,Nagaur,"Karni Colony, Nagaur - RSPCB",16-06-2026 15:00:00,27.213494,73.734444,PM10,61,112,79
India,Rajasthan,Pali,"Indira Colony Vistar, Pali - RSPCB",16-06-2026 15:00:00,25.771061, 73.340227,PM2.5,50,120,83
India,Rajasthan,Pali,"Indira Colony Vistar, Pali - RSPCB",16-06-2026 15:00:00,25.771061, 73.340227,PM10,96,144,113
India,Rajasthan,Pali,"Indira Colony Vistar, Pali - RSPCB",16-06-2026 15:00:00,25.771061, 73.340227,NH3,1,5,4
India,Rajasthan,Pali,"Indira Colony Vistar, Pali - RSPCB",16-06-2026 15:00:00,25.771061, 73.340227,OZONE,8,71,39
India,Rajasthan,Pratapgarh,"Pragati Nagar, Pratapgarh - RSPCB",16-06-2026 15:00:00,24.041198,74.780702,NO2,9,16,11
India,Rajasthan,Rajsamand,"Dhoinda, Rajsamand - RSPCB",16-06-2026 15:00:00,25.036360,73.883502,PM10,30,81,49
India,Rajasthan,Sawai Madhopur,"Sahu Nagar, Sawai Madhopur - RSPCB",16-06-2026 15:00:00,26.031443,76.359327,NH3,2,5,3
India,Rajasthan,Sikar,"Radhakishan Pura, Sikar - RSPCB",16-06-2026 15:00:00,27.608912,75.153302,PM2.5,48,306,87
India,Rajasthan,Sikar,"Radhakishan Pura, Sikar - RSPCB",16-06-2026 15:00:00,27.608912,75.153302,PM10,66,500,187
India,Rajasthan,Sikar,"Radhakishan Pura, Sikar - RSPCB",16-06-2026 15:00:00,27.608912,75.153302,CO,7,26,12
India,Rajasthan,Sikar,"Radhakishan Pura, Sikar - RSPCB",16-06-2026 15:00:00,27.608912,75.153302,OZONE,33,91,67
India,Rajasthan,Sri Ganganagar,"Old City, Sri Ganganagar - RSPCB",16-06-2026 15:00:00,29.931624,73.864511,PM2.5,28,88,53
India,Rajasthan,Sri Ganganagar,"Old City, Sri Ganganagar - RSPCB",16-06-2026 15:00:00,29.931624,73.864511,PM10,23,127,63
India,Rajasthan,Sri Ganganagar,"Old City, Sri Ganganagar - RSPCB",16-06-2026 15:00:00,29.931624,73.864511,NH3,2,35,7
India,Odisha,Angul,"Hakimapada, Angul - OSPCB",16-06-2026 15:00:00,20.832874,85.104082,NH3,2,5,3
India,Odisha,Angul,"Hakimapada, Angul - OSPCB",16-06-2026 15:00:00,20.832874,85.104082,SO2,14,20,16
India,Odisha,Barbil,"Forest Office, Barbil - OSPCB",16-06-2026 15:00:00,22.1166054,85.3945546,NH3,1,1,1
India,Odisha,Baripada,"Meher Colony, Baripada - OSPCB",16-06-2026 15:00:00,21.941841,86.728318,PM2.5,33,78,53
India,Odisha,Baripada,"Meher Colony, Baripada - OSPCB",16-06-2026 15:00:00,21.941841,86.728318,NO2,3,17,11
India,Odisha,Bhubaneswar,"Lingraj Mandir, Bhubaneswar - OSPCB",16-06-2026 15:00:00,20.240790,85.836784,PM2.5,15,55,32
India,Odisha,Bhubaneswar,"Lingraj Mandir, Bhubaneswar - OSPCB",16-06-2026 15:00:00,20.240790,85.836784,NO2,8,32,15
India,Odisha,Bhubaneswar,"Patia, Bhubaneswar - OSPCB",16-06-2026 15:00:00,20.34652,85.81630,NO2,4,7,6
India,Odisha,Bhubaneswar,"Patia, Bhubaneswar - OSPCB",16-06-2026 15:00:00,20.34652,85.81630,OZONE,37,104,72
India,Odisha,Brajrajnagar,"GM Office, Brajrajnagar - OSPCB",16-06-2026 15:00:00,21.8004996,83.8396977,PM10,39,132,77
India,Odisha,Brajrajnagar,"GM Office, Brajrajnagar - OSPCB",16-06-2026 15:00:00,21.8004996,83.8396977,NH3,4,5,4
India,Odisha,Rourkela,"Sector-2, Rourkela - OSPCB",16-06-2026 15:00:00,22.24500000,84.88111111,PM10,38,82,62
India,Odisha,Talcher,"Talcher Coalfields,Talcher - OSPCB",16-06-2026 15:00:00,20.9360711,85.1707021,PM2.5,6,244,83
India,Odisha,Talcher,"Talcher Coalfields,Talcher - OSPCB",16-06-2026 15:00:00,20.9360711,85.1707021,OZONE,12,20,15
India,Odisha,Tensa,"Barsua Iron Ore Mines, Tensa - OSPCB",16-06-2026 15:00:00,21.869985,85.167016,SO2,47,77,61
India,Odisha,Tensa,"Barsua Iron Ore Mines, Tensa - OSPCB",16-06-2026 15:00:00,21.869985,85.167016,CO,15,70,52
India,Punjab,Jalandhar,"Civil Line, Jalandhar - PPCB",16-06-2026 15:00:00,31.321907,75.578914,OZONE,34,38,36
India,Punjab,Khanna,"Kalal Majra, Khanna - PPCB",16-06-2026 15:00:00,30.736056 ,76.209694,SO2,15,17,16
India,Punjab,Mandi Gobindgarh,"RIMT University, Mandi Gobindgarh - PPCB",16-06-2026 15:00:00,30.649961,76.331442,NH3,6,6,6
India,Rajasthan,Bundi,"New Colony, Bundi - RSPCB",16-06-2026 15:00:00,25.435774,75.644272,PM2.5,12,64,35
India,Rajasthan,Bundi,"New Colony, Bundi - RSPCB",16-06-2026 15:00:00,25.435774,75.644272,SO2,3,8,5
India,Rajasthan,Chittorgarh,"Shastri Nagar, Chittorgarh - RSPCB",16-06-2026 15:00:00,24.892047,74.623527,PM2.5,35,87,57
India,Rajasthan,Chittorgarh,"Shastri Nagar, Chittorgarh - RSPCB",16-06-2026 15:00:00,24.892047,74.623527,NO2,4,25,11
India,Rajasthan,Chittorgarh,"Shastri Nagar, Chittorgarh - RSPCB",16-06-2026 15:00:00,24.892047,74.623527,OZONE,26,98,58
India,Rajasthan,Dausa,"Khatikan Mohalla, Dausa - RSPCB",16-06-2026 15:00:00,26.895552,76.334753,PM10,56,455,117
India,Rajasthan,Dausa,"Khatikan Mohalla, Dausa - RSPCB",16-06-2026 15:00:00,26.895552,76.334753,NH3,3,10,6
India,Rajasthan,Dausa,"Khatikan Mohalla, Dausa - RSPCB",16-06-2026 15:00:00,26.895552,76.334753,OZONE,12,80,59
India,Rajasthan,Dungarpur,"Bhoiwada, Dungarpur - RSPCB",16-06-2026 15:00:00,23.837789,73.714926,SO2,4,10,6
India,Rajasthan,Hanumangarh,"Housing Board, Hanumangarh - RSPCB",16-06-2026 15:00:00,29.610750,74.283608,PM2.5,7,68,20
India,Odisha,Cuttack,"CDA Area, Cuttack - OSPCB",16-06-2026 15:00:00,20.48891     ,85.84768     ,PM10,49,84,62
India,Odisha,Cuttack,"CDA Area, Cuttack - OSPCB",16-06-2026 15:00:00,20.48891     ,85.84768     ,NO2,12,20,16
India,Odisha,Keonjhar,"Jagamohanpur, Keonjhar - OSPCB",16-06-2026 15:00:00,21.643900,85.599355,PM2.5,25,58,38
India,Odisha,Keonjhar,"Jagamohanpur, Keonjhar - OSPCB",16-06-2026 15:00:00,21.643900,85.599355,PM10,56,80,63
India,Odisha,Nayagarh,"Dabuna, Nayagarh - OSPCB",16-06-2026 15:00:00,21.847279,85.416905,SO2,NA,NA,NA
India,Uttar_Pradesh,Ghaziabad,"Sanjay Nagar, Ghaziabad - UPPCB",16-06-2026 15:00:00,28.685382,77.453839,NO2,21,74,48
India,Uttar_Pradesh,Ghaziabad,"Sanjay Nagar, Ghaziabad - UPPCB",16-06-2026 15:00:00,28.685382,77.453839,SO2,9,33,13
India,Uttar_Pradesh,Ghaziabad,"Ved Vihar-Loni, Ghaziabad - UPPCB",16-06-2026 15:00:00,28.739153,77.273668,NO2,NA,NA,NA
India,Uttar_Pradesh,Ghaziabad,"Ved Vihar-Loni, Ghaziabad - UPPCB",16-06-2026 15:00:00,28.739153,77.273668,NH3,NA,NA,NA
India,Uttar_Pradesh,Ghaziabad,"Ved Vihar-Loni, Ghaziabad - UPPCB",16-06-2026 15:00:00,28.739153,77.273668,SO2,NA,NA,NA
India,Uttar_Pradesh,Ghaziabad,"Ved Vihar-Loni, Ghaziabad - UPPCB",16-06-2026 15:00:00,28.739153,77.273668,OZONE,10,34,26
India,Uttar_Pradesh,Gorakhpur,"Madan Mohan Malaviya University of Technology, Gorakhpur - UPPCB",16-06-2026 15:00:00,26.730136,83.433859,NH3,1,1,1
India,Uttar_Pradesh,Gorakhpur,"Madan Mohan Malaviya University of Technology, Gorakhpur - UPPCB",16-06-2026 15:00:00,26.730136,83.433859,CO,4,6,5
India,Uttar_Pradesh,Greater Noida,"Knowledge Park - V, Greater Noida - UPPCB",16-06-2026 15:00:00,28.557054,77.453663,PM10,146,500,258
India,Uttar_Pradesh,Greater Noida,"Knowledge Park - V, Greater Noida - UPPCB",16-06-2026 15:00:00,28.557054,77.453663,NO2,30,119,76
India,Uttar_Pradesh,Greater Noida,"Knowledge Park - V, Greater Noida - UPPCB",16-06-2026 15:00:00,28.557054,77.453663,NH3,7,16,9
India,Uttar_Pradesh,Greater Noida,"Knowledge Park - V, Greater Noida - UPPCB",16-06-2026 15:00:00,28.557054,77.453663,CO,6,68,41
India,Uttar_Pradesh,Hapur,"Anand Vihar, Hapur - UPPCB",16-06-2026 15:00:00,28.725645,77.749675,PM10,NA,NA,NA
India,Uttar_Pradesh,Hapur,"Anand Vihar, Hapur - UPPCB",16-06-2026 15:00:00,28.725645,77.749675,SO2,1,61,34
India,Uttar_Pradesh,Jhansi,"Shivaji Nagar, Jhansi - UPPCB",16-06-2026 15:00:00,25.4547,78.6039,SO2,12,26,19
India,Uttar_Pradesh,Jhansi,"Shivaji Nagar, Jhansi - UPPCB",16-06-2026 15:00:00,25.4547,78.6039,CO,5,12,9
India,Uttar_Pradesh,Kanpur,"FTI Kidwai Nagar, Kanpur - UPPCB",16-06-2026 15:00:00,26.428282,80.327067,NH3,3,3,3
India,Uttar_Pradesh,Kanpur,"NSI Kalyanpur, Kanpur - UPPCB",16-06-2026 15:00:00,26.509954,80.249612,PM10,68,129,106
India,Uttar_Pradesh,Kanpur,"NSI Kalyanpur, Kanpur - UPPCB",16-06-2026 15:00:00,26.509954,80.249612,CO,14,28,22
India,Uttar_Pradesh,Mathura,"Pali Dungra, Mathura - UPPCB",16-06-2026 15:00:00,27.410954 ,77.550619 ,PM2.5,52,140,75
India,Uttar_Pradesh,Mathura,"Pali Dungra, Mathura - UPPCB",16-06-2026 15:00:00,27.410954 ,77.550619 ,NH3,1,3,2
India,Uttar_Pradesh,Meerut,"Ganga Nagar, Meerut - UPPCB",16-06-2026 15:00:00,28.999264,77.7590354,PM10,56,423,141
India,Uttar_Pradesh,Meerut,"Ganga Nagar, Meerut - UPPCB",16-06-2026 15:00:00,28.999264,77.7590354,NO2,30,67,44
India,Uttar_Pradesh,Meerut,"Ganga Nagar, Meerut - UPPCB",16-06-2026 15:00:00,28.999264,77.7590354,CO,34,62,44
India,Uttar_Pradesh,Meerut,"Jai Bhim Nagar, Meerut - UPPCB",16-06-2026 15:00:00,28.9535882,77.7622941,CO,24,70,34
India,Uttar_Pradesh,Meerut,"Pallavpuram Phase 2, Meerut - UPPCB",16-06-2026 15:00:00,29.063510,77.709723,PM2.5,5,193,85
India,Uttar_Pradesh,Meerut,"Pallavpuram Phase 2, Meerut - UPPCB",16-06-2026 15:00:00,29.063510,77.709723,NO2,20,86,52
India,Uttar_Pradesh,Modinagar,"SRM University, Modinagar - UPPCB",16-06-2026 15:00:00,28.798171,77.540243,PM10,86,196,142
India,Uttar_Pradesh,Moradabad,"Buddhi Vihar, Moradabad - UPPCB",16-06-2026 15:00:00,28.83526,78.74460,NH3,5,5,5
India,Uttar_Pradesh,Moradabad,"Employment Office, Moradabad - UPPCB",16-06-2026 15:00:00,28.88528,78.73880,NO2,19,20,20
India,Uttar_Pradesh,Moradabad,"Employment Office, Moradabad - UPPCB",16-06-2026 15:00:00,28.88528,78.73880,SO2,30,37,31
India,Uttar_Pradesh,Moradabad,"Employment Office, Moradabad - UPPCB",16-06-2026 15:00:00,28.88528,78.73880,OZONE,5,46,27
India,Uttar_Pradesh,Moradabad,"Jigar Colony, Moradabad - UPPCB",16-06-2026 15:00:00,28.856664,78.772638,PM2.5,23,76,43
India,Uttar_Pradesh,Moradabad,"Jigar Colony, Moradabad - UPPCB",16-06-2026 15:00:00,28.856664,78.772638,PM10,82,199,105
India,Uttar_Pradesh,Moradabad,"Kashiram Nagar, Moradabad - UPPCB",16-06-2026 15:00:00,28.849399,78.742362,PM10,74,196,102
India,Uttar_Pradesh,Moradabad,"Kashiram Nagar, Moradabad - UPPCB",16-06-2026 15:00:00,28.849399,78.742362,NO2,24,25,25
India,Uttar_Pradesh,Kanpur,"Nehru Nagar, Kanpur - UPPCB",16-06-2026 15:00:00,26.4703136,80.3229863,SO2,9,12,12
India,Uttar_Pradesh,Khora,"Prashant Garden, Khora - UPPCB",16-06-2026 15:00:00,28.61119,77.34206,NH3,9,25,14
India,Uttar_Pradesh,Khurja,"Kalindi Kunj, Khurja - UPPCB",16-06-2026 15:00:00,28.2348927,77.8683002,PM2.5,18,156,52
India,Uttar_Pradesh,Khurja,"Kalindi Kunj, Khurja - UPPCB",16-06-2026 15:00:00,28.2348927,77.8683002,SO2,10,10,10
India,Uttar_Pradesh,Khurja,"Kalindi Kunj, Khurja - UPPCB",16-06-2026 15:00:00,28.2348927,77.8683002,OZONE,21,22,21
India,Uttar_Pradesh,Lucknow,"B R Ambedkar University, Lucknow - UPPCB",16-06-2026 15:00:00,26.766433,80.927299,SO2,29,31,29
India,Uttar_Pradesh,Lucknow,"Kendriya Vidyalaya, Lucknow - CPCB",16-06-2026 15:00:00,26.906111,80.948222,CO,36,84,54
India,Uttar_Pradesh,Lucknow,"Kukrail Picnic Spot-1, Lucknow - UPPCB",16-06-2026 15:00:00,26.90723,80.98579,PM2.5,24,99,49
India,Uttar_Pradesh,Lucknow,"Kukrail Picnic Spot-1, Lucknow - UPPCB",16-06-2026 15:00:00,26.90723,80.98579,NH3,6,6,6
India,Uttar_Pradesh,Lucknow,"Kukrail Picnic Spot-1, Lucknow - UPPCB",16-06-2026 15:00:00,26.90723,80.98579,OZONE,35,109,66
India,Uttar_Pradesh,Lucknow,"Lalbagh, Lucknow - CPCB",16-06-2026 15:00:00,26.8458805,80.9365541,PM2.5,1,328,76
India,Uttar_Pradesh,Lucknow,"Lalbagh, Lucknow - CPCB",16-06-2026 15:00:00,26.8458805,80.9365541,NH3,12,19,15
India,Uttar_Pradesh,Lucknow,"Talkatora District Industries Center, Lucknow - CPCB",16-06-2026 15:00:00,26.83399722,80.8917361,NO2,34,42,35
India,Uttar_Pradesh,Lucknow,"Talkatora District Industries Center, Lucknow - CPCB",16-06-2026 15:00:00,26.83399722,80.8917361,SO2,2,10,6
India,Telangana,Hyderabad,"Somajiguda, Hyderabad - TSPCB",16-06-2026 15:00:00,17.417094,78.457437,SO2,14,17,16
India,Telangana,Hyderabad,"Zoo Park, Hyderabad - TSPCB",16-06-2026 15:00:00,17.349694,78.451437,NH3,2,3,2
India,Telangana,Hyderabad,"Zoo Park, Hyderabad - TSPCB",16-06-2026 15:00:00,17.349694,78.451437,SO2,1,2,2
India,Telangana,Hyderabad,"Zoo Park, Hyderabad - TSPCB",16-06-2026 15:00:00,17.349694,78.451437,CO,1,40,31
India,Uttar_Pradesh,Agra,"Manoharpur, Agra - UPPCB",16-06-2026 15:00:00,27.23711,78.01936,PM2.5,18,54,40
India,Uttar_Pradesh,Agra,"Manoharpur, Agra - UPPCB",16-06-2026 15:00:00,27.23711,78.01936,NO2,24,26,25
India,Uttar_Pradesh,Agra,"Rohta, Agra - UPPCB",16-06-2026 15:00:00,27.106972,78.000111,PM10,87,480,145
India,Uttar_Pradesh,Agra,"Rohta, Agra - UPPCB",16-06-2026 15:00:00,27.106972,78.000111,OZONE,8,12,10
India,Uttar_Pradesh,Agra,"Sanjay Palace, Agra - UPPCB",16-06-2026 15:00:00,27.19865833,78.00598056,NO2,9,12,10
India,Uttar_Pradesh,Agra,"Sanjay Palace, Agra - UPPCB",16-06-2026 15:00:00,27.19865833,78.00598056,OZONE,7,97,71
India,Uttar_Pradesh,Agra,"Sector-3B Avas Vikas Colony, Agra - UPPCB",16-06-2026 15:00:00,27.19412,77.96237,OZONE,9,35,14
India,Uttar_Pradesh,Agra,"Shahjahan Garden, Agra - UPPCB",16-06-2026 15:00:00,27.169338,78.03582,PM2.5,39,163,87
India,Uttar_Pradesh,Agra,"Shastripuram, Agra - UPPCB",16-06-2026 15:00:00,27.19862,77.92066,NO2,24,25,24
India,Uttar_Pradesh,Agra,"Shastripuram, Agra - UPPCB",16-06-2026 15:00:00,27.19862,77.92066,NH3,3,3,3
India,Uttar_Pradesh,Moradabad,"Kashiram Nagar, Moradabad - UPPCB",16-06-2026 15:00:00,28.849399,78.742362,CO,27,35,31
India,Uttar_Pradesh,Moradabad,"Transport Nagar, Moradabad - UPPCB",16-06-2026 15:00:00,28.802625,78.753728,CO,41,52,46
India,Uttar_Pradesh,Muzaffarnagar,"New Mandi, Muzaffarnagar - UPPCB",16-06-2026 15:00:00,29.4723508,77.7194031,NO2,23,76,37
India,Uttar_Pradesh,Noida,"Sector-116, Noida - UPPCB",16-06-2026 15:00:00,28.569230,77.393848,PM2.5,7,319,108
India,Uttar_Pradesh,Noida,"Sector-116, Noida - UPPCB",16-06-2026 15:00:00,28.569230,77.393848,NO2,31,142,83
India,Uttar_Pradesh,Noida,"Sector-116, Noida - UPPCB",16-06-2026 15:00:00,28.569230,77.393848,OZONE,6,95,59
India,Uttar_Pradesh,Prayagraj,"Jhunsi, Prayagraj - UPPCB",16-06-2026 15:00:00,25.425602,81.917152,PM2.5,5,67,43
India,Uttar_Pradesh,Prayagraj,"Jhunsi, Prayagraj - UPPCB",16-06-2026 15:00:00,25.425602,81.917152,NO2,6,6,6
India,Uttar_Pradesh,Prayagraj,"Motilal Nehru NIT, Prayagraj - UPPCB",16-06-2026 15:00:00,25.494,81.863,PM10,29,134,84
India,Uttar_Pradesh,Prayagraj,"Motilal Nehru NIT, Prayagraj - UPPCB",16-06-2026 15:00:00,25.494,81.863,OZONE,5,47,31
India,Uttar_Pradesh,Prayagraj,"Nagar Nigam, Prayagraj - UPPCB",16-06-2026 15:00:00,25.44919916 ,81.82735986 ,NO2,5,5,5
India,Uttar_Pradesh,Prayagraj,"Nagar Nigam, Prayagraj - UPPCB",16-06-2026 15:00:00,25.44919916 ,81.82735986 ,CO,11,31,17
India,Uttar_Pradesh,Prayagraj,"Nagar Nigam, Prayagraj - UPPCB",16-06-2026 15:00:00,25.44919916 ,81.82735986 ,OZONE,15,25,21
India,Telangana,Hyderabad,"IDA Pashamylaram, Hyderabad - TSPCB",16-06-2026 15:00:00,17.5316895,78.218939,NO2,4,51,26
India,Telangana,Hyderabad,"IDA Pashamylaram, Hyderabad - TSPCB",16-06-2026 15:00:00,17.5316895,78.218939,OZONE,29,31,30
India,Telangana,Hyderabad,"IITH Kandi, Hyderabad - TSPCB",16-06-2026 15:00:00,17.585705,78.126199,OZONE,15,33,23
India,Telangana,Hyderabad,"Kokapet, Hyderabad - TSPCB",16-06-2026 15:00:00,17.393559,78.339194,NO2,11,14,12
India,Telangana,Hyderabad,"Nacharam_TSIIC IALA, Hyderabad - TSPCB",16-06-2026 15:00:00,17.429398,78.569354,PM2.5,47,85,56
India,Telangana,Hyderabad,"Nacharam_TSIIC IALA, Hyderabad - TSPCB",16-06-2026 15:00:00,17.429398,78.569354,NH3,5,7,6
India,Telangana,Hyderabad,"Nacharam_TSIIC IALA, Hyderabad - TSPCB",16-06-2026 15:00:00,17.429398,78.569354,CO,26,42,31
India,Telangana,Hyderabad,"New Malakpet, Hyderabad - TSPCB",16-06-2026 15:00:00,17.37206,78.50864,CO,22,37,29
India,Telangana,Hyderabad,"Ramachandrapuram, Hyderabad - TSPCB",16-06-2026 15:00:00,17.528544,78.286195,PM10,70,92,77
India,Telangana,Hyderabad,"Ramachandrapuram, Hyderabad - TSPCB",16-06-2026 15:00:00,17.528544,78.286195,NH3,3,5,4
India,Telangana,Hyderabad,"Sanathnagar, Hyderabad - TSPCB",16-06-2026 15:00:00,17.4559458,78.4332152,OZONE,15,91,24
India,Telangana,Hyderabad,"Somajiguda, Hyderabad - TSPCB",16-06-2026 15:00:00,17.417094,78.457437,PM10,68,403,97
India,TamilNadu,Chennai,"Velachery Res. Area, Chennai - CPCB",16-06-2026 15:00:00,13.0052189,80.2398125,SO2,5,7,6
India,TamilNadu,Chennai,"Velachery Res. Area, Chennai - CPCB",16-06-2026 15:00:00,13.0052189,80.2398125,OZONE,9,15,13
India,TamilNadu,Coimbatore,"SIDCO Kurichi, Coimbatore - TNPCB",16-06-2026 15:00:00,10.942451,76.978996,PM10,24,56,42
India,TamilNadu,Cuddalore,"Semmandalam, Cuddalore - TNPCB",16-06-2026 15:00:00,11.7637683,79.7499835,NH3,6,6,6
India,TamilNadu,Madurai,"Uchapatti, Madurai - TNPCB",16-06-2026 15:00:00,9.865935,78.022669,SO2,NA,NA,NA
India,TamilNadu,Perundurai,"SIPCOT Industrial Park, Perundurai - TNPCB",16-06-2026 15:00:00,11.258242,77.552761,PM10,28,84,57
India,TamilNadu,Perundurai,"SIPCOT Industrial Park, Perundurai - TNPCB",16-06-2026 15:00:00,11.258242,77.552761,CO,33,44,40
India,TamilNadu,Thoothukudi,"Meelavittan, Thoothukudi - TNPCB",16-06-2026 15:00:00,8.816428 ,78.099039,CO,22,64,31
India,TamilNadu,Thoothukudi,"Meelavittan, Thoothukudi - TNPCB",16-06-2026 15:00:00,8.816428 ,78.099039,OZONE,25,38,31
India,Telangana,Hyderabad,"Central University, Hyderabad - TSPCB",16-06-2026 15:00:00,17.460103,78.334361,OZONE,8,15,11
India,Sikkim,Gangtok,"Zero Point GICI, Gangtok - SSPCB",16-06-2026 15:00:00,27.338530,88.614099,PM2.5,19,57,32
India,Sikkim,Gangtok,"Zero Point GICI, Gangtok - SSPCB",16-06-2026 15:00:00,27.338530,88.614099,PM10,16,51,29
India,Sikkim,Gangtok,"Zero Point GICI, Gangtok - SSPCB",16-06-2026 15:00:00,27.338530,88.614099,NO2,7,8,8
India,Sikkim,Gangtok,"Zero Point GICI, Gangtok - SSPCB",16-06-2026 15:00:00,27.338530,88.614099,SO2,1,1,1
India,TamilNadu,Chennai,"Arumbakkam, Chennai - TNPCB",16-06-2026 15:00:00,13.0664,80.2112 ,PM2.5,30,71,47
India,TamilNadu,Chennai,"Kodungaiyur, Chennai - TNPCB",16-06-2026 15:00:00,13.1278,80.2642,CO,26,36,29
India,TamilNadu,Chennai,"Manali Village, Chennai - TNPCB",16-06-2026 15:00:00,13.1662,80.2584,NH3,2,8,3
India,TamilNadu,Chennai,"Manali Village, Chennai - TNPCB",16-06-2026 15:00:00,13.1662,80.2584,SO2,13,16,14
India,TamilNadu,Chennai,"Manali, Chennai - CPCB",16-06-2026 15:00:00,13.164544,80.26285,NH3,6,6,6
India,TamilNadu,Chennai,"Perungudi, Chennai - TNPCB",16-06-2026 15:00:00,12.9533,80.2357,OZONE,1,7,4
India,TamilNadu,Chennai,"Royapuram, Chennai - TNPCB",16-06-2026 15:00:00,13.1036,80.2909,PM10,45,60,53
India,TamilNadu,Chennai,"Royapuram, Chennai - TNPCB",16-06-2026 15:00:00,13.1036,80.2909,NO2,12,15,13
India,Uttar_Pradesh,Bulandshahr,"Yamunapuram, Bulandshahr - UPPCB",16-06-2026 15:00:00,28.406963,77.849831,CO,24,63,41
India,Uttar_Pradesh,Firozabad,"Nagla Bhau, Firozabad - UPPCB",16-06-2026 15:00:00,27.168897,78.376960,SO2,20,55,32
India,Uttar_Pradesh,Ghaziabad,"Indirapuram, Ghaziabad - UPPCB",16-06-2026 15:00:00,28.646233,77.358075,NO2,8,44,24
India,Uttar_Pradesh,Ghaziabad,"Loni, Ghaziabad - UPPCB",16-06-2026 15:00:00,28.757294,77.278792,PM10,52,334,167
India,Uttar_Pradesh,Ghaziabad,"Loni, Ghaziabad - UPPCB",16-06-2026 15:00:00,28.757294,77.278792,SO2,20,50,32
India,Uttar_Pradesh,Ghaziabad,"Loni, Ghaziabad - UPPCB",16-06-2026 15:00:00,28.757294,77.278792,CO,20,100,32
India,Uttar_Pradesh,Ghaziabad,"Sanjay Nagar, Ghaziabad - UPPCB",16-06-2026 15:00:00,28.685382,77.453839,PM2.5,17,310,96
India,Uttar_Pradesh,Ghaziabad,"Sanjay Nagar, Ghaziabad - UPPCB",16-06-2026 15:00:00,28.685382,77.453839,PM10,73,258,145
India,Uttar_Pradesh,Varanasi,"Bhelupur, Varanasi - UPPCB",16-06-2026 15:00:00,25.301778,82.996789,NH3,1,1,1
India,Uttar_Pradesh,Varanasi,"IESD Banaras Hindu University, Varanasi - UPPCB",16-06-2026 15:00:00,25.262326,82.995408,PM2.5,19,46,33
India,Uttar_Pradesh,Varanasi,"IESD Banaras Hindu University, Varanasi - UPPCB",16-06-2026 15:00:00,25.262326,82.995408,NO2,2,2,2
India,Uttar_Pradesh,Varanasi,"IESD Banaras Hindu University, Varanasi - UPPCB",16-06-2026 15:00:00,25.262326,82.995408,OZONE,2,7,4
India,Uttar_Pradesh,Vrindavan,"Omex Eternity, Vrindavan - UPPCB",16-06-2026 15:00:00,27.5714090,77.6557570,SO2,25,39,28
India,Uttar_Pradesh,Vrindavan,"Omex Eternity, Vrindavan - UPPCB",16-06-2026 15:00:00,27.5714090,77.6557570,OZONE,15,16,16
India,Uttarakhand,Dehradun,"Doon University, Dehradun - UKPCB",16-06-2026 15:00:00,30.269444,78.044167,CO,28,38,32
India,West_Bengal,Asansol,"Asansol Court Area, Asansol - WBPCB",16-06-2026 15:00:00,23.685297,86.945968,SO2,11,15,14
India,West_Bengal,Asansol,"Trivenidevi Bhalotia College, Asansol - WBPCB",16-06-2026 15:00:00,23.616515,87.119133,PM2.5,28,58,42
India,West_Bengal,Barrackpore,"SVSPA Campus, Barrackpore - WBPCB",16-06-2026 15:00:00,22.7605581,88.3617589,CO,26,35,28
India,West_Bengal,Durgapur,"PCBL Residential Complex, Durgapur - WBPCB",16-06-2026 15:00:00,23.5087640,87.3544400,SO2,10,10,10
India,West_Bengal,Haldia,"Priyambada Housing Estate, Haldia - WBPCB",16-06-2026 15:00:00,22.06047,88.109737,NO2,5,25,9
India,West_Bengal,Haldia,"Priyambada Housing Estate, Haldia - WBPCB",16-06-2026 15:00:00,22.06047,88.109737,OZONE,19,30,25
India,West_Bengal,Howrah,"Belur Math, Howrah - WBPCB",16-06-2026 15:00:00,22.629801,88.352017,CO,8,38,20
India,West_Bengal,Howrah,"Belur Math, Howrah - WBPCB",16-06-2026 15:00:00,22.629801,88.352017,OZONE,16,61,36
India,West_Bengal,Howrah,"Botanical Garden, Howrah - WBPCB",16-06-2026 15:00:00,22.554954,88.292568,SO2,5,14,10
India,West_Bengal,Howrah,"Botanical Garden, Howrah - WBPCB",16-06-2026 15:00:00,22.554954,88.292568,OZONE,5,33,19
India,West_Bengal,Howrah,"Ghusuri, Howrah - WBPCB",16-06-2026 15:00:00,22.611968,88.347422,NH3,NA,NA,NA
India,West_Bengal,Howrah,"Padmapukur, Howrah - WBPCB",16-06-2026 15:00:00,22.5687319,88.2797276,PM2.5,31,58,39
India,West_Bengal,Kolkata,"Ballygunge, Kolkata - WBPCB",16-06-2026 15:00:00,22.5367507,88.3638022,NO2,15,30,20
India,West_Bengal,Kolkata,"Ballygunge, Kolkata - WBPCB",16-06-2026 15:00:00,22.5367507,88.3638022,NH3,6,8,7
India,West_Bengal,Kolkata,"Fort William, Kolkata - WBPCB",16-06-2026 15:00:00,22.556640,88.342674,PM2.5,38,74,54
India,West_Bengal,Kolkata,"Fort William, Kolkata - WBPCB",16-06-2026 15:00:00,22.556640,88.342674,PM10,40,78,57
India,West_Bengal,Kolkata,"Fort William, Kolkata - WBPCB",16-06-2026 15:00:00,22.556640,88.342674,NH3,9,9,9
India,West_Bengal,Kolkata,"Jadavpur, Kolkata - WBPCB",16-06-2026 15:00:00,22.49929,88.36917,OZONE,17,308,65
India,West_Bengal,Kolkata,"Rabindra Bharati University, Kolkata - WBPCB",16-06-2026 15:00:00,22.627847,88.380669,PM10,39,86,58
India,West_Bengal,Kolkata,"Rabindra Bharati University, Kolkata - WBPCB",16-06-2026 15:00:00,22.627847,88.380669,NO2,26,93,41
India,West_Bengal,Kolkata,"Rabindra Bharati University, Kolkata - WBPCB",16-06-2026 15:00:00,22.627847,88.380669,SO2,8,16,10
India,West_Bengal,Kolkata,"Rabindra Sarobar, Kolkata - WBPCB",16-06-2026 15:00:00,22.51106,88.35142,SO2,4,7,6
India,West_Bengal,Kolkata,"Victoria, Kolkata - WBPCB",16-06-2026 15:00:00,22.5448082,88.3403691,NO2,21,24,22
India,West_Bengal,Siliguri,"Ward-32 Bapupara, Siliguri - WBPCB",16-06-2026 15:00:00,26.6879226,88.4152495,PM10,10,59,36
India,West_Bengal,Siliguri,"Ward-32 Bapupara, Siliguri - WBPCB",16-06-2026 15:00:00,26.6879226,88.4152495,NH3,18,29,20
India,West_Bengal,Siliguri,"Ward-32 Bapupara, Siliguri - WBPCB",16-06-2026 15:00:00,26.6879226,88.4152495,SO2,6,8,7
India,Assam,Guwahati,"LGBI Airport, Guwahati - PCBA",16-06-2026 15:00:00,26.10887,91.589544,NO2,12,18,15
India,Assam,Guwahati,"LGBI Airport, Guwahati - PCBA",16-06-2026 15:00:00,26.10887,91.589544,SO2,8,14,12
India,Assam,Guwahati,"Railway Colony, Guwahati - PCBA",16-06-2026 15:00:00,26.181742,91.78063,SO2,35,41,37
India,Assam,Nagaon,"Christianpatty, Nagaon - PCBA",16-06-2026 15:00:00,26.349082,92.68449,PM2.5,35,87,55
India,Assam,Nagaon,"Christianpatty, Nagaon - PCBA",16-06-2026 15:00:00,26.349082,92.68449,PM10,29,80,49
India,Assam,Nagaon,"Christianpatty, Nagaon - PCBA",16-06-2026 15:00:00,26.349082,92.68449,OZONE,5,13,11
India,Assam,Nalbari,"Bata Chowk, Nalbari - PCBA",16-06-2026 15:00:00,26.446912,91.439057,OZONE,19,19,19
India,Assam,Silchar,"Tarapur, Silchar - PCBA",16-06-2026 15:00:00,24.82827,92.79525,PM10,46,64,53
India,Andhra_Pradesh,Guntur,"Rajendra Nagar North, Guntur - APPCB",16-06-2026 15:00:00,16.316553,80.413302,PM2.5,61,73,67
India,Andhra_Pradesh,Guntur,"Rajendra Nagar North, Guntur - APPCB",16-06-2026 15:00:00,16.316553,80.413302,CO,8,52,29
India,Andhra_Pradesh,Kadapa,"Yerramukkapalli, Kadapa - APPCB",16-06-2026 15:00:00,14.465052,78.824187,PM2.5,58,74,61
India,Andhra_Pradesh,Kadapa,"Yerramukkapalli, Kadapa - APPCB",16-06-2026 15:00:00,14.465052,78.824187,SO2,8,19,10
India,Andhra_Pradesh,Kadapa,"Yerramukkapalli, Kadapa - APPCB",16-06-2026 15:00:00,14.465052,78.824187,OZONE,36,55,53
India,Andhra_Pradesh,Machilipatnam,"Srinivas Nagar Colony, Machilipatnam - APPCB",16-06-2026 15:00:00,16.186555,81.13219,PM2.5,41,364,95
India,Andhra_Pradesh,Amaravati,"Secretariat, Amaravati - APPCB",16-06-2026 15:00:00,16.5150833,80.5181667,NH3,NA,NA,NA
India,Andhra_Pradesh,Amaravati,"Secretariat, Amaravati - APPCB",16-06-2026 15:00:00,16.5150833,80.5181667,CO,4,18,10
India,Andhra_Pradesh,Anantapur,"Gulzarpet, Anantapur - APPCB",16-06-2026 15:00:00,14.675886,77.593027,PM10,54,124,79
India,Andhra_Pradesh,Anantapur,"Gulzarpet, Anantapur - APPCB",16-06-2026 15:00:00,14.675886,77.593027,CO,14,104,21
India,Andhra_Pradesh,Chittoor,"Gangineni Cheruvu, Chittoor - APPCB",16-06-2026 15:00:00,13.204880,79.097889,NH3,6,8,7
India,Andhra_Pradesh,Tirupati,"Vaikuntapuram, Tirupati - APPCB",16-06-2026 15:00:00,13.615387,79.409230,NH3,5,7,7
India,Andhra_Pradesh,Tirupati,"Vaikuntapuram, Tirupati - APPCB",16-06-2026 15:00:00,13.615387,79.409230,SO2,9,17,14
India,Andhra_Pradesh,Vijayawada,"HB Colony, Vijayawada - APPCB",16-06-2026 15:00:00,16.536107,80.594233,PM2.5,57,85,66
India,Andhra_Pradesh,Vijayawada,"HB Colony, Vijayawada - APPCB",16-06-2026 15:00:00,16.536107,80.594233,PM10,61,94,72
India,Andhra_Pradesh,Vijayawada,"HB Colony, Vijayawada - APPCB",16-06-2026 15:00:00,16.536107,80.594233,NH3,3,6,5
India,Andhra_Pradesh,Vijayawada,"HB Colony, Vijayawada - APPCB",16-06-2026 15:00:00,16.536107,80.594233,OZONE,13,55,20
India,Assam,Byrnihat,"Central Academy for SFS, Byrnihat - PCBA",16-06-2026 15:00:00,26.071318,91.87488,PM10,61,164,101
India,Assam,Byrnihat,"Central Academy for SFS, Byrnihat - PCBA",16-06-2026 15:00:00,26.071318,91.87488,NO2,5,9,7
India,Assam,Byrnihat,"Central Academy for SFS, Byrnihat - PCBA",16-06-2026 15:00:00,26.071318,91.87488,OZONE,18,59,48
India,Assam,Guwahati,"IITG, Guwahati - PCBA",16-06-2026 15:00:00,26.2028636,91.70046436,NO2,1,2,1
India,Assam,Guwahati,"LGBI Airport, Guwahati - PCBA",16-06-2026 15:00:00,26.10887,91.589544,PM2.5,22,76,44
India,Andhra_Pradesh,Vijayawada,"Rajiv Gandhi Park, Vijayawada - APPCB",16-06-2026 15:00:00,16.509717,80.612222,PM10,53,84,63
India,Andhra_Pradesh,Vijayawada,"Rajiv Gandhi Park, Vijayawada - APPCB",16-06-2026 15:00:00,16.509717,80.612222,NO2,16,36,24
India,Andhra_Pradesh,Vijayawada,"Rajiv Nagar, Vijayawada - APPCB",16-06-2026 15:00:00,16.554731,80.649110,NO2,17,27,20
India,Andhra_Pradesh,Visakhapatnam,"GVM Corporation, Visakhapatnam - APPCB",16-06-2026 15:00:00,17.72,83.3,PM2.5,7,112,59
India,Andhra_Pradesh,Visakhapatnam,"GVM Corporation, Visakhapatnam - APPCB",16-06-2026 15:00:00,17.72,83.3,OZONE,13,76,54
India,Arunachal_Pradesh,Naharlagun,"Naharlagun, Naharlagun - APSPCB",16-06-2026 15:00:00,27.103358,93.679645,NO2,8,8,8
India,Assam,Sivasagar,"Girls College, Sivasagar - PCBA",16-06-2026 15:00:00,26.987634,94.636574,NO2,8,13,11
India,Assam,Sivasagar,"Girls College, Sivasagar - PCBA",16-06-2026 15:00:00,26.987634,94.636574,NH3,6,8,7
India,Bihar,Araria,"Kharahiya Basti, Araria - BSPCB",16-06-2026 15:00:00,26.146529,87.454184,CO,5,22,16
India,Andhra_Pradesh,Rajamahendravaram,"Anand Kala Kshetram, Rajamahendravaram - APPCB",16-06-2026 15:00:00,16.9872867,81.7363176,OZONE,11,44,28
India,Andhra_Pradesh,Tirumala,"Toll Gate, Tirumala - APPCB",16-06-2026 15:00:00,13.67,79.35,PM2.5,22,112,42
India,Bihar,Arrah,"New DM Office, Arrah - BSPCB",16-06-2026 15:00:00,25.5626095,84.663264,NH3,2,2,2
India,Bihar,Arrah,"New DM Office, Arrah - BSPCB",16-06-2026 15:00:00,25.5626095,84.663264,CO,44,62,51
India,Bihar,Aurangabad,"Gurdeo Nagar, Aurangabad - BSPCB",16-06-2026 15:00:00,24.75746,84.366208,PM2.5,NA,NA,NA
India,Bihar,Aurangabad,"Gurdeo Nagar, Aurangabad - BSPCB",16-06-2026 15:00:00,24.75746,84.366208,SO2,1,14,7
India,Bihar,Aurangabad,"Gurdeo Nagar, Aurangabad - BSPCB",16-06-2026 15:00:00,24.75746,84.366208,CO,101,103,102
India,Bihar,Bettiah,"Kamalnath Nagar, Bettiah - BSPCB",16-06-2026 15:00:00,26.80365,84.51954,PM10,NA,NA,NA
India,Bihar,Bhagalpur,"DM Office_Kachari Chowk, Bhagalpur - BSPCB",16-06-2026 15:00:00,25.251013,86.989001,PM2.5,13,97,48
India,Bihar,Bhagalpur,"DM Office_Kachari Chowk, Bhagalpur - BSPCB",16-06-2026 15:00:00,25.251013,86.989001,NH3,1,1,1
India,Bihar,Bhagalpur,"DM Office_Kachari Chowk, Bhagalpur - BSPCB",16-06-2026 15:00:00,25.251013,86.989001,CO,14,42,27
India,Bihar,Bhagalpur,"DM Office_Kachari Chowk, Bhagalpur - BSPCB",16-06-2026 15:00:00,25.251013,86.989001,OZONE,17,20,18
India,Bihar,Bhagalpur,"Mayaganj, Bhagalpur - BSPCB",16-06-2026 15:00:00,25.265194,87.012947,NH3,2,5,3
India,Bihar,Bhagalpur,"Mayaganj, Bhagalpur - BSPCB",16-06-2026 15:00:00,25.265194,87.012947,SO2,19,40,25
India,Bihar,Bihar Sharif,"D M Colony, Bihar Sharif - BSPCB",16-06-2026 15:00:00,25.204762,85.514960,NH3,3,3,3
India,Bihar,Bihar Sharif,"D M Colony, Bihar Sharif - BSPCB",16-06-2026 15:00:00,25.204762,85.514960,CO,48,104,55
India,Bihar,Bihar Sharif,"D M Colony, Bihar Sharif - BSPCB",16-06-2026 15:00:00,25.204762,85.514960,OZONE,1,2,2
India,Bihar,Manguraha,"Forest Rest House, Manguraha - BSPCB",16-06-2026 15:00:00,27.308328,84.531742,OZONE,4,26,10
India,Bihar,Motihari,"Gandak Colony, Motihari - BSPCB",16-06-2026 15:00:00,26.63086,84.90051,PM10,NA,NA,NA
India,Bihar,Motihari,"Gandak Colony, Motihari - BSPCB",16-06-2026 15:00:00,26.63086,84.90051,NH3,NA,NA,NA
India,Bihar,Munger,"Town Hall, Munger - BSPCB",16-06-2026 15:00:00,25.376776,86.471523,PM10,18,58,37
India,Bihar,Muzaffarpur,"MIT-Daudpur Kothi, Muzaffarpur - BSPCB",16-06-2026 15:00:00,26.1403345,85.3650192,CO,17,36,28
India,Bihar,Muzaffarpur,"Muzaffarpur Collectorate, Muzaffarpur - BSPCB",16-06-2026 15:00:00,26.1209,85.3647,NO2,3,9,5
India,Bihar,Hajipur,"Industrial Area, Hajipur - BSPCB",16-06-2026 15:00:00,25.697189,85.245900,CO,8,42,11
India,Bihar,Katihar,"Mirchaibari, Katihar - BSPCB",16-06-2026 15:00:00,25.560083,87.553265,PM10,14,39,21
India,Bihar,Katihar,"Mirchaibari, Katihar - BSPCB",16-06-2026 15:00:00,25.560083,87.553265,SO2,16,26,20
India,Bihar,Katihar,"Mirchaibari, Katihar - BSPCB",16-06-2026 15:00:00,25.560083,87.553265,OZONE,13,67,43
India,Bihar,Kishanganj,"SDM Office_Khagra, Kishanganj - BSPCB",16-06-2026 15:00:00,26.0881305,87.93840336,CO,13,15,14
India,Bihar,Muzaffarpur,"Muzaffarpur Collectorate, Muzaffarpur - BSPCB",16-06-2026 15:00:00,26.1209,85.3647,OZONE,12,79,44
India,Bihar,Patna,"Rajbansi Nagar, Patna - BSPCB",16-06-2026 15:00:00,25.599486,85.113666,PM2.5,22,123,53
India,Bihar,Patna,"Rajbansi Nagar, Patna - BSPCB",16-06-2026 15:00:00,25.599486,85.113666,SO2,2,10,6
India,Bihar,Patna,"Samanpura, Patna - BSPCB",16-06-2026 15:00:00,25.596727,85.085624,PM2.5,45,121,74
India,Bihar,Purnia,"Mariam Nagar, Purnia - BSPCB",16-06-2026 15:00:00,25.366336,87.117468,NO2,5,6,6
India,Bihar,Rajgir,"Dangi Tola, Rajgir - BSPCB",16-06-2026 15:00:00,25.03280,85.41948,OZONE,14,40,27
India,Bihar,Saharsa,"Police Line, Saharsa - BSPCB",16-06-2026 15:00:00,25.892357,86.590325,NH3,4,4,4
India,Bihar,Saharsa,"Police Line, Saharsa - BSPCB",16-06-2026 15:00:00,25.892357,86.590325,SO2,16,18,17
India,Bihar,Buxar,"Charitra Van, Buxar - BSPCB",16-06-2026 15:00:00,25.567520,83.966379,NH3,3,3,3
India,Bihar,Chhapra,"Darshan Nagar, Chhapra - BSPCB",16-06-2026 15:00:00,25.7808257,84.7446768,NO2,2,3,2
India,Bihar,Chhapra,"Darshan Nagar, Chhapra - BSPCB",16-06-2026 15:00:00,25.7808257,84.7446768,OZONE,3,5,3
India,Bihar,Samastipur,"DM Office_Kasipur, Samastipur - BSPCB",16-06-2026 15:00:00,25.859655,85.77944,CO,NA,NA,NA
India,Bihar,Siwan,"Chitragupta Nagar, Siwan - BSPCB",16-06-2026 15:00:00,26.2271665,84.3570427,NO2,2,2,2
India,Chandigarh,Chandigarh,"Sector 22, Chandigarh - CPCC",16-06-2026 15:00:00,30.735567,76.775714,OZONE,36,94,70
India,Chandigarh,Chandigarh,"Sector-53, Chandigarh - CPCC",16-06-2026 15:00:00,30.719859,76.738637,OZONE,2,74,60
India,Bihar,Gaya,"Kareemganj, Gaya - BSPCB",16-06-2026 15:00:00,24.792403,84.992416,NH3,1,1,1
India,Bihar,Gaya,"Kareemganj, Gaya - BSPCB",16-06-2026 15:00:00,24.792403,84.992416,CO,28,35,28
India,Chhattisgarh,Bhilai,"32Bungalows, Bhilai - CECB",16-06-2026 15:00:00,21.194815,81.314770,SO2,8,38,15
India,Chhattisgarh,Bhilai,"Civic Center, Bhilai - Bhilai Steel Plant",16-06-2026 15:00:00,21.185571,81.343175,PM2.5,13,49,25
India,Chhattisgarh,Bhilai,"Civic Center, Bhilai - Bhilai Steel Plant",16-06-2026 15:00:00,21.185571,81.343175,NO2,15,16,16
India,Chhattisgarh,Bilaspur,"Mangala, Bilaspur - NTPC",16-06-2026 15:00:00,22.08815,82.13737,PM2.5,43,81,58
India,Chhattisgarh,Bilaspur,"Mangala, Bilaspur - NTPC",16-06-2026 15:00:00,22.08815,82.13737,SO2,11,20,14
India,Chhattisgarh,Chhal,"Nawapara SECL Colony, Chhal - CECB",16-06-2026 15:00:00,22.118125,83.140608,NH3,5,6,5
India,Chhattisgarh,Chhal,"Nawapara SECL Colony, Chhal - CECB",16-06-2026 15:00:00,22.118125,83.140608,SO2,5,39,20
India,Chhattisgarh,Korba,"Urja Nagar, Korba - CECB",16-06-2026 15:00:00,22.348441,82.549611,SO2,2,17,10
India,Chhattisgarh,Korba,"Urja Nagar, Korba - CECB",16-06-2026 15:00:00,22.348441,82.549611,CO,14,21,18
India,Chhattisgarh,Kunjemura,"OP Jindal School, Kunjemura - CECB",16-06-2026 15:00:00,22.126650,83.483212,NO2,8,117,39
India,Chhattisgarh,Kunjemura,"OP Jindal School, Kunjemura - CECB",16-06-2026 15:00:00,22.126650,83.483212,SO2,14,35,23
India,Chhattisgarh,Raipur,"AIIMS, Raipur - CECB",16-06-2026 15:00:00,21.258815,81.578979,PM2.5,24,52,38
India,Chhattisgarh,Raipur,"AIIMS, Raipur - CECB",16-06-2026 15:00:00,21.258815,81.578979,OZONE,7,32,22
India,Chhattisgarh,Raipur,"Bhatagaon New ISBT, Raipur - CECB",16-06-2026 15:00:00,21.219665,81.630094,PM10,15,143,50
India,Delhi,Delhi,"Anand Vihar, Delhi - DPCC",16-06-2026 15:00:00,28.647622,77.3158090,PM10,NA,NA,NA
India,Delhi,Delhi,"Anand Vihar, Delhi - DPCC",16-06-2026 15:00:00,28.647622,77.3158090,OZONE,8,38,23
India,Delhi,Delhi,"Ashok Vihar, Delhi - DPCC",16-06-2026 15:00:00,28.695381,77.181665,PM2.5,13,328,77
India,Delhi,Delhi,"Ashok Vihar, Delhi - DPCC",16-06-2026 15:00:00,28.695381,77.181665,NH3,7,11,8
India,Delhi,Delhi,"Ashok Vihar, Delhi - DPCC",16-06-2026 15:00:00,28.695381,77.181665,SO2,7,20,14
India,Delhi,Delhi,"Aya Nagar, Delhi - IITM",16-06-2026 15:00:00,28.4706914,77.1099364,NO2,37,48,43
India,Delhi,Delhi,"Bawana, Delhi - DPCC",16-06-2026 15:00:00,28.776200,77.051074,PM10,27,500,114
India,Delhi,Delhi,"Bawana, Delhi - DPCC",16-06-2026 15:00:00,28.776200,77.051074,NO2,8,47,24
India,Delhi,Delhi,"Burari Crossing, Delhi - IITM",16-06-2026 15:00:00,28.7256504,77.2011573,OZONE,1,79,11
India,Delhi,Delhi,"CRRI Mathura Road, Delhi - IITM",16-06-2026 15:00:00,28.5512005,77.2735737,NO2,12,29,21
India,Delhi,Delhi,"Chandni Chowk, Delhi - IITM",16-06-2026 15:00:00,28.656756,77.227234,PM10,49,401,132
India,Delhi,Delhi,"Commonwealth Sports Complex, Delhi - DPCC",16-06-2026 15:00:00,28.615828 ,77.271992 ,SO2,6,9,8
India,Delhi,Delhi,"Commonwealth Sports Complex, Delhi - DPCC",16-06-2026 15:00:00,28.615828 ,77.271992 ,CO,20,109,65
India,Delhi,Delhi,"Commonwealth Sports Complex, Delhi - DPCC",16-06-2026 15:00:00,28.615828 ,77.271992 ,OZONE,1,13,4
India,Delhi,Delhi,"Major Dhyan Chand National Stadium, Delhi - DPCC",16-06-2026 15:00:00,28.611281,77.237738,OZONE,5,39,23
India,Delhi,Delhi,"Mandir Marg, Delhi - DPCC",16-06-2026 15:00:00,28.636429,77.201067,CO,17,73,41
India,Delhi,Delhi,"Mundka, Delhi - DPCC",16-06-2026 15:00:00,28.684678,77.076574,PM2.5,8,344,87
India,Delhi,Delhi,"NSUT Jaffarpur, Delhi - DPCC",16-06-2026 15:00:00,28.594004 ,76.909423 ,SO2,35,43,38
India,Delhi,Delhi,"Narela, Delhi - DPCC",16-06-2026 15:00:00,28.822836,77.101981,CO,25,106,31
India,Delhi,Delhi,"Narela, Delhi - DPCC",16-06-2026 15:00:00,28.822836,77.101981,OZONE,1,21,7
India,Delhi,Delhi,"Nehru Nagar, Delhi - DPCC",16-06-2026 15:00:00,28.567890,77.250515,NH3,4,9,6
India,Delhi,Delhi,"Nehru Nagar, Delhi - DPCC",16-06-2026 15:00:00,28.567890,77.250515,CO,18,58,30
India,Delhi,Delhi,"Okhla Phase-2, Delhi - DPCC",16-06-2026 15:00:00,28.530785,77.271255,SO2,6,33,15
India,Delhi,Delhi,"IMD Lodhi Road, Delhi - IITM",16-06-2026 15:00:00,28.5918245,77.2273074,NO2,7,44,27
India,Delhi,Delhi,"IMD Lodhi Road, Delhi - IITM",16-06-2026 15:00:00,28.5918245,77.2273074,OZONE,9,97,60
India,Delhi,Delhi,"ITO, Delhi - CPCB",16-06-2026 15:00:00,28.628624,77.241060,PM10,42,292,119
India,Delhi,Delhi,"ITO, Delhi - CPCB",16-06-2026 15:00:00,28.628624,77.241060,OZONE,17,42,24
India,Delhi,Delhi,"Major Dhyan Chand National Stadium, Delhi - DPCC",16-06-2026 15:00:00,28.611281,77.237738,PM2.5,3,193,53
India,Delhi,Delhi,"DTU, Delhi - CPCB",16-06-2026 15:00:00,28.7500499,77.1112615,NO2,12,33,16
India,Delhi,Delhi,"DTU, Delhi - CPCB",16-06-2026 15:00:00,28.7500499,77.1112615,NH3,4,9,8
India,Delhi,Delhi,"DTU, Delhi - CPCB",16-06-2026 15:00:00,28.7500499,77.1112615,CO,16,54,31
India,Delhi,Delhi,"Dr. Karni Singh Shooting Range, Delhi - DPCC",16-06-2026 15:00:00,28.498571,77.264840,PM2.5,10,120,46
India,Delhi,Delhi,"Dwarka-Sector 8, Delhi - DPCC ",16-06-2026 15:00:00,28.5710274,77.0719006,PM2.5,10,243,77
India,Delhi,Delhi,"Dwarka-Sector 8, Delhi - DPCC ",16-06-2026 15:00:00,28.5710274,77.0719006,SO2,10,21,15
India,Delhi,Delhi,"Dwarka-Sector 8, Delhi - DPCC ",16-06-2026 15:00:00,28.5710274,77.0719006,OZONE,3,32,20
India,Delhi,Delhi,"IGI Airport (T3), Delhi - IITM",16-06-2026 15:00:00,28.5627763,77.1180053,CO,9,41,14
India,Delhi,Delhi,"IGNOU_Maidan Garhi, Delhi - DPCC",16-06-2026 15:00:00,28.493624 ,77.201159 ,PM2.5,2,133,68
India,Delhi,Delhi,"IGNOU_Maidan Garhi, Delhi - DPCC",16-06-2026 15:00:00,28.493624 ,77.201159 ,NH3,1,7,3
India,Chhattisgarh,Raipur,"Siltara Phase-II, Raipur - CECB",16-06-2026 15:00:00,21.371751,81.664929,PM10,61,135,95
India,Chhattisgarh,Raipur,"Siltara Phase-II, Raipur - CECB",16-06-2026 15:00:00,21.371751,81.664929,NH3,2,2,2
India,Chhattisgarh,Raipur,"Siltara Phase-II, Raipur - CECB",16-06-2026 15:00:00,21.371751,81.664929,CO,17,20,18
India,Chhattisgarh,Tumidih,"OP Jindal Industrial Park, Tumidih - CECB",16-06-2026 15:00:00,22.06631475,83.33820077,SO2,7,21,11
India,Delhi,Delhi,"IHBAS, Dilshad Garden, Delhi - CPCB",16-06-2026 15:00:00,28.6811736,77.3025234,NH3,2,7,4
India,Delhi,Delhi,"IHBAS, Dilshad Garden, Delhi - CPCB",16-06-2026 15:00:00,28.6811736,77.3025234,OZONE,13,51,29
India,Chhattisgarh,Raipur,"Bhatagaon New ISBT, Raipur - CECB",16-06-2026 15:00:00,21.219665,81.630094,NH3,2,2,2
India,Haryana,Sirsa,"F-Block, Sirsa - HSPCB",16-06-2026 15:00:00,29.536400,75.015800,OZONE,2,480,138
India,Haryana,Sonipat,"Murthal, Sonipat - HSPCB",16-06-2026 15:00:00,29.027200,77.062100,PM10,NA,NA,NA
India,Haryana,Yamuna Nagar,"Gobind Pura, Yamuna Nagar - HSPCB",16-06-2026 15:00:00,30.1480566,77.2893471,PM2.5,NA,NA,NA
India,Haryana,Yamuna Nagar,"Gobind Pura, Yamuna Nagar - HSPCB",16-06-2026 15:00:00,30.1480566,77.2893471,PM10,NA,NA,NA
India,Haryana,Yamuna Nagar,"Gobind Pura, Yamuna Nagar - HSPCB",16-06-2026 15:00:00,30.1480566,77.2893471,OZONE,23,62,38
India,Himachal Pradesh,Baddi,"HIMUDA Complex Phase-1, Baddi - HPPCB",16-06-2026 15:00:00,30.943887,76.801991,NH3,3,4,4
India,Himachal Pradesh,Baddi,"HIMUDA Complex Phase-1, Baddi - HPPCB",16-06-2026 15:00:00,30.943887,76.801991,CO,37,54,45
India,Himachal Pradesh,Baddi,"HIMUDA Complex Phase-1, Baddi - HPPCB",16-06-2026 15:00:00,30.943887,76.801991,OZONE,66,157,113
India,Jammu_and_Kashmir,Pampore,"Khrew, Pampore - JKPCC",16-06-2026 15:00:00,34.031606,75.009712,PM2.5,10,42,27
India,Jammu_and_Kashmir,Srinagar,"Khunmoh, Srinagar - JKPCC",16-06-2026 15:00:00,34.06313,74.96017,PM2.5,15,71,39
India,Jammu_and_Kashmir,Srinagar,"Khunmoh, Srinagar - JKPCC",16-06-2026 15:00:00,34.06313,74.96017,PM10,41,103,75
India,Jammu_and_Kashmir,Srinagar,"Rajbagh, Srinagar - JKPCC",16-06-2026 15:00:00,34.066206,74.819820,PM10,30,54,42
India,Jharkhand,Dhanbad,"Sardar Patel Nagar, Dhanbad - JSPCB",16-06-2026 15:00:00,23.80569,86.44268,PM2.5,1,265,43
India,Jharkhand,Dhanbad,"Sardar Patel Nagar, Dhanbad - JSPCB",16-06-2026 15:00:00,23.80569,86.44268,PM10,17,481,130
India,Jharkhand,Dhanbad,"Sardar Patel Nagar, Dhanbad - JSPCB",16-06-2026 15:00:00,23.80569,86.44268,NO2,94,130,97
India,Jharkhand,Dhanbad,"Sardar Patel Nagar, Dhanbad - JSPCB",16-06-2026 15:00:00,23.80569,86.44268,OZONE,37,82,66
India,Karnataka,Bagalkot,"Vidayagiri, Bagalkot - KSPCB",16-06-2026 15:00:00,16.172806,75.659694,CO,10,36,24
India,Karnataka,Bengaluru,"BTM Layout, Bengaluru - CPCB",16-06-2026 15:00:00,12.9135218,77.5950804,PM2.5,25,44,32
India,Karnataka,Bengaluru,"BTM Layout, Bengaluru - CPCB",16-06-2026 15:00:00,12.9135218,77.5950804,NH3,3,3,3
India,Karnataka,Bengaluru,"BTM Layout, Bengaluru - CPCB",16-06-2026 15:00:00,12.9135218,77.5950804,SO2,15,16,16
India,Haryana,Faridabad,"Sector 30, Faridabad - HSPCB",16-06-2026 15:00:00,28.4417,77.3217,PM10,26,26,26
India,Haryana,Faridabad,"Sector 30, Faridabad - HSPCB",16-06-2026 15:00:00,28.4417,77.3217,NH3,11,12,11
India,Haryana,Faridabad,"Sector 30, Faridabad - HSPCB",16-06-2026 15:00:00,28.4417,77.3217,SO2,6,6,6
India,Haryana,Fatehabad,"Huda Sector, Fatehabad - HSPCB",16-06-2026 15:00:00,29.503664,75.467934,PM2.5,16,67,33
India,Haryana,Gurugram,"Sector-51, Gurugram - HSPCB",16-06-2026 15:00:00,28.4227,77.0667,PM2.5,NA,NA,NA
India,Haryana,Gurugram,"Sector-51, Gurugram - HSPCB",16-06-2026 15:00:00,28.4227,77.0667,NH3,NA,NA,NA
India,Haryana,Gurugram,"Sector-51, Gurugram - HSPCB",16-06-2026 15:00:00,28.4227,77.0667,SO2,NA,NA,NA
India,Haryana,Gurugram,"Sector-51, Gurugram - HSPCB",16-06-2026 15:00:00,28.4227,77.0667,CO,16,44,40
India,Haryana,Gurugram,"Teri Gram, Gurugram - HSPCB",16-06-2026 15:00:00,28.4275,77.1465,SO2,5,20,10
India,Haryana,Gurugram,"Vikas Sadan, Gurugram - HSPCB",16-06-2026 15:00:00,28.4501238,77.0263051,PM2.5,NA,NA,NA
India,Haryana,Gurugram,"Vikas Sadan, Gurugram - HSPCB",16-06-2026 15:00:00,28.4501238,77.0263051,CO,32,111,59
India,Haryana,Hisar,"Urban Estate-II, Hisar - HSPCB",16-06-2026 15:00:00,29.140560,75.744941,SO2,18,26,21
India,Haryana,Hisar,"Urban Estate-II, Hisar - HSPCB",16-06-2026 15:00:00,29.140560,75.744941,OZONE,15,117,59
India,Haryana,Jind,"Police Lines, Jind - HSPCB",16-06-2026 15:00:00,29.307814,76.337619,SO2,1,139,13
India,Haryana,Jind,"Police Lines, Jind - HSPCB",16-06-2026 15:00:00,29.307814,76.337619,OZONE,8,347,29
India,Haryana,Kaithal,"Rishi Nagar, Kaithal - HSPCB",16-06-2026 15:00:00,29.8006,76.4155,PM2.5,24,97,38
India,Haryana,Karnal,"Sector-12, Karnal - HSPCB",16-06-2026 15:00:00,29.695300,77.002700,PM2.5,63,194,100
India,Haryana,Karnal,"Sector-12, Karnal - HSPCB",16-06-2026 15:00:00,29.695300,77.002700,CO,12,18,13
India,Haryana,Kurukshetra,"Sector-7, Kurukshetra - HSPCB",16-06-2026 15:00:00,29.966942,76.875879,CO,11,30,18
India,Gujarat,Vapi,"Phase-1 GIDC, Vapi - GPCB",16-06-2026 15:00:00,20.362421,72.918013,OZONE,5,29,17
India,Gujarat,Vatva,"Phase-4 GIDC, Vatva - GPCB",16-06-2026 15:00:00,22.969611,72.643500,PM10,91,128,115
India,Haryana,Ambala,"Patti Mehar, Ambala - HSPCB",16-06-2026 15:00:00,30.379589,76.778328,CO,9,49,25
India,Haryana,Bahadurgarh,"Arya Nagar, Bahadurgarh - HSPCB",16-06-2026 15:00:00,28.6701,76.9254,NO2,8,33,15
India,Haryana,Ballabgarh,"Nathu Colony, Ballabgarh - HSPCB",16-06-2026 15:00:00,28.3419248,77.319699,NO2,19,21,20
India,Haryana,Bhiwani,"H.B. Colony, Bhiwani - HSPCB",16-06-2026 15:00:00,28.806223,76.141105,PM2.5,98,174,115
India,Haryana,Bhiwani,"H.B. Colony, Bhiwani - HSPCB",16-06-2026 15:00:00,28.806223,76.141105,OZONE,5,22,13
India,Haryana,Charkhi Dadri,"Mini Secretariat, Charkhi Dadri - HSPCB",16-06-2026 15:00:00,28.593883,76.270653,PM2.5,27,204,76
India,Haryana,Dharuhera,"Municipal Corporation Office, Dharuhera -  HSPCB",16-06-2026 15:00:00,28.206800,76.799700,CO,34,102,50
India,Haryana,Faridabad,"New Industrial Town, Faridabad - HSPCB",16-06-2026 15:00:00,28.39072,77.30059,NH3,10,12,11
India,Haryana,Faridabad,"Sector 11, Faridabad - HSPCB",16-06-2026 15:00:00,28.376058,77.315741,PM10,NA,NA,NA
India,Haryana,Faridabad,"Sector 11, Faridabad - HSPCB",16-06-2026 15:00:00,28.376058,77.315741,CO,48,94,64
India,Karnataka,Kalaburagi,"Mahatma Basaveswar Colony, Kalaburgi - KSPCB",16-06-2026 15:00:00,17.336318,76.847397,PM10,19,60,44
India,Karnataka,Kalaburagi,"Mahatma Basaveswar Colony, Kalaburgi - KSPCB",16-06-2026 15:00:00,17.336318,76.847397,NO2,10,17,14
India,Karnataka,Kalaburagi,"Mahatma Basaveswar Colony, Kalaburgi - KSPCB",16-06-2026 15:00:00,17.336318,76.847397,NH3,2,3,2
India,Karnataka,Koppal,"Diwator Nagar, Koppal - KSPCB",16-06-2026 15:00:00,15.347630,76.181767,NO2,8,33,25
India,Karnataka,Mangalore,"Kadri, Mangalore - KSPCB",16-06-2026 15:00:00,12.889250,74.853000,NO2,1,8,3
India,Karnataka,Mysuru,"Hebbal 1st Stage, Mysuru - KSPCB",16-06-2026 15:00:00,12.21041,76.37376,NO2,8,21,17
India,Karnataka,Shivamogga,"Vinoba Nagara, Shivamogga - KSPCB",16-06-2026 15:00:00,13.940000,75.555917,PM2.5,22,56,32
India,Karnataka,Shivamogga,"Vinoba Nagara, Shivamogga - KSPCB",16-06-2026 15:00:00,13.940000,75.555917,SO2,1,5,3
India,Karnataka,Shivamogga,"Vinoba Nagara, Shivamogga - KSPCB",16-06-2026 15:00:00,13.940000,75.555917,OZONE,44,54,47
India,Karnataka,Tumakuru,"Thimmalapura, Tumakuru - KSPCB",16-06-2026 15:00:00,13.377516,77.099072,PM2.5,NA,NA,NA
India,Karnataka,Tumakuru,"Thimmalapura, Tumakuru - KSPCB",16-06-2026 15:00:00,13.377516,77.099072,PM10,61,81,71
India,Karnataka,Yadgir,"Collector Office, Yadgir - KSPCB",16-06-2026 15:00:00,16.7602,77.1428,PM10,33,89,54
India,Karnataka,Yadgir,"Collector Office, Yadgir - KSPCB",16-06-2026 15:00:00,16.7602,77.1428,NH3,1,2,1
India,Haryana,Mandikhera,"General Hospital, Mandikhera(Nuh) - HSPCB",16-06-2026 15:00:00,27.9002,76.9938,PM2.5,NA,NA,NA
India,Haryana,Mandikhera,"General Hospital, Mandikhera(Nuh) - HSPCB",16-06-2026 15:00:00,27.9002,76.9938,NH3,9,10,10
India,Haryana,Mandikhera,"General Hospital, Mandikhera(Nuh) - HSPCB",16-06-2026 15:00:00,27.9002,76.9938,CO,34,102,89
India,Haryana,Mandikhera,"General Hospital, Mandikhera(Nuh) - HSPCB",16-06-2026 15:00:00,27.9002,76.9938,OZONE,54,57,56
India,Haryana,Narnaul,"Shastri Nagar, Narnaul - HSPCB",16-06-2026 15:00:00,28.060249,76.113115,NO2,14,21,18
India,Haryana,Palwal,"Shyam Nagar, Palwal - HSPCB",16-06-2026 15:00:00,28.1485564,77.3320667,PM2.5,48,52,50
India,Haryana,Palwal,"Shyam Nagar, Palwal - HSPCB",16-06-2026 15:00:00,28.1485564,77.3320667,NH3,8,9,9
India,Haryana,Panchgaon,"Amity University, Panchgaon - IITM",16-06-2026 15:00:00,28.3153,76.9143,NO2,4,39,20
India,Haryana,Panchgaon,"Amity University, Panchgaon - IITM",16-06-2026 15:00:00,28.3153,76.9143,NH3,3,10,7
India,Haryana,Panchgaon,"Amity University, Panchgaon - IITM",16-06-2026 15:00:00,28.3153,76.9143,OZONE,1,57,20
India,Haryana,Panchkula,"Sector-6, Panchkula - HSPCB ",16-06-2026 15:00:00,30.7057778,76.8531805555555,PM2.5,21,129,65
India,Haryana,Panchkula,"Sector-6, Panchkula - HSPCB ",16-06-2026 15:00:00,30.7057778,76.8531805555555,NO2,22,25,24
India,Haryana,Panipat,"Sector-18, Panipat - HSPCB",16-06-2026 15:00:00,29.432304,76.972765,PM2.5,NA,NA,NA
India,Haryana,Panipat,"Sector-18, Panipat - HSPCB",16-06-2026 15:00:00,29.432304,76.972765,PM10,NA,NA,NA
India,Karnataka,Bengaluru,"Bapuji Nagar, Bengaluru - KSPCB",16-06-2026 15:00:00,12.951913,77.539784,CO,19,131,40
India,Karnataka,Bengaluru,"Hombegowda Nagar, Bengaluru - KSPCB",16-06-2026 15:00:00,12.938539,77.590100,OZONE,6,30,21
India,Karnataka,Bengaluru,"Jayanagar 5th Block, Bengaluru - KSPCB",16-06-2026 15:00:00,12.920984,77.584908,PM10,33,162,76
India,Karnataka,Bengaluru,"Silk Board, Bengaluru - KSPCB",16-06-2026 15:00:00,12.917348,77.622813,PM2.5,23,270,74
India,Karnataka,Bengaluru,"Silk Board, Bengaluru - KSPCB",16-06-2026 15:00:00,12.917348,77.622813,SO2,1,14,7
India,Karnataka,Chamarajanagar,"Urban, Chamarajanagar - KSPCB",16-06-2026 15:00:00,11.55358,76.55521,NH3,1,3,2
India,Karnataka,Chikkaballapur,"Chikkaballapur Rural, Chikkaballapur - KSPCB",16-06-2026 15:00:00,13.428828,77.731418,OZONE,26,43,31
India,Karnataka,Chikkamagaluru,"Kalyana Nagara, Chikkamagaluru - KSPCB",16-06-2026 15:00:00,13.328028,75.797056,NO2,NA,NA,NA
India,Karnataka,Dharwad,"Kalabhavan, Dharwad - KSPCB",16-06-2026 15:00:00,15.459706,75.008381,PM2.5,57,113,76
India,Gujarat,Ankleshwar,"GIDC, Ankleshwar - GPCB",16-06-2026 15:00:00,21.613267,73.010555,PM2.5,31,54,43
India,Gujarat,Ankleshwar,"GIDC, Ankleshwar - GPCB",16-06-2026 15:00:00,21.613267,73.010555,NH3,4,8,5
India,Gujarat,Ankleshwar,"GIDC, Ankleshwar - GPCB",16-06-2026 15:00:00,21.613267,73.010555,SO2,15,20,16
India,Gujarat,Bhavnagar,"Vidhyanagar, Bhavnagar - Nexteng Enviro",16-06-2026 15:00:00,21.755417,72.139056,CO,74,76,75
India,Gujarat,Gandhinagar,"GIFT City, Gandhinagar - IITM",16-06-2026 15:00:00,23.163798,72.677768,CO,2,26,15
India,Gujarat,Rajkot,"Mavdi, Rajkot - Nexteng Enviro ",16-06-2026 15:00:00,22.248853,70.776774,PM2.5,22,69,46
