country,state,city,station,last_update,latitude,longitude,pollutant_id,min_value,max_value,avg_value
India,Andhra_Pradesh,Vijayawada,"Rajiv Gandhi Park, Vijayawada - APPCB",08-02-2026 21:00:00,16.509717,80.612222,OZONE,11,13,13
India,Andhra_Pradesh,Vijayawada,"Rajiv Nagar, Vijayawada - APPCB",08-02-2026 21:00:00,16.554731,80.649110,SO2,15,17,16
India,Andhra_Pradesh,Vijayawada,"Rajiv Nagar, Vijayawada - APPCB",08-02-2026 21:00:00,16.554731,80.649110,CO,27,34,28
India,Andhra_Pradesh,Vijayawada,"Rajiv Nagar, Vijayawada - APPCB",08-02-2026 21:00:00,16.554731,80.649110,OZONE,20,20,20
India,Andhra_Pradesh,Visakhapatnam,"GVM Corporation, Visakhapatnam - APPCB",08-02-2026 21:00:00,17.72,83.3,PM2.5,70,322,150
India,Arunachal_Pradesh,Naharlagun,"Naharlagun, Naharlagun - APSPCB",08-02-2026 21:00:00,27.103358,93.679645,PM2.5,77,412,181
India,Arunachal_Pradesh,Naharlagun,"Naharlagun, Naharlagun - APSPCB",08-02-2026 21:00:00,27.103358,93.679645,PM10,85,418,160
India,Arunachal_Pradesh,Naharlagun,"Naharlagun, Naharlagun - APSPCB",08-02-2026 21:00:00,27.103358,93.679645,NO2,7,7,7
India,Arunachal_Pradesh,Naharlagun,"Naharlagun, Naharlagun - APSPCB",08-02-2026 21:00:00,27.103358,93.679645,NH3,1,1,1
India,Assam,Byrnihat,"Central Academy for SFS, Byrnihat - PCBA",08-02-2026 21:00:00,26.071318,91.87488,PM2.5,90,276,145
India,Assam,Guwahati,"LGBI Airport, Guwahati - PCBA",08-02-2026 21:00:00,26.10887,91.589544,NO2,13,40,16
India,Assam,Guwahati,"LGBI Airport, Guwahati - PCBA",08-02-2026 21:00:00,26.10887,91.589544,NH3,5,7,5
India,Assam,Guwahati,"Pan Bazaar, Guwahati - PCBA",08-02-2026 21:00:00,26.187500,91.744194,SO2,24,43,32
India,Assam,Guwahati,"Pan Bazaar, Guwahati - PCBA",08-02-2026 21:00:00,26.187500,91.744194,CO,16,88,38
India,Assam,Guwahati,"Pan Bazaar, Guwahati - PCBA",08-02-2026 21:00:00,26.187500,91.744194,OZONE,13,20,17
India,Assam,Guwahati,"Railway Colony, Guwahati - PCBA",08-02-2026 21:00:00,26.181742,91.78063,PM10,125,309,187
India,Assam,Guwahati,"Railway Colony, Guwahati - PCBA",08-02-2026 21:00:00,26.181742,91.78063,NO2,3,4,3
India,Assam,Nagaon,"Christianpatty, Nagaon - PCBA",08-02-2026 21:00:00,26.349082,92.68449,PM10,91,143,114
India,Assam,Nalbari,"Bata Chowk, Nalbari - PCBA",08-02-2026 21:00:00,26.446912,91.439057,PM2.5,NA,NA,NA
India,Assam,Nalbari,"Bata Chowk, Nalbari - PCBA",08-02-2026 21:00:00,26.446912,91.439057,PM10,NA,NA,NA
India,Assam,Nalbari,"Bata Chowk, Nalbari - PCBA",08-02-2026 21:00:00,26.446912,91.439057,NH3,6,7,6
India,Assam,Nalbari,"Bata Chowk, Nalbari - PCBA",08-02-2026 21:00:00,26.446912,91.439057,SO2,7,8,8
India,Assam,Silchar,"Tarapur, Silchar - PCBA",08-02-2026 21:00:00,24.82827,92.79525,PM2.5,22,77,49
India,Assam,Silchar,"Tarapur, Silchar - PCBA",08-02-2026 21:00:00,24.82827,92.79525,OZONE,2,3,3
India,Bihar,Gaya,"Kareemganj, Gaya - BSPCB",08-02-2026 21:00:00,24.792403,84.992416,OZONE,18,47,38
India,Bihar,Gaya,"SFTI Kusdihra, Gaya - BSPCB",08-02-2026 21:00:00,24.762518,84.982348,NO2,19,23,21
India,Bihar,Hajipur,"Industrial Area, Hajipur - BSPCB",08-02-2026 21:00:00,25.697189,85.245900,CO,10,48,16
India,Bihar,Katihar,"Mirchaibari, Katihar - BSPCB",08-02-2026 21:00:00,25.560083,87.553265,PM2.5,42,107,73
India,Bihar,Katihar,"Mirchaibari, Katihar - BSPCB",08-02-2026 21:00:00,25.560083,87.553265,OZONE,5,13,10
India,Bihar,Kishanganj,"SDM Office_Khagra, Kishanganj - BSPCB",08-02-2026 21:00:00,26.0881305,87.93840336,OZONE,32,34,32
India,Bihar,Manguraha,"Forest Rest House, Manguraha - BSPCB",08-02-2026 21:00:00,27.308328,84.531742,CO,16,34,30
India,Bihar,Samastipur,"DM Office_Kasipur, Samastipur - BSPCB",08-02-2026 21:00:00,25.859655,85.77944,CO,8,10,8
India,Bihar,Sasaram,"Dada Peer, Sasaram - BSPCB",08-02-2026 21:00:00,24.952822,84.002396,PM2.5,8,27,13
India,Bihar,Sasaram,"Dada Peer, Sasaram - BSPCB",08-02-2026 21:00:00,24.952822,84.002396,PM10,20,77,40
India,Bihar,Sasaram,"Dada Peer, Sasaram - BSPCB",08-02-2026 21:00:00,24.952822,84.002396,SO2,3,5,4
India,Bihar,Sasaram,"Dada Peer, Sasaram - BSPCB",08-02-2026 21:00:00,24.952822,84.002396,CO,29,66,51
India,Bihar,Siwan,"Chitragupta Nagar, Siwan - BSPCB",08-02-2026 21:00:00,26.2271665,84.3570427,SO2,8,8,8
India,Chandigarh,Chandigarh,"Sector 22, Chandigarh - CPCC",08-02-2026 21:00:00,30.735567,76.775714,NH3,9,15,12
India,Chandigarh,Chandigarh,"Sector 22, Chandigarh - CPCC",08-02-2026 21:00:00,30.735567,76.775714,OZONE,10,151,99
India,Bihar,Bhagalpur,"Mayaganj, Bhagalpur - BSPCB",08-02-2026 21:00:00,25.265194,87.012947,PM10,75,113,94
India,Bihar,Buxar,"Charitra Van, Buxar - BSPCB",08-02-2026 21:00:00,25.567520,83.966379,SO2,17,37,28
India,Bihar,Buxar,"Charitra Van, Buxar - BSPCB",08-02-2026 21:00:00,25.567520,83.966379,CO,20,29,28
India,Bihar,Chhapra,"Darshan Nagar, Chhapra - BSPCB",08-02-2026 21:00:00,25.7808257,84.7446768,PM2.5,37,287,77
India,Bihar,Chhapra,"Darshan Nagar, Chhapra - BSPCB",08-02-2026 21:00:00,25.7808257,84.7446768,NH3,6,11,9
India,Bihar,Chhapra,"Darshan Nagar, Chhapra - BSPCB",08-02-2026 21:00:00,25.7808257,84.7446768,OZONE,3,6,4
India,Bihar,Gaya,"Kareemganj, Gaya - BSPCB",08-02-2026 21:00:00,24.792403,84.992416,PM10,72,196,127
India,Bihar,Gaya,"Kareemganj, Gaya - BSPCB",08-02-2026 21:00:00,24.792403,84.992416,NO2,9,14,12
India,Andhra_Pradesh,Tirumala,"Toll Gate, Tirumala - APPCB",08-02-2026 21:00:00,13.67,79.35,PM2.5,92,229,156
India,Andhra_Pradesh,Tirumala,"Toll Gate, Tirumala - APPCB",08-02-2026 21:00:00,13.67,79.35,OZONE,24,79,67
India,Andhra_Pradesh,Tirupati,"Vaikuntapuram, Tirupati - APPCB",08-02-2026 21:00:00,13.615387,79.409230,PM2.5,NA,NA,NA
India,Andhra_Pradesh,Tirupati,"Vaikuntapuram, Tirupati - APPCB",08-02-2026 21:00:00,13.615387,79.409230,OZONE,19,20,20
India,Andhra_Pradesh,Vijayawada,"HB Colony, Vijayawada - APPCB",08-02-2026 21:00:00,16.536107,80.594233,NO2,17,17,17
India,Andhra_Pradesh,Vijayawada,"Kanuru, Vijayawada - APPCB",08-02-2026 21:00:00,16.486692,80.699436,NO2,21,22,22
India,Andhra_Pradesh,Vijayawada,"Rajiv Gandhi Park, Vijayawada - APPCB",08-02-2026 21:00:00,16.509717,80.612222,PM2.5,NA,NA,NA
India,Andhra_Pradesh,Vijayawada,"Rajiv Gandhi Park, Vijayawada - APPCB",08-02-2026 21:00:00,16.509717,80.612222,PM10,NA,NA,NA
India,Bihar,Araria,"Kharahiya Basti, Araria - BSPCB",08-02-2026 21:00:00,26.146529,87.454184,PM10,36,151,82
India,Bihar,Araria,"Kharahiya Basti, Araria - BSPCB",08-02-2026 21:00:00,26.146529,87.454184,NO2,1,7,3
India,Bihar,Arrah,"New DM Office, Arrah - BSPCB",08-02-2026 21:00:00,25.5626095,84.663264,PM2.5,15,40,27
India,Bihar,Arrah,"New DM Office, Arrah - BSPCB",08-02-2026 21:00:00,25.5626095,84.663264,OZONE,6,9,8
India,Bihar,Aurangabad,"Gurdeo Nagar, Aurangabad - BSPCB",08-02-2026 21:00:00,24.75746,84.366208,SO2,11,18,15
India,Bihar,Begusarai,"Lohiyanagar, Begusarai - BSPCB",08-02-2026 21:00:00,25.42742023,86.13886079,OZONE,29,61,47
India,Andhra_Pradesh,Amaravati,"Secretariat, Amaravati - APPCB",08-02-2026 21:00:00,16.5150833,80.5181667,SO2,13,35,18
India,Andhra_Pradesh,Amaravati,"Secretariat, Amaravati - APPCB",08-02-2026 21:00:00,16.5150833,80.5181667,CO,1,101,19
India,Andhra_Pradesh,Chittoor,"Gangineni Cheruvu, Chittoor - APPCB",08-02-2026 21:00:00,13.204880,79.097889,PM2.5,NA,NA,NA
India,Andhra_Pradesh,Chittoor,"Gangineni Cheruvu, Chittoor - APPCB",08-02-2026 21:00:00,13.204880,79.097889,PM10,NA,NA,NA
India,Andhra_Pradesh,Chittoor,"Gangineni Cheruvu, Chittoor - APPCB",08-02-2026 21:00:00,13.204880,79.097889,CO,45,55,49
India,Andhra_Pradesh,Kadapa,"Yerramukkapalli, Kadapa - APPCB",08-02-2026 21:00:00,14.465052,78.824187,PM10,77,161,104
India,Andhra_Pradesh,Kadapa,"Yerramukkapalli, Kadapa - APPCB",08-02-2026 21:00:00,14.465052,78.824187,CO,28,46,35
India,Bihar,Patna,"Muradpur, Patna - BSPCB",08-02-2026 21:00:00,25.619651,85.147382,PM10,101,120,111
India,Bihar,Patna,"Muradpur, Patna - BSPCB",08-02-2026 21:00:00,25.619651,85.147382,NO2,9,16,12
India,Bihar,Patna,"Rajbansi Nagar, Patna - BSPCB",08-02-2026 21:00:00,25.599486,85.113666,PM2.5,70,127,88
India,Bihar,Patna,"Samanpura, Patna - BSPCB",08-02-2026 21:00:00,25.596727,85.085624,PM2.5,52,90,75
India,Bihar,Purnia,"Mariam Nagar, Purnia - BSPCB",08-02-2026 21:00:00,25.366336,87.117468,PM2.5,77,153,107
India,Bihar,Purnia,"Mariam Nagar, Purnia - BSPCB",08-02-2026 21:00:00,25.366336,87.117468,CO,52,74,56
India,Bihar,Purnia,"Mariam Nagar, Purnia - BSPCB",08-02-2026 21:00:00,25.366336,87.117468,OZONE,15,30,24
India,Bihar,Muzaffarpur,"Buddha Colony, Muzaffarpur - BSPCB",08-02-2026 21:00:00,26.11442,85.39813,PM10,117,186,147
India,Bihar,Muzaffarpur,"MIT-Daudpur Kothi, Muzaffarpur - BSPCB",08-02-2026 21:00:00,26.1403345,85.3650192,CO,42,55,52
India,Bihar,Muzaffarpur,"Muzaffarpur Collectorate, Muzaffarpur - BSPCB",08-02-2026 21:00:00,26.1209,85.3647,NO2,9,15,11
India,Bihar,Patna,"DRM Office Danapur, Patna - BSPCB",08-02-2026 21:00:00,25.586562,85.043586,SO2,4,7,6
India,Chandigarh,Chandigarh,"Sector-25, Chandigarh - CPCC",08-02-2026 21:00:00,30.751462,76.762879,PM10,63,114,82
India,Chandigarh,Chandigarh,"Sector-25, Chandigarh - CPCC",08-02-2026 21:00:00,30.751462,76.762879,CO,14,26,15
India,Chandigarh,Chandigarh,"Sector-53, Chandigarh - CPCC",08-02-2026 21:00:00,30.719859,76.738637,NO2,18,128,42
India,Chhattisgarh,Bhilai,"32Bungalows, Bhilai - CECB",08-02-2026 21:00:00,21.194815,81.314770,NH3,1,2,2
India,Chhattisgarh,Bhilai,"Civic Center, Bhilai - Bhilai Steel Plant",08-02-2026 21:00:00,21.185571,81.343175,SO2,6,11,8
India,Chhattisgarh,Bhilai,"Civic Center, Bhilai - Bhilai Steel Plant",08-02-2026 21:00:00,21.185571,81.343175,OZONE,10,12,11
India,Chhattisgarh,Bhilai,"Hathkhoj, Bhilai - CECB",08-02-2026 21:00:00,21.224231,81.408350,NH3,3,8,4
India,Chhattisgarh,Bhilai,"Hathkhoj, Bhilai - CECB",08-02-2026 21:00:00,21.224231,81.408350,SO2,5,105,30
India,Chhattisgarh,Bilaspur,"Mangala, Bilaspur - NTPC",08-02-2026 21:00:00,22.08815,82.13737,PM10,33,84,53
India,Chhattisgarh,Bilaspur,"Mangala, Bilaspur - NTPC",08-02-2026 21:00:00,22.08815,82.13737,NO2,19,86,27
India,Delhi,Delhi,"Anand Vihar, Delhi - DPCC",08-02-2026 21:00:00,28.647622,77.3158090,NH3,3,6,4
India,Delhi,Delhi,"Ashok Vihar, Delhi - DPCC",08-02-2026 21:00:00,28.695381,77.181665,PM2.5,73,321,199
India,Delhi,Delhi,"Ashok Vihar, Delhi - DPCC",08-02-2026 21:00:00,28.695381,77.181665,PM10,101,178,142
India,Delhi,Delhi,"Ashok Vihar, Delhi - DPCC",08-02-2026 21:00:00,28.695381,77.181665,NH3,8,8,8
India,Delhi,Delhi,"Ashok Vihar, Delhi - DPCC",08-02-2026 21:00:00,28.695381,77.181665,SO2,22,73,32
India,Delhi,Delhi,"Ashok Vihar, Delhi - DPCC",08-02-2026 21:00:00,28.695381,77.181665,OZONE,13,119,95
India,Delhi,Delhi,"Aya Nagar, Delhi - IMD",08-02-2026 21:00:00,28.4706914,77.1099364,PM2.5,51,196,109
India,Delhi,Delhi,"Aya Nagar, Delhi - IMD",08-02-2026 21:00:00,28.4706914,77.1099364,CO,8,41,14
India,Delhi,Delhi,"Burari Crossing, Delhi - IMD",08-02-2026 21:00:00,28.7256504,77.2011573,NO2,85,156,115
India,Delhi,Delhi,"CRRI Mathura Road, Delhi - IMD",08-02-2026 21:00:00,28.5512005,77.2735737,PM10,99,221,145
India,Delhi,Delhi,"Mundka, Delhi - DPCC",08-02-2026 21:00:00,28.684678,77.076574,NH3,9,13,10
India,Delhi,Delhi,"Mundka, Delhi - DPCC",08-02-2026 21:00:00,28.684678,77.076574,CO,46,67,49
India,Delhi,Delhi,"NSIT Dwarka, Delhi - CPCB",08-02-2026 21:00:00,28.60909,77.0325413,PM10,104,168,122
India,Delhi,Delhi,"NSIT Dwarka, Delhi - CPCB",08-02-2026 21:00:00,28.60909,77.0325413,NH3,6,8,7
India,Delhi,Delhi,"NSIT Dwarka, Delhi - CPCB",08-02-2026 21:00:00,28.60909,77.0325413,CO,36,70,60
India,Delhi,Delhi,"Najafgarh, Delhi - DPCC",08-02-2026 21:00:00,28.570173,76.933762,PM2.5,60,223,134
India,Delhi,Delhi,"Najafgarh, Delhi - DPCC",08-02-2026 21:00:00,28.570173,76.933762,NH3,10,12,11
India,Delhi,Delhi,"Narela, Delhi - DPCC",08-02-2026 21:00:00,28.822836,77.101981,CO,38,60,45
India,Delhi,Delhi,"Narela, Delhi - DPCC",08-02-2026 21:00:00,28.822836,77.101981,OZONE,19,99,85
India,Delhi,Delhi,"North Campus, DU, Delhi - IMD",08-02-2026 21:00:00,28.6573814,77.1585447,NO2,43,113,68
India,Delhi,Delhi,"ITO, Delhi - CPCB",08-02-2026 21:00:00,28.628624,77.241060,NO2,35,61,46
India,Delhi,Delhi,"ITO, Delhi - CPCB",08-02-2026 21:00:00,28.628624,77.241060,OZONE,21,113,83
India,Delhi,Delhi,"Jawaharlal Nehru Stadium, Delhi - DPCC",08-02-2026 21:00:00,28.580280,77.233829,OZONE,1,145,110
India,Delhi,Delhi,"Lodhi Road, Delhi - IMD",08-02-2026 21:00:00,28.5918245,77.2273074,NO2,40,69,49
India,Delhi,Delhi,"Major Dhyan Chand National Stadium, Delhi - DPCC",08-02-2026 21:00:00,28.611281,77.237738,PM2.5,45,223,109
India,Delhi,Delhi,"Major Dhyan Chand National Stadium, Delhi - DPCC",08-02-2026 21:00:00,28.611281,77.237738,NH3,15,19,17
India,Delhi,Delhi,"Mandir Marg, Delhi - DPCC",08-02-2026 21:00:00,28.636429,77.201067,NH3,3,6,5
India,Delhi,Delhi,"Mandir Marg, Delhi - DPCC",08-02-2026 21:00:00,28.636429,77.201067,SO2,37,60,48
India,Delhi,Delhi,"Chandni Chowk, Delhi - IITM",08-02-2026 21:00:00,28.656756,77.227234,NO2,12,52,25
India,Delhi,Delhi,"DTU, Delhi - CPCB",08-02-2026 21:00:00,28.7500499,77.1112615,NO2,35,45,39
India,Delhi,Delhi,"DTU, Delhi - CPCB",08-02-2026 21:00:00,28.7500499,77.1112615,CO,6,26,10
India,Delhi,Delhi,"Dwarka-Sector 8, Delhi - DPCC ",08-02-2026 21:00:00,28.5710274,77.0719006,SO2,26,46,32
India,Delhi,Delhi,"IHBAS, Dilshad Garden, Delhi - CPCB",08-02-2026 21:00:00,28.6811736,77.3025234,OZONE,2,34,20
India,Delhi,Delhi,"IIT Delhi, Delhi - IITM",08-02-2026 21:00:00,28.542460,77.191651,PM10,96,165,126
India,Delhi,Delhi,"Okhla Phase-2, Delhi - DPCC",08-02-2026 21:00:00,28.530785,77.271255,PM10,107,245,148
India,Delhi,Delhi,"Okhla Phase-2, Delhi - DPCC",08-02-2026 21:00:00,28.530785,77.271255,NO2,49,205,110
India,Delhi,Delhi,"Okhla Phase-2, Delhi - DPCC",08-02-2026 21:00:00,28.530785,77.271255,OZONE,6,154,114
India,Delhi,Delhi,"Patparganj, Delhi - DPCC",08-02-2026 21:00:00,28.623763,77.287209,CO,64,118,75
India,Delhi,Delhi,"Punjabi Bagh, Delhi - DPCC",08-02-2026 21:00:00,28.674045,77.131023,PM10,108,186,141
India,Delhi,Delhi,"Pusa, Delhi - IMD",08-02-2026 21:00:00,28.636110,77.173332,PM10,57,176,117
India,Delhi,Delhi,"Pusa, Delhi - IMD",08-02-2026 21:00:00,28.636110,77.173332,NO2,44,212,83
India,Chhattisgarh,Chhal,"Nawapara SECL Colony, Chhal - CECB",08-02-2026 21:00:00,22.118125,83.140608,NH3,5,5,5
India,Chhattisgarh,Korba,"Rampur, Korba - CECB",08-02-2026 21:00:00,22.368195,82.746431,OZONE,2,8,7
India,Chhattisgarh,Kunjemura,"OP Jindal School, Kunjemura - CECB",08-02-2026 21:00:00,22.126650,83.483212,PM2.5,22,128,69
India,Chhattisgarh,Kunjemura,"OP Jindal School, Kunjemura - CECB",08-02-2026 21:00:00,22.126650,83.483212,NO2,11,53,33
India,Chhattisgarh,Milupara,"Govt. Higher Secondary School, Milupara - CECB",08-02-2026 21:00:00,22.1910172,83.5197009,CO,10,40,19
India,Delhi,Delhi,"Rohini, Delhi - DPCC",08-02-2026 21:00:00,28.732528,77.119920,NO2,18,101,37
India,Delhi,Delhi,"Rohini, Delhi - DPCC",08-02-2026 21:00:00,28.732528,77.119920,SO2,11,45,18
India,Delhi,Delhi,"Sirifort, Delhi - CPCB",08-02-2026 21:00:00,28.5504249,77.2159377,SO2,33,35,34
India,Delhi,Delhi,"Sirifort, Delhi - CPCB",08-02-2026 21:00:00,28.5504249,77.2159377,CO,6,55,15
India,Delhi,Delhi,"Sirifort, Delhi - CPCB",08-02-2026 21:00:00,28.5504249,77.2159377,OZONE,4,23,20
India,Delhi,Delhi,"Sonia Vihar, Delhi - DPCC",08-02-2026 21:00:00,28.710508,77.249485,NH3,7,9,8
India,Delhi,Delhi,"Sonia Vihar, Delhi - DPCC",08-02-2026 21:00:00,28.710508,77.249485,OZONE,5,149,123
India,Chhattisgarh,Raipur,"AIIMS, Raipur - CECB",08-02-2026 21:00:00,21.258815,81.578979,OZONE,1,3,2
India,Chhattisgarh,Tumidih,"OP Jindal Industrial Park, Tumidih - CECB",08-02-2026 21:00:00,22.06631475,83.33820077,SO2,5,8,6
India,Chhattisgarh,Tumidih,"OP Jindal Industrial Park, Tumidih - CECB",08-02-2026 21:00:00,22.06631475,83.33820077,OZONE,6,75,73
India,Haryana,Mandikhera,"General Hospital, Mandikhera(Nuh) - HSPCB",08-02-2026 21:00:00,27.9002,76.9938,PM10,50,83,69
India,Haryana,Manesar,"Sector-2 IMT, Manesar - HSPCB",08-02-2026 21:00:00,28.360699,76.936090,PM10,50,140,100
India,Haryana,Manesar,"Sector-2 IMT, Manesar - HSPCB",08-02-2026 21:00:00,28.360699,76.936090,NH3,13,16,14
India,Haryana,Manesar,"Sector-2 IMT, Manesar - HSPCB",08-02-2026 21:00:00,28.360699,76.936090,SO2,15,37,26
India,Haryana,Narnaul,"Shastri Nagar, Narnaul - HSPCB",08-02-2026 21:00:00,28.060249,76.113115,PM2.5,48,205,133
India,Haryana,Narnaul,"Shastri Nagar, Narnaul - HSPCB",08-02-2026 21:00:00,28.060249,76.113115,NO2,52,77,62
India,Haryana,Narnaul,"Shastri Nagar, Narnaul - HSPCB",08-02-2026 21:00:00,28.060249,76.113115,SO2,4,5,4
India,Haryana,Narnaul,"Shastri Nagar, Narnaul - HSPCB",08-02-2026 21:00:00,28.060249,76.113115,OZONE,1,9,6
India,Haryana,Palwal,"Shyam Nagar, Palwal - HSPCB",08-02-2026 21:00:00,28.1485564,77.3320667,NO2,23,24,24
India,Haryana,Panchgaon,"Amity University, Panchgaon - IITM",08-02-2026 21:00:00,28.3153,76.9143,NO2,NA,NA,NA
India,Haryana,Panchgaon,"Amity University, Panchgaon - IITM",08-02-2026 21:00:00,28.3153,76.9143,NH3,NA,NA,NA
India,Haryana,Panchkula,"Sector-6, Panchkula - HSPCB ",08-02-2026 21:00:00,30.7057778,76.8531805555555,PM2.5,15,74,42
India,Gujarat,Ahmedabad,"Rakhial, Ahmedabad - IITM",08-02-2026 21:00:00,23.016834,72.625775,NO2,13,105,45
India,Gujarat,Ahmedabad,"Rakhial, Ahmedabad - IITM",08-02-2026 21:00:00,23.016834,72.625775,CO,2,123,20
India,Gujarat,Ahmedabad,"SAC ISRO Bopal, Ahmedabad - IITM",08-02-2026 21:00:00,23.041137,72.456691,SO2,8,56,14
India,Gujarat,Ahmedabad,"SAC ISRO Bopal, Ahmedabad - IITM",08-02-2026 21:00:00,23.041137,72.456691,OZONE,1,103,79
India,Gujarat,Ahmedabad,"SAC ISRO Satellite, Ahmedabad - IITM",08-02-2026 21:00:00,23.023389,72.515201,SO2,5,74,17
India,Gujarat,Ahmedabad,"SAC ISRO Satellite, Ahmedabad - IITM",08-02-2026 21:00:00,23.023389,72.515201,CO,6,58,35
India,Gujarat,Ahmedabad,"SVPI Airport Hansol, Ahmedabad - IITM",08-02-2026 21:00:00,23.076793,72.627874,SO2,3,23,8
India,Gujarat,Ankleshwar,"GIDC, Ankleshwar - GPCB",08-02-2026 21:00:00,21.613267,73.010555,PM2.5,67,235,128
India,Gujarat,Ankleshwar,"GIDC, Ankleshwar - GPCB",08-02-2026 21:00:00,21.613267,73.010555,PM10,74,164,116
India,Gujarat,Ankleshwar,"GIDC, Ankleshwar - GPCB",08-02-2026 21:00:00,21.613267,73.010555,SO2,17,18,18
India,Gujarat,Bhavnagar,"Vidhyanagar, Bhavnagar - Nexteng Enviro",08-02-2026 21:00:00,21.755417,72.139056,PM2.5,14,232,79
India,Gujarat,Bhavnagar,"Vidhyanagar, Bhavnagar - Nexteng Enviro",08-02-2026 21:00:00,21.755417,72.139056,NH3,6,11,9
India,Delhi,Delhi,"Vivek Vihar, Delhi - DPCC",08-02-2026 21:00:00,28.672342,77.315260,PM2.5,61,327,179
India,Delhi,Delhi,"Wazirpur, Delhi - DPCC",08-02-2026 21:00:00,28.699793,77.165453,CO,32,54,36
India,Gujarat,Ahmedabad,"Chandkheda, Ahmedabad - IITM",08-02-2026 21:00:00,23.107969,72.574648,PM2.5,60,149,97
India,Gujarat,Ahmedabad,"Chandkheda, Ahmedabad - IITM",08-02-2026 21:00:00,23.107969,72.574648,OZONE,6,57,52
India,Gujarat,Ahmedabad,"Gyaspur, Ahmedabad - IITM",08-02-2026 21:00:00,22.977134,72.553024,NH3,4,23,14
India,Gujarat,Ahmedabad,"Gyaspur, Ahmedabad - IITM",08-02-2026 21:00:00,22.977134,72.553024,SO2,15,137,75
India,Gujarat,Ahmedabad,"Gyaspur, Ahmedabad - IITM",08-02-2026 21:00:00,22.977134,72.553024,CO,16,74,26
India,Gujarat,Ahmedabad,"Maninagar, Ahmedabad - GPCB",08-02-2026 21:00:00,23.002657,72.591912,PM2.5,62,154,99
India,Gujarat,Ahmedabad,"Maninagar, Ahmedabad - GPCB",08-02-2026 21:00:00,23.002657,72.591912,CO,9,30,21
India,Gujarat,Ahmedabad,"Maninagar, Ahmedabad - GPCB",08-02-2026 21:00:00,23.002657,72.591912,OZONE,34,93,78
India,Gujarat,Ahmedabad,"Raikhad, Ahmedabad - IITM",08-02-2026 21:00:00,23.020509,72.579261,PM10,127,198,159
India,Gujarat,Ahmedabad,"Raikhad, Ahmedabad - IITM",08-02-2026 21:00:00,23.020509,72.579261,NH3,10,33,17
India,Haryana,Faridabad,"Sector 11, Faridabad - HSPCB",08-02-2026 21:00:00,28.376058,77.315741,NO2,30,32,31
India,Haryana,Faridabad,"Sector 30, Faridabad - HSPCB",08-02-2026 21:00:00,28.4417,77.3217,CO,58,66,62
India,Haryana,Faridabad,"Sector 30, Faridabad - HSPCB",08-02-2026 21:00:00,28.4417,77.3217,OZONE,17,19,18
India,Haryana,Fatehabad,"Huda Sector, Fatehabad - HSPCB",08-02-2026 21:00:00,29.503664,75.467934,PM10,94,171,125
India,Haryana,Gurugram,"NISE Gwal Pahari, Gurugram - IMD",08-02-2026 21:00:00,28.422681,77.148944,PM2.5,2,308,162
India,Haryana,Gurugram,"NISE Gwal Pahari, Gurugram - IMD",08-02-2026 21:00:00,28.422681,77.148944,CO,11,66,19
India,Haryana,Gurugram,"NISE Gwal Pahari, Gurugram - IMD",08-02-2026 21:00:00,28.422681,77.148944,OZONE,6,70,48
India,Haryana,Gurugram,"Sector-51, Gurugram - HSPCB",08-02-2026 21:00:00,28.4227,77.0667,SO2,5,8,7
India,Haryana,Gurugram,"Vikas Sadan, Gurugram - HSPCB",08-02-2026 21:00:00,28.4501238,77.0263051,PM2.5,156,392,222
India,Gujarat,Surat,"Katargam, Surat - Nexteng Enviro",08-02-2026 21:00:00,21.217779 ,72.834787 ,CO,120,133,122
India,Gujarat,Surat,"Science Center, Surat - SMC",08-02-2026 21:00:00,21.170046,72.795405,PM2.5,2,66,27
India,Gujarat,Surat,"Science Center, Surat - SMC",08-02-2026 21:00:00,21.170046,72.795405,NO2,3,26,12
India,Gujarat,Vadodara,"Bapunagar, Vadodara - Nexteng Enviro",08-02-2026 21:00:00,22.320153,73.216285,PM2.5,38,303,167
India,Gujarat,Vatva,"Phase-4 GIDC, Vatva - GPCB",08-02-2026 21:00:00,22.969611,72.643500,PM2.5,60,374,180
India,Gujarat,Vatva,"Phase-4 GIDC, Vatva - GPCB",08-02-2026 21:00:00,22.969611,72.643500,NH3,8,17,12
India,Gujarat,Vatva,"Phase-4 GIDC, Vatva - GPCB",08-02-2026 21:00:00,22.969611,72.643500,CO,17,20,19
India,Haryana,Ambala,"Patti Mehar, Ambala - HSPCB",08-02-2026 21:00:00,30.379589,76.778328,PM2.5,51,81,62
India,Haryana,Ambala,"Patti Mehar, Ambala - HSPCB",08-02-2026 21:00:00,30.379589,76.778328,OZONE,11,14,13
India,Gujarat,Gandhinagar,"GIFT City, Gandhinagar - IITM",08-02-2026 21:00:00,23.163798,72.677768,PM10,114,326,145
India,Gujarat,Gandhinagar,"IIPHG Lekawada, Gandhinagar - IITM",08-02-2026 21:00:00,23.243639,72.68994,PM2.5,52,145,95
India,Gujarat,Gandhinagar,"IIPHG Lekawada, Gandhinagar - IITM",08-02-2026 21:00:00,23.243639,72.68994,PM10,73,130,110
India,Gujarat,Gandhinagar,"Sector-10, Gandhinagar - GPCB",08-02-2026 21:00:00,23.221714,72.654328,NH3,2,3,2
India,Gujarat,Gandhinagar,"Sector-10, Gandhinagar - GPCB",08-02-2026 21:00:00,23.221714,72.654328,OZONE,7,111,72
India,Gujarat,Rajkot,"Mavdi, Rajkot - Nexteng Enviro ",08-02-2026 21:00:00,22.248853,70.776774,PM2.5,52,158,94
India,Gujarat,Surat,"Katargam, Surat - Nexteng Enviro",08-02-2026 21:00:00,21.217779 ,72.834787 ,PM10,77,192,127
India,Haryana,Panipat,"Sector-18, Panipat - HSPCB",08-02-2026 21:00:00,29.432304,76.972765,CO,24,26,25
India,Haryana,Panipat,"Sector-18, Panipat - HSPCB",08-02-2026 21:00:00,29.432304,76.972765,OZONE,30,31,30
India,Himachal Pradesh,Baddi,"HIMUDA Complex Phase-1, Baddi - HPPCB",08-02-2026 21:00:00,30.943887,76.801991,PM2.5,62,357,131
India,Himachal Pradesh,Baddi,"HIMUDA Complex Phase-1, Baddi - HPPCB",08-02-2026 21:00:00,30.943887,76.801991,PM10,87,408,147
India,Jammu_and_Kashmir,Srinagar,"Khunmoh, Srinagar - JKPCC",08-02-2026 21:00:00,34.06313,74.96017,PM10,18,37,27
India,Jammu_and_Kashmir,Srinagar,"Rajbagh, Srinagar - JKPCC",08-02-2026 21:00:00,34.066206,74.819820,PM2.5,16,31,23
India,Haryana,Hisar,"Urban Estate-II, Hisar - HSPCB",08-02-2026 21:00:00,29.140560,75.744941,NH3,10,11,11
India,Haryana,Kaithal,"Rishi Nagar, Kaithal - HSPCB",08-02-2026 21:00:00,29.8006,76.4155,PM10,54,95,69
India,Haryana,Kurukshetra,"Sector-7, Kurukshetra - HSPCB",08-02-2026 21:00:00,29.966942,76.875879,CO,16,36,25
India,Haryana,Charkhi Dadri,"Mini Secretariat, Charkhi Dadri - HSPCB",08-02-2026 21:00:00,28.593883,76.270653,NO2,9,23,15
India,Haryana,Dharuhera,"Municipal Corporation Office, Dharuhera -  HSPCB",08-02-2026 21:00:00,28.206800,76.799700,OZONE,4,31,19
India,Karnataka,Ramanagara,"Vijay Nagar, Ramanagara - KSPCB",08-02-2026 21:00:00,12.733409,77.298051,CO,10,66,38
India,Karnataka,Tumakuru,"Thimmalapura, Tumakuru - KSPCB",08-02-2026 21:00:00,13.377516,77.099072,PM10,NA,NA,NA
India,Karnataka,Tumakuru,"Thimmalapura, Tumakuru - KSPCB",08-02-2026 21:00:00,13.377516,77.099072,NH3,NA,NA,NA
India,Karnataka,Tumakuru,"Thimmalapura, Tumakuru - KSPCB",08-02-2026 21:00:00,13.377516,77.099072,CO,52,54,53
India,Karnataka,Tumakuru,"Thimmalapura, Tumakuru - KSPCB",08-02-2026 21:00:00,13.377516,77.099072,OZONE,23,23,23
India,Karnataka,Vijayapura,"Ibrahimpur, Vijayapura - KSPCB",08-02-2026 21:00:00,16.802639,75.722694,PM2.5,30,31,30
India,Karnataka,Vijayapura,"Ibrahimpur, Vijayapura - KSPCB",08-02-2026 21:00:00,16.802639,75.722694,SO2,3,6,3
India,Karnataka,Vijayapura,"Ibrahimpur, Vijayapura - KSPCB",08-02-2026 21:00:00,16.802639,75.722694,CO,11,30,23
India,Karnataka,Yadgir,"Collector Office, Yadgir - KSPCB",08-02-2026 21:00:00,16.7602,77.1428,PM10,78,127,104
India,Karnataka,Yadgir,"Collector Office, Yadgir - KSPCB",08-02-2026 21:00:00,16.7602,77.1428,NH3,2,2,2
India,Kerala,Kannur,"Thavakkara, Kannur - Kerala PCB",08-02-2026 21:00:00,11.875000,75.373200,PM2.5,88,101,94
India,Kerala,Kannur,"Thavakkara, Kannur - Kerala PCB",08-02-2026 21:00:00,11.875000,75.373200,SO2,8,9,8
India,Kerala,Kannur,"Thavakkara, Kannur - Kerala PCB",08-02-2026 21:00:00,11.875000,75.373200,CO,19,22,20
India,Madhya Pradesh,Jabalpur,"Marhatal, Jabalpur - MPPCB",08-02-2026 21:00:00,23.168606,79.932247,NH3,2,3,2
India,Madhya Pradesh,Jabalpur,"Marhatal, Jabalpur - MPPCB",08-02-2026 21:00:00,23.168606,79.932247,CO,46,118,66
India,Madhya Pradesh,Jabalpur,"Suhagi, Jabalpur - JMC",08-02-2026 21:00:00,23.218135,79.957770,NO2,20,101,46
India,Madhya Pradesh,Jabalpur,"Suhagi, Jabalpur - JMC",08-02-2026 21:00:00,23.218135,79.957770,SO2,NA,NA,NA
India,Madhya Pradesh,Jabalpur,"Suhagi, Jabalpur - JMC",08-02-2026 21:00:00,23.218135,79.957770,CO,28,116,75
India,Madhya Pradesh,Katni,"Gole Bazar, Katni - MPPCB",08-02-2026 21:00:00,23.50016,80.23284,PM10,34,205,105
India,Madhya Pradesh,Katni,"Gole Bazar, Katni - MPPCB",08-02-2026 21:00:00,23.50016,80.23284,NH3,3,4,4
India,Madhya Pradesh,Katni,"Gole Bazar, Katni - MPPCB",08-02-2026 21:00:00,23.50016,80.23284,CO,7,108,32
India,Madhya Pradesh,Mandideep,"Sector-D Industrial Area, Mandideep - MPPCB",08-02-2026 21:00:00,23.108440,77.511428,OZONE,14,69,59
India,Madhya Pradesh,Pithampur,"Sector-2 Industrial Area, Pithampur - MPPCB",08-02-2026 21:00:00,22.624758,75.675238,PM10,70,332,172
India,Madhya Pradesh,Pithampur,"Sector-2 Industrial Area, Pithampur - MPPCB",08-02-2026 21:00:00,22.624758,75.675238,NO2,32,54,42
India,Madhya Pradesh,Pithampur,"Sector-2 Industrial Area, Pithampur - MPPCB",08-02-2026 21:00:00,22.624758,75.675238,CO,8,40,23
India,Jharkhand,Dhanbad,"Sardar Patel Nagar, Dhanbad - JSPCB",08-02-2026 21:00:00,23.80569,86.44268,CO,2,112,12
India,Jharkhand,Dhanbad,"Sardar Patel Nagar, Dhanbad - JSPCB",08-02-2026 21:00:00,23.80569,86.44268,OZONE,1,22,12
India,Karnataka,Belgaum,"Ramteerth Nagar, Belgaum - KSPCB",08-02-2026 21:00:00,15.888653,74.541751,NO2,36,119,57
India,Karnataka,Bengaluru,"BTM Layout, Bengaluru - CPCB",08-02-2026 21:00:00,12.9135218,77.5950804,PM2.5,82,123,97
India,Karnataka,Bengaluru,"BWSSB Kadabesanahalli, Bengaluru - CPCB",08-02-2026 21:00:00,12.9352049,77.6814488,PM10,113,206,147
India,Karnataka,Bengaluru,"BWSSB Kadabesanahalli, Bengaluru - CPCB",08-02-2026 21:00:00,12.9352049,77.6814488,NH3,NA,NA,NA
India,Karnataka,Bengaluru,"BWSSB Kadabesanahalli, Bengaluru - CPCB",08-02-2026 21:00:00,12.9352049,77.6814488,OZONE,14,63,44
India,Karnataka,Bengaluru,"Bapuji Nagar, Bengaluru - KSPCB",08-02-2026 21:00:00,12.951913,77.539784,PM2.5,72,97,84
India,Karnataka,Bengaluru,"Bapuji Nagar, Bengaluru - KSPCB",08-02-2026 21:00:00,12.951913,77.539784,PM10,122,158,135
India,Karnataka,Bengaluru,"Bapuji Nagar, Bengaluru - KSPCB",08-02-2026 21:00:00,12.951913,77.539784,NO2,64,122,98
India,Karnataka,Bengaluru,"Bapuji Nagar, Bengaluru - KSPCB",08-02-2026 21:00:00,12.951913,77.539784,OZONE,75,203,203
India,Kerala,Kollam,"Polayathode, Kollam - Kerala PCB",08-02-2026 21:00:00,8.8787,76.6073,PM10,73,111,92
India,Kerala,Thiruvananthapuram,"Plammoodu, Thiruvananthapuram - Kerala PCB",08-02-2026 21:00:00,8.5149093,76.9435879,OZONE,11,46,32
India,Kerala,Thrissur,"Corporation Ground, Thrissur - Kerala PCB",08-02-2026 21:00:00,10.532400,76.215900,OZONE,29,30,30
India,Madhya Pradesh,Bhopal,"Idgah Hills, Bhopal - MPPCB",08-02-2026 21:00:00,23.264759,77.381568,PM10,58,155,96
India,Madhya Pradesh,Bhopal,"Idgah Hills, Bhopal - MPPCB",08-02-2026 21:00:00,23.264759,77.381568,SO2,10,19,12
India,Madhya Pradesh,Bhopal,"Idgah Hills, Bhopal - MPPCB",08-02-2026 21:00:00,23.264759,77.381568,CO,28,63,36
India,Madhya Pradesh,Bhopal,"Paryavaran Parisar, Bhopal - MPPCB",08-02-2026 21:00:00,23.210494,77.425409,OZONE,4,56,47
India,Karnataka,Bengaluru,"Peenya, Bengaluru - CPCB",08-02-2026 21:00:00,13.0270199,77.494094,OZONE,20,21,21
India,Karnataka,Bengaluru,"RVCE-Mailasandra, Bengaluru - KSPCB",08-02-2026 21:00:00,12.921418,77.502466,SO2,6,6,6
India,Karnataka,Bengaluru,"Shivapura_Peenya, Bengaluru - KSPCB",08-02-2026 21:00:00,13.0246342,77.5080115,NO2,NA,NA,NA
India,Karnataka,Bengaluru,"Shivapura_Peenya, Bengaluru - KSPCB",08-02-2026 21:00:00,13.0246342,77.5080115,SO2,NA,NA,NA
India,Karnataka,Bengaluru,"Silk Board, Bengaluru - KSPCB",08-02-2026 21:00:00,12.917348,77.622813,PM2.5,74,116,92
India,Karnataka,Chamarajanagar,"Urban, Chamarajanagar - KSPCB",08-02-2026 21:00:00,11.55358,76.55521,NO2,15,30,28
India,Karnataka,Chikkaballapur,"Chikkaballapur Rural, Chikkaballapur - KSPCB",08-02-2026 21:00:00,13.428828,77.731418,CO,2,20,9
India,Madhya Pradesh,Indore,"Airport Area, Indore - IMC",08-02-2026 21:00:00,22.7289,75.8076,SO2,2,8,3
India,Madhya Pradesh,Indore,"Chhoti Gwaltoli, Indore - MPPCB",08-02-2026 21:00:00,22.4310,75.5213,NH3,NA,NA,NA
India,Madhya Pradesh,Indore,"Maguda Nagar, Indore - IMC",08-02-2026 21:00:00,22.7524,75.8872,NO2,10,25,18
India,Madhya Pradesh,Indore,"Maguda Nagar, Indore - IMC",08-02-2026 21:00:00,22.7524,75.8872,OZONE,18,21,19
India,Madhya Pradesh,Indore,"Regional Park, Indore - IMC",08-02-2026 21:00:00,22.6780,75.8559,NH3,1,3,2
India,Madhya Pradesh,Indore,"Residency Area, Indore - IMC",08-02-2026 21:00:00,22.7084,75.8815,NO2,8,38,23
India,Madhya Pradesh,Jabalpur,"Govindh Bhavan Colony, Jabalpur - JMC",08-02-2026 21:00:00,23.163174,79.973061,PM10,41,71,52
India,Madhya Pradesh,Damoh,"Shrivastav Colony, Damoh - MPPCB",08-02-2026 21:00:00,23.81748678,79.446246,CO,6,24,15
India,Madhya Pradesh,Gwalior,"City Center, Gwalior - MPPCB",08-02-2026 21:00:00,26.203442,78.193251,PM2.5,26,206,87
India,Madhya Pradesh,Gwalior,"Deen Dayal Nagar, Gwalior - MPPCB",08-02-2026 21:00:00,26.259242,78.216432,PM2.5,NA,NA,NA
India,Madhya Pradesh,Gwalior,"Deen Dayal Nagar, Gwalior - MPPCB",08-02-2026 21:00:00,26.259242,78.216432,OZONE,36,110,77
India,Madhya Pradesh,Gwalior,"Maharaj Bada, Gwalior - MPPCB",08-02-2026 21:00:00,26.200388,78.147714,SO2,6,11,8
India,Madhya Pradesh,Indore,"Airport Area, Indore - IMC",08-02-2026 21:00:00,22.7289,75.8076,PM2.5,71,378,222
India,Madhya Pradesh,Indore,"Airport Area, Indore - IMC",08-02-2026 21:00:00,22.7289,75.8076,PM10,55,234,122
India,Karnataka,Bengaluru,"Hombegowda Nagar, Bengaluru - KSPCB",08-02-2026 21:00:00,12.938539,77.590100,NH3,4,6,5
India,Karnataka,Bengaluru,"Hombegowda Nagar, Bengaluru - KSPCB",08-02-2026 21:00:00,12.938539,77.590100,CO,10,32,18
India,Karnataka,Bengaluru,"Jayanagar 5th Block, Bengaluru - KSPCB",08-02-2026 21:00:00,12.920984,77.584908,PM2.5,72,170,106
India,Karnataka,Bengaluru,"Jayanagar 5th Block, Bengaluru - KSPCB",08-02-2026 21:00:00,12.920984,77.584908,NO2,9,48,29
India,Karnataka,Bengaluru,"Kasturi Nagar, Bengaluru - KSPCB",08-02-2026 21:00:00,13.003872,77.664217,SO2,19,19,19
India,Karnataka,Bengaluru,"Peenya, Bengaluru - CPCB",08-02-2026 21:00:00,13.0270199,77.494094,PM2.5,22,51,32
India,Karnataka,Bengaluru,"Peenya, Bengaluru - CPCB",08-02-2026 21:00:00,13.0270199,77.494094,NO2,20,32,25
India,Karnataka,Kalaburagi,"Mahatma Basaveswar Colony, Kalaburgi - KSPCB",08-02-2026 21:00:00,17.336318,76.847397,PM10,30,75,60
India,Karnataka,Kalaburagi,"Mahatma Basaveswar Colony, Kalaburgi - KSPCB",08-02-2026 21:00:00,17.336318,76.847397,CO,32,54,38
India,Karnataka,Kalaburagi,"Mahatma Basaveswar Colony, Kalaburgi - KSPCB",08-02-2026 21:00:00,17.336318,76.847397,OZONE,14,19,17
India,Karnataka,Madikeri,"Stuart Hill, Madikeri - KSPCB",08-02-2026 21:00:00,12.415911,75.735050,PM2.5,36,59,46
India,Karnataka,Madikeri,"Stuart Hill, Madikeri - KSPCB",08-02-2026 21:00:00,12.415911,75.735050,PM10,32,52,41
India,Karnataka,Madikeri,"Stuart Hill, Madikeri - KSPCB",08-02-2026 21:00:00,12.415911,75.735050,SO2,7,7,7
India,Karnataka,Madikeri,"Stuart Hill, Madikeri - KSPCB",08-02-2026 21:00:00,12.415911,75.735050,CO,12,20,15
India,Madhya Pradesh,Sagar,"Civil Lines, Sagar - MPPCB",08-02-2026 21:00:00,23.838586,78.759431,PM10,44,178,75
India,Madhya Pradesh,Sagar,"Civil Lines, Sagar - MPPCB",08-02-2026 21:00:00,23.838586,78.759431,CO,22,64,29
India,Madhya Pradesh,Sagar,"Deen Dayal Nagar, Sagar - MPPCB",08-02-2026 21:00:00,23.8640158,78.80289321,SO2,3,6,4
India,Madhya Pradesh,Satna,"Bandhavgar Colony, Satna - Birla Cement",08-02-2026 21:00:00,24.58434363,80.8549414,PM10,69,71,70
India,Madhya Pradesh,Singrauli,"Suryakiran Bhawan NCL, Singrauli - MPPCB",08-02-2026 21:00:00,24.108970,82.645580,NO2,4,28,13
India,Madhya Pradesh,Singrauli,"Suryakiran Bhawan NCL, Singrauli - MPPCB",08-02-2026 21:00:00,24.108970,82.645580,NH3,1,2,1
India,Madhya Pradesh,Singrauli,"Suryakiran Bhawan NCL, Singrauli - MPPCB",08-02-2026 21:00:00,24.108970,82.645580,OZONE,1,28,20
India,Madhya Pradesh,Ujjain,"Mahashweta Nagar, Ujjain - MPPCB",08-02-2026 21:00:00,23.1633321,75.800225,PM10,48,167,110
India,Maharashtra,Ahmednagar,"Tarakpur, Ahmednagar - MPCB",08-02-2026 21:00:00,19.10122,74.73339,NO2,12,28,22
India,Maharashtra,Ahmednagar,"Tarakpur, Ahmednagar - MPCB",08-02-2026 21:00:00,19.10122,74.73339,SO2,17,30,24
India,Maharashtra,Mumbai,"Shivaji Nagar, Mumbai - BMC",08-02-2026 21:00:00,19.060498,72.923356,NO2,16,16,16
India,Maharashtra,Mumbai,"Shivaji Nagar, Mumbai - BMC",08-02-2026 21:00:00,19.060498,72.923356,OZONE,5,88,64
India,Maharashtra,Mumbai,"Siddharth Nagar-Worli, Mumbai - IITM",08-02-2026 21:00:00,19.000083,72.813993,PM10,83,136,114
India,Maharashtra,Mumbai,"Siddharth Nagar-Worli, Mumbai - IITM",08-02-2026 21:00:00,19.000083,72.813993,NO2,39,97,66
India,Maharashtra,Mumbai,"Siddharth Nagar-Worli, Mumbai - IITM",08-02-2026 21:00:00,19.000083,72.813993,CO,28,70,66
India,Maharashtra,Mumbai,"Sion, Mumbai - MPCB",08-02-2026 21:00:00,19.047000,72.874600,NO2,31,47,34
India,Maharashtra,Mumbai,"Vile Parle West, Mumbai - MPCB",08-02-2026 21:00:00,19.10861,72.83622,PM10,86,142,110
India,Maharashtra,Mumbai,"Vile Parle West, Mumbai - MPCB",08-02-2026 21:00:00,19.10861,72.83622,NO2,11,11,11
India,Maharashtra,Mumbai,"Vile Parle West, Mumbai - MPCB",08-02-2026 21:00:00,19.10861,72.83622,CO,22,24,23
India,Maharashtra,Nagpur,"Ambazari, Nagpur - MPCB",08-02-2026 21:00:00,21.121801,79.04952,NH3,2,15,6
India,Maharashtra,Nagpur,"Mahal, Nagpur - MPCB",08-02-2026 21:00:00,21.14472,79.107595,NO2,19,75,41
India,Maharashtra,Nagpur,"Mahal, Nagpur - MPCB",08-02-2026 21:00:00,21.14472,79.107595,OZONE,7,40,30
India,Maharashtra,Aurangabad,"Rachnakar Colony, Aurangabad - MPCB",08-02-2026 21:00:00,19.863756,75.321188,OZONE,11,92,58
India,Maharashtra,Badlapur,"Katrap, Badlapur - MPCB",08-02-2026 21:00:00,19.16485,73.23409,NO2,15,34,26
India,Maharashtra,Badlapur,"Katrap, Badlapur - MPCB",08-02-2026 21:00:00,19.16485,73.23409,NH3,6,9,7
India,Maharashtra,Belapur,"CBD Belapur, Belapur - MPCB",08-02-2026 21:00:00,19.0243902,73.0406721,PM2.5,78,311,159
India,Maharashtra,Bhiwandi,"Gokul Nagar, Bhiwandi - MPCB",08-02-2026 21:00:00,19.309073,73.057223,PM10,77,207,137
India,Maharashtra,Bhiwandi,"Gokul Nagar, Bhiwandi - MPCB",08-02-2026 21:00:00,19.309073,73.057223,NH3,4,8,6
India,Maharashtra,Boisar,"Khaira, Boisar - MPCB",08-02-2026 21:00:00,19.786089,72.757971,PM2.5,48,92,69
India,Maharashtra,Chandrapur,"Chauhan Colony, Chandrapur - MPCB",08-02-2026 21:00:00,19.962900,79.298714,SO2,37,38,38
India,Maharashtra,Chandrapur,"Chauhan Colony, Chandrapur - MPCB",08-02-2026 21:00:00,19.962900,79.298714,CO,24,38,29
India,Maharashtra,Chandrapur,"MIDC Khutala, Chandrapur - MPCB",08-02-2026 21:00:00,19.9775302,79.2337086,OZONE,17,19,18
India,Maharashtra,Dhule,"Deopur, Dhule - MPCB",08-02-2026 21:00:00,20.918946,74.776388,PM2.5,80,203,127
India,Maharashtra,Dhule,"Deopur, Dhule - MPCB",08-02-2026 21:00:00,20.918946,74.776388,SO2,1,10,5
India,Maharashtra,Dhule,"Deopur, Dhule - MPCB",08-02-2026 21:00:00,20.918946,74.776388,CO,10,67,18
India,Maharashtra,Jalgaon,"Prabhat Colony, Jalgaon - MPCB",08-02-2026 21:00:00,21.001264,75.565602,PM10,72,293,129
India,Maharashtra,Jalgaon,"Prabhat Colony, Jalgaon - MPCB",08-02-2026 21:00:00,21.001264,75.565602,NH3,2,3,3
India,Maharashtra,Jalgaon,"Prabhat Colony, Jalgaon - MPCB",08-02-2026 21:00:00,21.001264,75.565602,OZONE,4,87,66
India,Maharashtra,Jalna,"Old MIDC, Jalna - MPCB",08-02-2026 21:00:00,19.854616,75.905894,SO2,NA,NA,NA
India,Maharashtra,Kolhapur,"Sinchan Bhavan, Kolhapur - MPCB",08-02-2026 21:00:00,16.7143745,74.2426398,CO,2,10,6
India,Maharashtra,Mumbai,"Byculla, Mumbai - BMC",08-02-2026 21:00:00,18.9767,72.8380,NO2,48,170,88
India,Maharashtra,Mumbai,"Byculla, Mumbai - BMC",08-02-2026 21:00:00,18.9767,72.8380,SO2,2,4,3
India,Maharashtra,Mumbai,"Byculla, Mumbai - BMC",08-02-2026 21:00:00,18.9767,72.8380,CO,43,110,58
India,Maharashtra,Mumbai,"Chembur, Mumbai - MPCB",08-02-2026 21:00:00,19.0364585,72.8954371,PM10,86,122,103
India,Maharashtra,Mumbai,"Chhatrapati Shivaji Intl. Airport (T2), Mumbai - MPCB",08-02-2026 21:00:00,19.10078,72.87462,PM10,106,214,135
India,Maharashtra,Mumbai,"Chhatrapati Shivaji Intl. Airport (T2), Mumbai - MPCB",08-02-2026 21:00:00,19.10078,72.87462,NO2,1,2,1
India,Maharashtra,Mumbai,"Chhatrapati Shivaji Intl. Airport (T2), Mumbai - MPCB",08-02-2026 21:00:00,19.10078,72.87462,SO2,19,24,21
India,Maharashtra,Mumbai,"Chhatrapati Shivaji Intl. Airport (T2), Mumbai - MPCB",08-02-2026 21:00:00,19.10078,72.87462,OZONE,7,8,7
India,Maharashtra,Mumbai,"Deonar, Mumbai - IITM",08-02-2026 21:00:00,19.04946,72.9230,PM10,105,158,132
India,Maharashtra,Mumbai,"Deonar, Mumbai - IITM",08-02-2026 21:00:00,19.04946,72.9230,NH3,8,12,10
India,Maharashtra,Mahad,"Kamble Tarf Birwadi, Mahad - MPCB",08-02-2026 21:00:00,18.1023399,73.4783687,NH3,10,11,10
India,Maharashtra,Malegaon,"Mahesh Nagar, Malegaon - MPCB",08-02-2026 21:00:00,20.555712,74.529236,PM10,76,178,114
India,Maharashtra,Malegaon,"Mahesh Nagar, Malegaon - MPCB",08-02-2026 21:00:00,20.555712,74.529236,NO2,5,24,10
India,Maharashtra,Mira-Bhayandar,"Bhayandar West, Mira-Bhayandar - MPCB",08-02-2026 21:00:00,19.296481,72.840923,PM10,95,162,125
India,Maharashtra,Mira-Bhayandar,"Bhayandar West, Mira-Bhayandar - MPCB",08-02-2026 21:00:00,19.296481,72.840923,OZONE,1,46,38
India,Maharashtra,Mumbai,"Borivali East, Mumbai - MPCB",08-02-2026 21:00:00,19.2243333,72.8658113,PM2.5,35,49,42
India,Maharashtra,Mumbai,"Borivali East, Mumbai - MPCB",08-02-2026 21:00:00,19.2243333,72.8658113,OZONE,17,28,20
India,Maharashtra,Mumbai,"Byculla, Mumbai - BMC",08-02-2026 21:00:00,18.9767,72.8380,PM2.5,70,173,111
India,Maharashtra,Akola,"Ramdaspeth, Akola - MPCB",08-02-2026 21:00:00,20.719516,77.000253,OZONE,3,57,43
India,Maharashtra,Amravati,"Shivneri Colony, Amravati - MPCB",08-02-2026 21:00:00,20.9402359,77.7895248,PM10,63,117,90
India,Maharashtra,Amravati,"Shri Shivaji Science College, Amravati - MPCB",08-02-2026 21:00:00,20.939198,77.765701,SO2,2,17,6
India,Maharashtra,Aurangabad,"More Chowk Waluj, Aurangabad - MPCB",08-02-2026 21:00:00,19.8389439,75.244448,PM2.5,61,97,79
India,Maharashtra,Aurangabad,"More Chowk Waluj, Aurangabad - MPCB",08-02-2026 21:00:00,19.8389439,75.244448,SO2,13,22,16
India,Maharashtra,Aurangabad,"Rachnakar Colony, Aurangabad - MPCB",08-02-2026 21:00:00,19.863756,75.321188,NH3,2,5,4
India,Maharashtra,Mumbai,"Mazgaon, Mumbai - IITM",08-02-2026 21:00:00,18.96702,72.84214,CO,31,74,55
India,Maharashtra,Mumbai,"Mindspace-Malad West, Mumbai - MPCB",08-02-2026 21:00:00,19.1878657,72.8304069,NO2,16,111,45
India,Maharashtra,Mumbai,"Mindspace-Malad West, Mumbai - MPCB",08-02-2026 21:00:00,19.1878657,72.8304069,NH3,2,53,17
India,Maharashtra,Mumbai,"Navy Nagar-Colaba, Mumbai - IITM",08-02-2026 21:00:00,18.897756,72.813320,PM10,103,195,151
India,Maharashtra,Mumbai,"Sewri, Mumbai - BMC",08-02-2026 21:00:00,19.000084,72.856730,CO,17,56,22
India,Maharashtra,Mumbai,"Kandivali West, Mumbai - BMC",08-02-2026 21:00:00,19.215859,72.831718,PM2.5,73,141,98
India,Maharashtra,Mumbai,"Kherwadi_Bandra East, Mumbai - MPCB",08-02-2026 21:00:00,19.0632143,72.8456324,CO,3,81,11
India,Maharashtra,Mumbai,"Kurla, Mumbai - MPCB",08-02-2026 21:00:00,19.0863,72.8888,NO2,6,10,7
India,Maharashtra,Mumbai,"Kurla, Mumbai - MPCB",08-02-2026 21:00:00,19.0863,72.8888,NH3,2,2,2
India,Maharashtra,Mumbai,"Kurla, Mumbai - MPCB",08-02-2026 21:00:00,19.0863,72.8888,CO,14,31,14
India,Odisha,Bhubaneswar,"Patia, Bhubaneswar - OSPCB",08-02-2026 21:00:00,20.34652,85.81630,CO,36,108,56
India,Odisha,Bileipada,"Tata Township, Bileipada - OSPCB",08-02-2026 21:00:00,22.06156703,85.47409613,NO2,NA,NA,NA
India,Odisha,Bileipada,"Tata Township, Bileipada - OSPCB",08-02-2026 21:00:00,22.06156703,85.47409613,CO,18,116,24
India,Odisha,Brajrajnagar,"GM Office, Brajrajnagar - OSPCB",08-02-2026 21:00:00,21.8004996,83.8396977,PM10,42,171,96
India,Odisha,Brajrajnagar,"GM Office, Brajrajnagar - OSPCB",08-02-2026 21:00:00,21.8004996,83.8396977,NO2,25,34,29
India,Odisha,Brajrajnagar,"GM Office, Brajrajnagar - OSPCB",08-02-2026 21:00:00,21.8004996,83.8396977,OZONE,27,31,28
India,Odisha,Byasanagar,"Ferro Chrome Colony, Byasanagar - OSPCB",08-02-2026 21:00:00,20.94185,86.11510,PM2.5,23,140,85
India,Odisha,Byasanagar,"Ferro Chrome Colony, Byasanagar - OSPCB",08-02-2026 21:00:00,20.94185,86.11510,OZONE,49,179,142
India,Odisha,Cuttack,"CDA Area, Cuttack - OSPCB",08-02-2026 21:00:00,20.48891     ,85.84768     ,PM10,55,151,107
India,Odisha,Rourkela,"Fertilizer Township, Rourkela - OSPCB",08-02-2026 21:00:00,22.18972222,84.86277778,SO2,7,11,10
India,Odisha,Rourkela,"Sector-2, Rourkela - OSPCB",08-02-2026 21:00:00,22.24500000,84.88111111,PM10,43,76,54
India,Maharashtra,Nashik,"MIDC Ambad, Nashik - MPCB",08-02-2026 21:00:00,19.950220,73.731480,SO2,14,21,16
India,Maharashtra,Nashik,"MIDC Ambad, Nashik - MPCB",08-02-2026 21:00:00,19.950220,73.731480,CO,20,23,22
India,Maharashtra,Navi Mumbai,"Kopripada-Vashi, Navi Mumbai - MPCB",08-02-2026 21:00:00,19.090337,73.014232,PM2.5,42,73,64
India,Maharashtra,Navi Mumbai,"Kopripada-Vashi, Navi Mumbai - MPCB",08-02-2026 21:00:00,19.090337,73.014232,SO2,5,19,10
India,Maharashtra,Navi Mumbai,"Mahape, Navi Mumbai - MPCB",08-02-2026 21:00:00,19.1135051,73.008978,SO2,19,21,20
India,Maharashtra,Navi Mumbai,"Nerul, Navi Mumbai - MPCB",08-02-2026 21:00:00,19.008751,73.016620,PM2.5,68,300,137
India,Maharashtra,Navi Mumbai,"Sanpada, Navi Mumbai - MPCB",08-02-2026 21:00:00,19.0575752,73.0151367,PM10,68,196,116
India,Maharashtra,Navi Mumbai,"Sector-2E Kalamboli, Navi Mumbai - MPCB",08-02-2026 21:00:00,19.02579,73.10297,NO2,15,61,40
India,Maharashtra,Navi Mumbai,"Sector-2E Kalamboli, Navi Mumbai - MPCB",08-02-2026 21:00:00,19.02579,73.10297,NH3,2,16,10
India,Maharashtra,Nagpur,"Opp GPO Civil Lines, Nagpur - MPCB",08-02-2026 21:00:00,21.152875,79.0517531,NO2,10,56,25
India,Maharashtra,Nagpur,"Ram Nagar, Nagpur - MPCB",08-02-2026 21:00:00,21.143383,79.048912,PM10,78,147,113
India,Maharashtra,Nagpur,"Ram Nagar, Nagpur - MPCB",08-02-2026 21:00:00,21.143383,79.048912,OZONE,6,46,38
India,Maharashtra,Nanded,"Sneh Nagar, Nanded - MPCB",08-02-2026 21:00:00,19.173852,77.296291,SO2,NA,NA,NA
India,Maharashtra,Nashik,"Gangapur Road, Nashik - MPCB",08-02-2026 21:00:00,20.0073285,73.7762427,PM2.5,40,112,78
India,Maharashtra,Nashik,"Gangapur Road, Nashik - MPCB",08-02-2026 21:00:00,20.0073285,73.7762427,CO,20,22,22
India,Maharashtra,Nashik,"Hirawadi, Nashik - MPCB",08-02-2026 21:00:00,20.021503,73.813844,SO2,3,66,19
India,Maharashtra,Nashik,"Hirawadi, Nashik - MPCB",08-02-2026 21:00:00,20.021503,73.813844,CO,50,92,60
India,Maharashtra,Nashik,"MIDC Ambad, Nashik - MPCB",08-02-2026 21:00:00,19.950220,73.731480,PM10,76,123,102
India,Maharashtra,Pimpri-Chinchwad,"Thergaon, Pimpri Chinchwad - MPCB",08-02-2026 21:00:00,18.616318,73.765797,OZONE,1,76,57
India,Maharashtra,Pune,"Bhosari, Pune - IITM",08-02-2026 21:00:00,18.640051,73.848956,NO2,8,16,12
India,Maharashtra,Pune,"Bhosari, Pune - IITM",08-02-2026 21:00:00,18.640051,73.848956,CO,12,111,27
India,Maharashtra,Pune,"Dhankawadi, Pune - IITM",08-02-2026 21:00:00,18.459883,73.852193,NO2,20,89,59
India,Maharashtra,Pune,"Dhankawadi, Pune - IITM",08-02-2026 21:00:00,18.459883,73.852193,OZONE,6,34,30
India,Maharashtra,Pune,"Mhada Colony, Pune - IITM",08-02-2026 21:00:00,18.573040,73.927715,PM10,141,232,180
India,Maharashtra,Pune,"Panchawati_Pashan, Pune - IITM",08-02-2026 21:00:00,18.536457,73.805454,PM2.5,67,230,130
India,Maharashtra,Pune,"Panchawati_Pashan, Pune - IITM",08-02-2026 21:00:00,18.536457,73.805454,CO,6,27,14
India,Maharashtra,Pune,"Savitribai Phule Pune University, Pune - MPCB",08-02-2026 21:00:00,18.547056,73.826908,SO2,NA,NA,NA
India,Maharashtra,Pune,"Transport Nagar-Nigdi, Pune - IITM",08-02-2026 21:00:00,18.664282,73.763966,NO2,13,114,63
India,Maharashtra,Pune,"Transport Nagar-Nigdi, Pune - IITM",08-02-2026 21:00:00,18.664282,73.763966,OZONE,1,68,51
India,Maharashtra,Sangli,"Vijay Nagar, Sangli - MPCB",08-02-2026 21:00:00, 16.5038,74.3623,PM2.5,74,143,99
India,Maharashtra,Sangli,"Vijay Nagar, Sangli - MPCB",08-02-2026 21:00:00, 16.5038,74.3623,NO2,17,114,49
India,Maharashtra,Solapur,"Dnyaneshwar Nagar, Solapur - MPCB",08-02-2026 21:00:00,17.6336264,75.9132495,NO2,8,106,28
India,Maharashtra,Solapur,"Dnyaneshwar Nagar, Solapur - MPCB",08-02-2026 21:00:00,17.6336264,75.9132495,OZONE,5,51,32
India,Odisha,Talcher,"Talcher Coalfields,Talcher - OSPCB",08-02-2026 21:00:00,20.9360711,85.1707021,OZONE,28,57,46
India,Odisha,Tensa,"Barsua Iron Ore Mines, Tensa - OSPCB",08-02-2026 21:00:00,21.869985,85.167016,OZONE,12,30,18
India,Punjab,Bathinda,"Hardev Nagar, Bathinda - PPCB",08-02-2026 21:00:00,30.233011,74.907758,PM10,34,117,64
India,Punjab,Jalandhar,"Civil Line, Jalandhar - PPCB",08-02-2026 21:00:00,31.321907,75.578914,CO,58,69,64
India,Punjab,Jalandhar,"Civil Line, Jalandhar - PPCB",08-02-2026 21:00:00,31.321907,75.578914,OZONE,27,70,46
India,Odisha,Angul,"Hakimapada, Angul - OSPCB",08-02-2026 21:00:00,20.832874,85.104082,PM2.5,37,314,137
India,Odisha,Balasore,"Kalidaspur, Balasore - OSPCB",08-02-2026 21:00:00,21.51161,86.89088,PM2.5,28,237,107
India,Odisha,Barbil,"Forest Office, Barbil - OSPCB",08-02-2026 21:00:00,22.1166054,85.3945546,SO2,10,43,16
India,Odisha,Bhubaneswar,"Lingraj Mandir, Bhubaneswar - OSPCB",08-02-2026 21:00:00,20.240790,85.836784,SO2,5,43,14
India,Odisha,Bhubaneswar,"Lingraj Mandir, Bhubaneswar - OSPCB",08-02-2026 21:00:00,20.240790,85.836784,CO,84,112,94
India,Maharashtra,Parbhani,"Masoom Colony, Parbhani - MPCB",08-02-2026 21:00:00,19.265594,76.761463,PM10,57,288,113
India,Maharashtra,Parbhani,"Masoom Colony, Parbhani - MPCB",08-02-2026 21:00:00,19.265594,76.761463,NH3,3,5,4
India,Maharashtra,Pimpri-Chinchwad,"Gavalinagar, Pimpri Chinchwad - MPCB",08-02-2026 21:00:00,18.63673,73.82487,OZONE,32,32,32
India,Maharashtra,Pimpri-Chinchwad,"Thergaon, Pimpri Chinchwad - MPCB",08-02-2026 21:00:00,18.616318,73.765797,NH3,6,14,10
India,Maharashtra,Thane,"Kasarvadavali, Thane - MPCB",08-02-2026 21:00:00,19.26777,72.97182,SO2,8,37,16
India,Maharashtra,Thane,"Upvan Fort, Thane - MPCB",08-02-2026 21:00:00,19.222279,72.957979,PM10,101,129,113
India,Maharashtra,Virar,"Bolinj, Virar - MPCB",08-02-2026 21:00:00,19.4458210,72.7988231,PM2.5,50,89,73
India,Rajasthan,Jodhpur,"Samrat Ashok Udhyan, Jodhpur - RSPCB",08-02-2026 21:00:00,26.253384,72.976571,NO2,9,139,43
India,Rajasthan,Jodhpur,"Samrat Ashok Udhyan, Jodhpur - RSPCB",08-02-2026 21:00:00,26.253384,72.976571,CO,21,94,37
India,Rajasthan,Jodhpur,"Samrat Ashok Udhyan, Jodhpur - RSPCB",08-02-2026 21:00:00,26.253384,72.976571,OZONE,6,165,111
India,Rajasthan,Karauli,"Satyawati Vihar, Karauli - RSPCB",08-02-2026 21:00:00,26.506177,77.025989,PM10,49,305,102
India,Rajasthan,Kota,"Dhanmandi, Kota - RSPCB",08-02-2026 21:00:00,25.164090,75.858137,PM2.5,25,314,134
India,Rajasthan,Kota,"Nayapura, Kota - RSPCB",08-02-2026 21:00:00,25.196024,75.855668,PM2.5,22,260,101
India,Rajasthan,Kota,"Shrinath Puram, Kota - RSPCB",08-02-2026 21:00:00,25.14389,75.821256,PM2.5,64,305,127
India,Rajasthan,Kota,"Shrinath Puram, Kota - RSPCB",08-02-2026 21:00:00,25.14389,75.821256,CO,6,107,42
India,Rajasthan,Nagaur,"Karni Colony, Nagaur - RSPCB",08-02-2026 21:00:00,27.213494,73.734444,NO2,11,95,29
India,Rajasthan,Nagaur,"Karni Colony, Nagaur - RSPCB",08-02-2026 21:00:00,27.213494,73.734444,CO,19,100,35
India,Rajasthan,Sirohi,"Vedhaynath Colony, Sirohi - RSPCB",08-02-2026 21:00:00,24.885261,72.857549,CO,4,51,16
India,Rajasthan,Tonk,"Shastri Nagar, Tonk - RSPCB",08-02-2026 21:00:00,26.159933,75.780517,CO,20,104,40
India,Rajasthan,Udaipur,"Ashok Nagar, Udaipur - RSPCB",08-02-2026 21:00:00,24.5886166,73.6321397,PM2.5,55,174,98
India,Sikkim,Gangtok,"Zero Point GICI, Gangtok - SSPCB",08-02-2026 21:00:00,27.338530,88.614099,SO2,1,1,1
India,Sikkim,Gangtok,"Zero Point GICI, Gangtok - SSPCB",08-02-2026 21:00:00,27.338530,88.614099,OZONE,21,24,23
India,TamilNadu,Chennai,"Kodungaiyur, Chennai - TNPCB",08-02-2026 21:00:00,13.1278,80.2642,PM2.5,82,169,130
India,TamilNadu,Chennai,"Kodungaiyur, Chennai - TNPCB",08-02-2026 21:00:00,13.1278,80.2642,OZONE,26,35,31
India,TamilNadu,Chennai,"Manali Village, Chennai - TNPCB",08-02-2026 21:00:00,13.1662,80.2584,PM2.5,57,121,87
India,TamilNadu,Chennai,"Manali Village, Chennai - TNPCB",08-02-2026 21:00:00,13.1662,80.2584,PM10,64,138,93
India,Rajasthan,Baran,"Bamboliya, Baran - RSPCB",08-02-2026 21:00:00,25.106006,76.469948,NH3,8,10,9
India,Rajasthan,Baran,"Bamboliya, Baran - RSPCB",08-02-2026 21:00:00,25.106006,76.469948,SO2,4,14,8
India,Rajasthan,Baran,"Bamboliya, Baran - RSPCB",08-02-2026 21:00:00,25.106006,76.469948,CO,16,66,25
India,Rajasthan,Barmer,"Railway Colony, Barmer - RSPCB",08-02-2026 21:00:00,25.747299,71.393989,PM10,61,206,102
India,Rajasthan,Barmer,"Railway Colony, Barmer - RSPCB",08-02-2026 21:00:00,25.747299,71.393989,SO2,3,12,5
India,Rajasthan,Bhilwara,"Pratap Nagar, Bhilwara - RSPCB",08-02-2026 21:00:00,25.339605,74.618883,PM2.5,43,318,128
India,Rajasthan,Bhilwara,"Pratap Nagar, Bhilwara - RSPCB",08-02-2026 21:00:00,25.339605,74.618883,SO2,4,42,15
India,Rajasthan,Bhilwara,"Pratap Nagar, Bhilwara - RSPCB",08-02-2026 21:00:00,25.339605,74.618883,OZONE,4,66,42
India,Rajasthan,Bhiwadi,"RIICO Ind. Area III, Bhiwadi - RSPCB",08-02-2026 21:00:00,28.194909,76.862296,NH3,6,20,11
India,Rajasthan,Bhiwadi,"Vasundhara Nagar_UIT, Bhiwadi - RSPCB",08-02-2026 21:00:00,28.207266,76.829265,PM10,113,327,164
India,Rajasthan,Jhunjhunu,"Indra Nagar, Jhunjhunu - RSPCB",08-02-2026 21:00:00,28.108988,75.386577,PM10,73,267,129
India,Rajasthan,Jhunjhunu,"Indra Nagar, Jhunjhunu - RSPCB",08-02-2026 21:00:00,28.108988,75.386577,NH3,1,10,7
India,Rajasthan,Jhunjhunu,"Indra Nagar, Jhunjhunu - RSPCB",08-02-2026 21:00:00,28.108988,75.386577,SO2,4,13,8
India,Rajasthan,Jhunjhunu,"Indra Nagar, Jhunjhunu - RSPCB",08-02-2026 21:00:00,28.108988,75.386577,OZONE,7,128,91
India,Rajasthan,Jodhpur,"Collectorate, Jodhpur - RSPCB",08-02-2026 21:00:00,26.268249,73.0193853,PM2.5,25,76,48
India,Rajasthan,Jodhpur,"Collectorate, Jodhpur - RSPCB",08-02-2026 21:00:00,26.268249,73.0193853,NO2,22,48,28
India,Rajasthan,Jodhpur,"Digari Kalan, Jodhpur - RSPCB",08-02-2026 21:00:00,26.295810,73.082283,CO,16,100,33
India,Rajasthan,Jodhpur,"Jhalamand, Jodhpur - RSPCB",08-02-2026 21:00:00,26.215415,73.070156,CO,14,94,26
India,Rajasthan,Jodhpur,"Mandor, Jodhpur - RSPCB",08-02-2026 21:00:00,26.358805,73.047444,PM2.5,33,153,70
India,Rajasthan,Jodhpur,"Mandor, Jodhpur - RSPCB",08-02-2026 21:00:00,26.358805,73.047444,NO2,4,35,11
India,Rajasthan,Jaipur,"RIICO Sitapura, Jaipur - RSPCB",08-02-2026 21:00:00,26.786682,75.827928,NH3,5,10,8
India,Rajasthan,Jaipur,"Sector-2 Murlipura, Jaipur - RSPCB",08-02-2026 21:00:00,26.960669,75.771817,OZONE,9,84,58
India,Rajasthan,Jaipur,"Shastri Nagar, Jaipur - RSPCB",08-02-2026 21:00:00,26.9502929,75.730943,PM10,82,214,128
India,Rajasthan,Jaipur,"Shastri Nagar, Jaipur - RSPCB",08-02-2026 21:00:00,26.9502929,75.730943,OZONE,13,56,46
India,Rajasthan,Jaisalmer,"Sadar Bazar, Jaisalmer - RSPCB",08-02-2026 21:00:00,26.912329,70.909168,PM2.5,33,331,110
India,Rajasthan,Jalore,"Mudtra Sili, Jalore - RSPCB",08-02-2026 21:00:00,25.344694,72.626208,CO,19,134,47
India,Rajasthan,Jhalawar,"Rajlaxmi Nagar, Jhalawar - RSPCB",08-02-2026 21:00:00,24.588397,76.172782,PM2.5,27,363,143
India,Rajasthan,Jhalawar,"Rajlaxmi Nagar, Jhalawar - RSPCB",08-02-2026 21:00:00,24.588397,76.172782,NO2,91,138,111
India,Rajasthan,Bhiwadi,"Vasundhara Nagar_UIT, Bhiwadi - RSPCB",08-02-2026 21:00:00,28.207266,76.829265,CO,4,66,21
India,Rajasthan,Bikaner,"MM Ground, Bikaner - RSPCB",08-02-2026 21:00:00,28.018792,73.292658,NH3,3,13,8
India,Rajasthan,Bikaner,"MM Ground, Bikaner - RSPCB",08-02-2026 21:00:00,28.018792,73.292658,OZONE,12,181,118
India,Rajasthan,Bundi,"New Colony, Bundi - RSPCB",08-02-2026 21:00:00,25.435774,75.644272,NO2,15,97,38
India,Rajasthan,Chittorgarh,"Shastri Nagar, Chittorgarh - RSPCB",08-02-2026 21:00:00,24.892047,74.623527,NH3,14,27,20
India,Rajasthan,Churu,"Subash Chowk, Churu - RSPCB",08-02-2026 21:00:00,28.296139,74.961696,PM10,62,266,129
India,Rajasthan,Dausa,"Khatikan Mohalla, Dausa - RSPCB",08-02-2026 21:00:00,26.895552,76.334753,NH3,10,26,17
India,Rajasthan,Pali,"Indira Colony Vistar, Pali - RSPCB",08-02-2026 21:00:00,25.771061, 73.340227,OZONE,1,58,45
India,Rajasthan,Pratapgarh,"Pragati Nagar, Pratapgarh - RSPCB",08-02-2026 21:00:00,24.041198,74.780702,PM2.5,55,143,91
India,Rajasthan,Pratapgarh,"Pragati Nagar, Pratapgarh - RSPCB",08-02-2026 21:00:00,24.041198,74.780702,OZONE,48,88,79
India,Rajasthan,Rajsamand,"Dhoinda, Rajsamand - RSPCB",08-02-2026 21:00:00,25.036360,73.883502,NO2,14,64,32
India,Rajasthan,Sawai Madhopur,"Sahu Nagar, Sawai Madhopur - RSPCB",08-02-2026 21:00:00,26.031443,76.359327,PM2.5,16,398,92
India,Rajasthan,Sawai Madhopur,"Sahu Nagar, Sawai Madhopur - RSPCB",08-02-2026 21:00:00,26.031443,76.359327,OZONE,9,164,118
India,Rajasthan,Sirohi,"Vedhaynath Colony, Sirohi - RSPCB",08-02-2026 21:00:00,24.885261,72.857549,PM10,NA,NA,NA
India,Rajasthan,Dholpur,"Raja Ganj, Dholpur - RSPCB",08-02-2026 21:00:00,26.699557,77.898881,CO,48,174,167
India,Rajasthan,Dungarpur,"Bhoiwada, Dungarpur - RSPCB",08-02-2026 21:00:00,23.837789,73.714926,CO,16,50,25
India,Rajasthan,Hanumangarh,"Housing Board, Hanumangarh - RSPCB",08-02-2026 21:00:00,29.610750,74.283608,PM10,55,255,131
India,Rajasthan,Hanumangarh,"Housing Board, Hanumangarh - RSPCB",08-02-2026 21:00:00,29.610750,74.283608,SO2,3,24,8
India,Rajasthan,Jaipur,"Adarsh Nagar, Jaipur - RSPCB",08-02-2026 21:00:00,26.902909,75.836858,PM2.5,78,315,200
India,Rajasthan,Jaipur,"Adarsh Nagar, Jaipur - RSPCB",08-02-2026 21:00:00,26.902909,75.836858,NH3,12,47,29
India,Punjab,Ludhiana,"Punjab Agricultural University, Ludhiana - PPCB",08-02-2026 21:00:00,30.9028,75.8086,CO,49,95,67
India,Punjab,Patiala,"Model Town, Patiala - PPCB",08-02-2026 21:00:00,30.349388,76.366642,PM2.5,NA,NA,NA
India,Punjab,Patiala,"Model Town, Patiala - PPCB",08-02-2026 21:00:00,30.349388,76.366642,NH3,NA,NA,NA
India,Punjab,Patiala,"Model Town, Patiala - PPCB",08-02-2026 21:00:00,30.349388,76.366642,CO,15,28,22
India,Rajasthan,Alwar,"Moti Doongri, Alwar - RSPCB",08-02-2026 21:00:00,27.554793,76.611536,NH3,10,15,12
India,TamilNadu,Chennai,"Manali Village, Chennai - TNPCB",08-02-2026 21:00:00,13.1662,80.2584,NO2,2,7,4
India,TamilNadu,Chennai,"Manali Village, Chennai - TNPCB",08-02-2026 21:00:00,13.1662,80.2584,SO2,16,17,17
India,TamilNadu,Chennai,"Manali, Chennai - CPCB",08-02-2026 21:00:00,13.164544,80.26285,PM10,NA,NA,NA
India,TamilNadu,Chennai,"Manali, Chennai - CPCB",08-02-2026 21:00:00,13.164544,80.26285,SO2,11,26,18
India,TamilNadu,Chennai,"Perungudi, Chennai - TNPCB",08-02-2026 21:00:00,12.9533,80.2357,PM10,63,127,100
India,TamilNadu,Chennai,"Perungudi, Chennai - TNPCB",08-02-2026 21:00:00,12.9533,80.2357,CO,56,88,63
India,TamilNadu,Chennai,"Perungudi, Chennai - TNPCB",08-02-2026 21:00:00,12.9533,80.2357,OZONE,2,22,10
India,TamilNadu,Chennai,"Royapuram, Chennai - TNPCB",08-02-2026 21:00:00,13.1036,80.2909,PM2.5,43,183,109
India,TamilNadu,Chennai,"Velachery Res. Area, Chennai - CPCB",08-02-2026 21:00:00,13.0052189,80.2398125,PM2.5,51,109,79
India,TamilNadu,Coimbatore,"PSG College of Arts and Science, Coimbatore - TNPCB",08-02-2026 21:00:00,11.0328,77.0349,NO2,10,11,11
India,TamilNadu,Coimbatore,"PSG College of Arts and Science, Coimbatore - TNPCB",08-02-2026 21:00:00,11.0328,77.0349,NH3,1,1,1
India,TamilNadu,Coimbatore,"PSG College of Arts and Science, Coimbatore - TNPCB",08-02-2026 21:00:00,11.0328,77.0349,SO2,3,5,4
India,TamilNadu,Coimbatore,"PSG College of Arts and Science, Coimbatore - TNPCB",08-02-2026 21:00:00,11.0328,77.0349,OZONE,4,7,6
India,TamilNadu,Gummidipoondi,"Anthoni Pillai Nagar, Gummidipoondi - TNPCB",08-02-2026 21:00:00,13.4127,80.1081,PM2.5,67,183,138
India,TamilNadu,Gummidipoondi,"Anthoni Pillai Nagar, Gummidipoondi - TNPCB",08-02-2026 21:00:00,13.4127,80.1081,NH3,1,1,1
India,TamilNadu,Nagapattinam,"Velippalayam, Nagapattinam - TNPCB",08-02-2026 21:00:00,10.798548,79.838212,CO,14,24,22
India,TamilNadu,Perundurai,"SIPCOT Industrial Park, Perundurai - TNPCB",08-02-2026 21:00:00,11.258242,77.552761,NH3,1,2,2
India,TamilNadu,Perundurai,"SIPCOT Industrial Park, Perundurai - TNPCB",08-02-2026 21:00:00,11.258242,77.552761,CO,38,44,41
India,TamilNadu,Thoothukudi,"Meelavittan, Thoothukudi - TNPCB",08-02-2026 21:00:00,8.816428 ,78.099039,OZONE,1,16,5
India,Telangana,Hyderabad,"Bollaram Industrial Area, Hyderabad - TSPCB",08-02-2026 21:00:00,17.540891,78.358528,PM2.5,46,177,98
India,Telangana,Hyderabad,"Bollaram Industrial Area, Hyderabad - TSPCB",08-02-2026 21:00:00,17.540891,78.358528,NO2,11,43,28
India,Telangana,Hyderabad,"Bollaram Industrial Area, Hyderabad - TSPCB",08-02-2026 21:00:00,17.540891,78.358528,NH3,2,6,4
India,Telangana,Hyderabad,"ECIL Kapra, Hyderabad - TSPCB",08-02-2026 21:00:00,17.470431,78.566959,PM2.5,49,81,64
India,Telangana,Hyderabad,"ICRISAT Patancheru, Hyderabad - TSPCB",08-02-2026 21:00:00,17.518400,78.278777,SO2,2,17,9
India,Telangana,Hyderabad,"ICRISAT Patancheru, Hyderabad - TSPCB",08-02-2026 21:00:00,17.518400,78.278777,OZONE,1,39,32
India,Telangana,Hyderabad,"IDA Pashamylaram, Hyderabad - TSPCB",08-02-2026 21:00:00,17.5316895,78.218939,NO2,7,7,7
India,Telangana,Hyderabad,"IDA Pashamylaram, Hyderabad - TSPCB",08-02-2026 21:00:00,17.5316895,78.218939,NH3,1,1,1
India,Telangana,Hyderabad,"IDA Pashamylaram, Hyderabad - TSPCB",08-02-2026 21:00:00,17.5316895,78.218939,CO,30,66,39
India,Telangana,Hyderabad,"Kokapet, Hyderabad - TSPCB",08-02-2026 21:00:00,17.393559,78.339194,SO2,12,18,14
India,Telangana,Hyderabad,"Kompally Municipal Office, Hyderabad - TSPCB",08-02-2026 21:00:00,17.544899,78.486949,PM10,67,87,76
India,Telangana,Hyderabad,"Kompally Municipal Office, Hyderabad - TSPCB",08-02-2026 21:00:00,17.544899,78.486949,NO2,10,13,13
India,Telangana,Hyderabad,"Nacharam_TSIIC IALA, Hyderabad - TSPCB",08-02-2026 21:00:00,17.429398,78.569354,PM10,71,74,72
India,Telangana,Hyderabad,"Nacharam_TSIIC IALA, Hyderabad - TSPCB",08-02-2026 21:00:00,17.429398,78.569354,SO2,15,16,16
India,Telangana,Hyderabad,"Nacharam_TSIIC IALA, Hyderabad - TSPCB",08-02-2026 21:00:00,17.429398,78.569354,CO,18,38,24
India,Telangana,Hyderabad,"New Malakpet, Hyderabad - TSPCB",08-02-2026 21:00:00,17.37206,78.50864,PM2.5,42,70,57
India,Telangana,Hyderabad,"Ramachandrapuram, Hyderabad - TSPCB",08-02-2026 21:00:00,17.528544,78.286195,NH3,3,5,4
India,Telangana,Hyderabad,"Sanathnagar, Hyderabad - TSPCB",08-02-2026 21:00:00,17.4559458,78.4332152,CO,40,57,42
India,Telangana,Hyderabad,"Somajiguda, Hyderabad - TSPCB",08-02-2026 21:00:00,17.417094,78.457437,NH3,4,5,4
India,Tripura,Agartala,"Bardowali, Agartala - Tripura SPCB",08-02-2026 21:00:00,23.8175497,91.2726974,PM2.5,5,60,33
India,Tripura,Agartala,"Bardowali, Agartala - Tripura SPCB",08-02-2026 21:00:00,23.8175497,91.2726974,NO2,13,13,13
India,Uttar_Pradesh,Agra,"Manoharpur, Agra - UPPCB",08-02-2026 21:00:00,27.23711,78.01936,PM2.5,33,96,62
India,Uttar_Pradesh,Agra,"Rohta, Agra - UPPCB",08-02-2026 21:00:00,27.106972,78.000111,NH3,5,6,6
India,Uttar_Pradesh,Agra,"Sanjay Palace, Agra - UPPCB",08-02-2026 21:00:00,27.19865833,78.00598056,PM2.5,39,417,185
India,Uttar_Pradesh,Agra,"Sanjay Palace, Agra - UPPCB",08-02-2026 21:00:00,27.19865833,78.00598056,CO,29,54,32
India,Uttar_Pradesh,Agra,"Sanjay Palace, Agra - UPPCB",08-02-2026 21:00:00,27.19865833,78.00598056,OZONE,3,96,79
India,Uttar_Pradesh,Agra,"Sector-3B Avas Vikas Colony, Agra - UPPCB",08-02-2026 21:00:00,27.19412,77.96237,PM10,NA,NA,NA
India,Uttar_Pradesh,Agra,"Shastripuram, Agra - UPPCB",08-02-2026 21:00:00,27.19862,77.92066,PM10,25,99,60
India,Uttar_Pradesh,Agra,"Shastripuram, Agra - UPPCB",08-02-2026 21:00:00,27.19862,77.92066,NO2,35,36,36
India,Uttar_Pradesh,Baghpat,"Sardar Patel Inter College, Baghpat - UPPCB",08-02-2026 21:00:00,28.964949,77.278761,SO2,9,63,25
India,Uttar_Pradesh,Baghpat,"Sardar Patel Inter College, Baghpat - UPPCB",08-02-2026 21:00:00,28.964949,77.278761,CO,13,88,65
India,Uttar_Pradesh,Bareilly,"Civil Lines, Bareilly - UPPCB",08-02-2026 21:00:00,28.359581,79.414455,PM10,34,70,48
India,Uttar_Pradesh,Bareilly,"Civil Lines, Bareilly - UPPCB",08-02-2026 21:00:00,28.359581,79.414455,NH3,1,1,1
India,Uttar_Pradesh,Bareilly,"Rajendra Nagar, Bareilly - UPPCB",08-02-2026 21:00:00,28.38910936,79.42963708,OZONE,2,2,1
India,Uttar_Pradesh,Bulandshahr,"Yamunapuram, Bulandshahr - UPPCB",08-02-2026 21:00:00,28.406963,77.849831,NO2,30,116,62
India,Uttar_Pradesh,Bulandshahr,"Yamunapuram, Bulandshahr - UPPCB",08-02-2026 21:00:00,28.406963,77.849831,SO2,14,32,20
India,Uttar_Pradesh,Firozabad,"Nagla Bhau, Firozabad - UPPCB",08-02-2026 21:00:00,27.168897,78.376960,NO2,17,17,17
India,Uttar_Pradesh,Firozabad,"Nagla Bhau, Firozabad - UPPCB",08-02-2026 21:00:00,27.168897,78.376960,NH3,2,2,2
India,Uttar_Pradesh,Ghaziabad,"Indirapuram, Ghaziabad - UPPCB",08-02-2026 21:00:00,28.646233,77.358075,NH3,17,22,19
India,Uttar_Pradesh,Ghaziabad,"Loni, Ghaziabad - UPPCB",08-02-2026 21:00:00,28.757294,77.278792,PM2.5,73,351,227
India,Uttar_Pradesh,Ghaziabad,"Loni, Ghaziabad - UPPCB",08-02-2026 21:00:00,28.757294,77.278792,PM10,124,429,196
India,Uttar_Pradesh,Ghaziabad,"Sanjay Nagar, Ghaziabad - UPPCB",08-02-2026 21:00:00,28.685382,77.453839,OZONE,13,59,49
India,Uttar_Pradesh,Ghaziabad,"Vasundhara, Ghaziabad - UPPCB",08-02-2026 21:00:00,28.6603346,77.3572563,NH3,6,10,7
India,Uttar_Pradesh,Greater Noida,"Knowledge Park - III, Greater Noida - UPPCB",08-02-2026 21:00:00,28.47272,77.482000,SO2,3,17,11
India,Bihar,Hajipur,"Industrial Area, Hajipur - BSPCB",08-02-2026 21:00:00,25.697189,85.245900,SO2,4,6,5
India,Bihar,Hajipur,"Industrial Area, Hajipur - BSPCB",08-02-2026 21:00:00,25.697189,85.245900,OZONE,27,138,95
India,Bihar,Katihar,"Mirchaibari, Katihar - BSPCB",08-02-2026 21:00:00,25.560083,87.553265,NO2,8,10,9
India,Bihar,Katihar,"Mirchaibari, Katihar - BSPCB",08-02-2026 21:00:00,25.560083,87.553265,SO2,18,23,20
India,Bihar,Katihar,"Mirchaibari, Katihar - BSPCB",08-02-2026 21:00:00,25.560083,87.553265,CO,72,92,81
India,Bihar,Kishanganj,"SDM Office_Khagra, Kishanganj - BSPCB",08-02-2026 21:00:00,26.0881305,87.93840336,PM2.5,20,62,34
India,Bihar,Kishanganj,"SDM Office_Khagra, Kishanganj - BSPCB",08-02-2026 21:00:00,26.0881305,87.93840336,PM10,36,103,58
India,Bihar,Kishanganj,"SDM Office_Khagra, Kishanganj - BSPCB",08-02-2026 21:00:00,26.0881305,87.93840336,NO2,9,13,11
India,Bihar,Kishanganj,"SDM Office_Khagra, Kishanganj - BSPCB",08-02-2026 21:00:00,26.0881305,87.93840336,NH3,3,3,3
India,Bihar,Manguraha,"Forest Rest House, Manguraha - BSPCB",08-02-2026 21:00:00,27.308328,84.531742,NO2,2,11,7
India,Bihar,Manguraha,"Forest Rest House, Manguraha - BSPCB",08-02-2026 21:00:00,27.308328,84.531742,SO2,16,17,17
India,Bihar,Motihari,"Gandak Colony, Motihari - BSPCB",08-02-2026 21:00:00,26.63086,84.90051,CO,27,42,38
India,Bihar,Motihari,"Gandak Colony, Motihari - BSPCB",08-02-2026 21:00:00,26.63086,84.90051,OZONE,2,4,4
India,Bihar,Munger,"Town Hall, Munger - BSPCB",08-02-2026 21:00:00,25.376776,86.471523,PM2.5,72,257,116
India,Bihar,Muzaffarpur,"Buddha Colony, Muzaffarpur - BSPCB",08-02-2026 21:00:00,26.11442,85.39813,PM2.5,116,334,241
India,Bihar,Patna,"Muradpur, Patna - BSPCB",08-02-2026 21:00:00,25.619651,85.147382,OZONE,4,16,12
India,Bihar,Patna,"Rajbansi Nagar, Patna - BSPCB",08-02-2026 21:00:00,25.599486,85.113666,PM10,82,123,99
India,Bihar,Patna,"Rajbansi Nagar, Patna - BSPCB",08-02-2026 21:00:00,25.599486,85.113666,NH3,1,3,2
India,Bihar,Patna,"Rajbansi Nagar, Patna - BSPCB",08-02-2026 21:00:00,25.599486,85.113666,SO2,6,7,7
India,Bihar,Patna,"Samanpura, Patna - BSPCB",08-02-2026 21:00:00,25.596727,85.085624,PM10,98,139,117
India,Bihar,Patna,"Samanpura, Patna - BSPCB",08-02-2026 21:00:00,25.596727,85.085624,NO2,4,20,13
India,Bihar,Patna,"Samanpura, Patna - BSPCB",08-02-2026 21:00:00,25.596727,85.085624,SO2,6,7,6
India,Bihar,Purnia,"Mariam Nagar, Purnia - BSPCB",08-02-2026 21:00:00,25.366336,87.117468,PM10,60,99,80
India,Bihar,Saharsa,"Police Line, Saharsa - BSPCB",08-02-2026 21:00:00,25.892357,86.590325,PM2.5,57,248,135
India,Bihar,Saharsa,"Police Line, Saharsa - BSPCB",08-02-2026 21:00:00,25.892357,86.590325,NO2,6,9,7
India,Bihar,Saharsa,"Police Line, Saharsa - BSPCB",08-02-2026 21:00:00,25.892357,86.590325,NH3,4,5,4
India,Bihar,Saharsa,"Police Line, Saharsa - BSPCB",08-02-2026 21:00:00,25.892357,86.590325,SO2,15,18,16
India,Bihar,Saharsa,"Police Line, Saharsa - BSPCB",08-02-2026 21:00:00,25.892357,86.590325,CO,35,42,38
India,Bihar,Saharsa,"Police Line, Saharsa - BSPCB",08-02-2026 21:00:00,25.892357,86.590325,OZONE,9,11,10
India,Bihar,Samastipur,"DM Office_Kasipur, Samastipur - BSPCB",08-02-2026 21:00:00,25.859655,85.77944,PM2.5,62,293,114
India,Andhra_Pradesh,Visakhapatnam,"GVM Corporation, Visakhapatnam - APPCB",08-02-2026 21:00:00,17.72,83.3,NO2,12,161,67
India,Andhra_Pradesh,Visakhapatnam,"GVM Corporation, Visakhapatnam - APPCB",08-02-2026 21:00:00,17.72,83.3,NH3,2,4,3
India,Arunachal_Pradesh,Naharlagun,"Naharlagun, Naharlagun - APSPCB",08-02-2026 21:00:00,27.103358,93.679645,SO2,9,10,10
India,Assam,Byrnihat,"Central Academy for SFS, Byrnihat - PCBA",08-02-2026 21:00:00,26.071318,91.87488,SO2,29,33,32
India,Assam,Guwahati,"LGBI Airport, Guwahati - PCBA",08-02-2026 21:00:00,26.10887,91.589544,SO2,10,14,12
India,Assam,Guwahati,"LGBI Airport, Guwahati - PCBA",08-02-2026 21:00:00,26.10887,91.589544,CO,22,46,32
India,Assam,Guwahati,"LGBI Airport, Guwahati - PCBA",08-02-2026 21:00:00,26.10887,91.589544,OZONE,13,15,14
India,Bihar,Bihar Sharif,"D M Colony, Bihar Sharif - BSPCB",08-02-2026 21:00:00,25.204762,85.514960,NO2,9,10,9
India,Bihar,Buxar,"Charitra Van, Buxar - BSPCB",08-02-2026 21:00:00,25.567520,83.966379,NH3,3,3,3
India,Bihar,Buxar,"Charitra Van, Buxar - BSPCB",08-02-2026 21:00:00,25.567520,83.966379,OZONE,2,33,5
India,Bihar,Chhapra,"Darshan Nagar, Chhapra - BSPCB",08-02-2026 21:00:00,25.7808257,84.7446768,SO2,23,32,28
India,Bihar,Chhapra,"Darshan Nagar, Chhapra - BSPCB",08-02-2026 21:00:00,25.7808257,84.7446768,CO,36,62,44
India,Bihar,Gaya,"Kareemganj, Gaya - BSPCB",08-02-2026 21:00:00,24.792403,84.992416,PM2.5,27,97,52
India,Bihar,Gaya,"SFTI Kusdihra, Gaya - BSPCB",08-02-2026 21:00:00,24.762518,84.982348,PM2.5,55,84,69
India,Assam,Nagaon,"Christianpatty, Nagaon - PCBA",08-02-2026 21:00:00,26.349082,92.68449,OZONE,8,20,9
India,Assam,Silchar,"Tarapur, Silchar - PCBA",08-02-2026 21:00:00,24.82827,92.79525,CO,16,38,22
India,Assam,Sivasagar,"Girls College, Sivasagar - PCBA",08-02-2026 21:00:00,26.987634,94.636574,CO,20,67,28
India,Bihar,Araria,"Kharahiya Basti, Araria - BSPCB",08-02-2026 21:00:00,26.146529,87.454184,PM2.5,42,297,106
India,Bihar,Araria,"Kharahiya Basti, Araria - BSPCB",08-02-2026 21:00:00,26.146529,87.454184,NH3,4,4,4
India,Bihar,Araria,"Kharahiya Basti, Araria - BSPCB",08-02-2026 21:00:00,26.146529,87.454184,SO2,18,42,30
India,Bihar,Muzaffarpur,"MIT-Daudpur Kothi, Muzaffarpur - BSPCB",08-02-2026 21:00:00,26.1403345,85.3650192,PM2.5,92,103,95
India,Bihar,Muzaffarpur,"MIT-Daudpur Kothi, Muzaffarpur - BSPCB",08-02-2026 21:00:00,26.1403345,85.3650192,PM10,69,76,71
India,Bihar,Muzaffarpur,"MIT-Daudpur Kothi, Muzaffarpur - BSPCB",08-02-2026 21:00:00,26.1403345,85.3650192,NH3,5,5,5
India,Bihar,Patna,"DRM Office Danapur, Patna - BSPCB",08-02-2026 21:00:00,25.586562,85.043586,OZONE,1,16,12
India,Bihar,Patna,"Govt. High School Shikarpur, Patna - BSPCB",08-02-2026 21:00:00,25.592539,85.227158,PM2.5,5,37,15
India,Bihar,Patna,"Govt. High School Shikarpur, Patna - BSPCB",08-02-2026 21:00:00,25.592539,85.227158,NH3,2,2,2
India,Bihar,Aurangabad,"Gurdeo Nagar, Aurangabad - BSPCB",08-02-2026 21:00:00,24.75746,84.366208,CO,101,103,102
India,Bihar,Begusarai,"Lohiyanagar, Begusarai - BSPCB",08-02-2026 21:00:00,25.42742023,86.13886079,NO2,6,11,9
India,Bihar,Begusarai,"Lohiyanagar, Begusarai - BSPCB",08-02-2026 21:00:00,25.42742023,86.13886079,NH3,10,11,11
India,Bihar,Bettiah,"Kamalnath Nagar, Bettiah - BSPCB",08-02-2026 21:00:00,26.80365,84.51954,SO2,5,13,8
India,Bihar,Bhagalpur,"Mayaganj, Bhagalpur - BSPCB",08-02-2026 21:00:00,25.265194,87.012947,CO,66,82,73
India,Andhra_Pradesh,Anantapur,"Gulzarpet, Anantapur - APPCB",08-02-2026 21:00:00,14.675886,77.593027,PM10,86,100,95
India,Andhra_Pradesh,Anantapur,"Gulzarpet, Anantapur - APPCB",08-02-2026 21:00:00,14.675886,77.593027,NO2,20,20,20
India,Andhra_Pradesh,Anantapur,"Gulzarpet, Anantapur - APPCB",08-02-2026 21:00:00,14.675886,77.593027,OZONE,17,17,17
India,Andhra_Pradesh,Rajamahendravaram,"Anand Kala Kshetram, Rajamahendravaram - APPCB",08-02-2026 21:00:00,16.9872867,81.7363176,CO,20,62,27
India,Andhra_Pradesh,Tirupati,"Vaikuntapuram, Tirupati - APPCB",08-02-2026 21:00:00,13.615387,79.409230,CO,45,52,48
India,Andhra_Pradesh,Vijayawada,"Kanuru, Vijayawada - APPCB",08-02-2026 21:00:00,16.486692,80.699436,SO2,11,14,12
India,Andhra_Pradesh,Vijayawada,"Kanuru, Vijayawada - APPCB",08-02-2026 21:00:00,16.486692,80.699436,OZONE,24,24,24
India,Andhra_Pradesh,Vijayawada,"Rajiv Nagar, Vijayawada - APPCB",08-02-2026 21:00:00,16.554731,80.649110,PM2.5,10,76,59
India,Andhra_Pradesh,Amaravati,"Secretariat, Amaravati - APPCB",08-02-2026 21:00:00,16.5150833,80.5181667,PM10,99,240,136
India,Andhra_Pradesh,Anantapur,"Gulzarpet, Anantapur - APPCB",08-02-2026 21:00:00,14.675886,77.593027,PM2.5,90,109,100
India,Delhi,Delhi,"DTU, Delhi - CPCB",08-02-2026 21:00:00,28.7500499,77.1112615,SO2,32,37,33
India,Delhi,Delhi,"Dr. Karni Singh Shooting Range, Delhi - DPCC",08-02-2026 21:00:00,28.498571,77.264840,PM10,104,238,148
India,Delhi,Delhi,"Dr. Karni Singh Shooting Range, Delhi - DPCC",08-02-2026 21:00:00,28.498571,77.264840,NO2,16,94,39
India,Delhi,Delhi,"Dr. Karni Singh Shooting Range, Delhi - DPCC",08-02-2026 21:00:00,28.498571,77.264840,NH3,6,9,7
India,Delhi,Delhi,"Dr. Karni Singh Shooting Range, Delhi - DPCC",08-02-2026 21:00:00,28.498571,77.264840,SO2,8,30,15
India,Delhi,Delhi,"Dr. Karni Singh Shooting Range, Delhi - DPCC",08-02-2026 21:00:00,28.498571,77.264840,CO,24,102,33
India,Delhi,Delhi,"Dwarka-Sector 8, Delhi - DPCC ",08-02-2026 21:00:00,28.5710274,77.0719006,PM10,105,238,147
India,Delhi,Delhi,"Dwarka-Sector 8, Delhi - DPCC ",08-02-2026 21:00:00,28.5710274,77.0719006,NH3,18,25,22
India,Delhi,Delhi,"Dwarka-Sector 8, Delhi - DPCC ",08-02-2026 21:00:00,28.5710274,77.0719006,CO,42,149,58
India,Delhi,Delhi,"Dwarka-Sector 8, Delhi - DPCC ",08-02-2026 21:00:00,28.5710274,77.0719006,OZONE,10,14,11
India,Delhi,Delhi,"IGI Airport (T3), Delhi - IMD",08-02-2026 21:00:00,28.5627763,77.1180053,NO2,48,117,67
India,Delhi,Delhi,"IGI Airport (T3), Delhi - IMD",08-02-2026 21:00:00,28.5627763,77.1180053,CO,4,54,13
India,Delhi,Delhi,"IGI Airport (T3), Delhi - IMD",08-02-2026 21:00:00,28.5627763,77.1180053,OZONE,5,59,51
India,Delhi,Delhi,"IHBAS, Dilshad Garden, Delhi - CPCB",08-02-2026 21:00:00,28.6811736,77.3025234,PM2.5,77,193,99
India,Delhi,Delhi,"IHBAS, Dilshad Garden, Delhi - CPCB",08-02-2026 21:00:00,28.6811736,77.3025234,CO,57,104,71
India,Delhi,Delhi,"IIT Delhi, Delhi - IITM",08-02-2026 21:00:00,28.542460,77.191651,CO,20,86,37
India,Delhi,Delhi,"ITO, Delhi - CPCB",08-02-2026 21:00:00,28.628624,77.241060,PM2.5,48,305,154
India,Delhi,Delhi,"ITO, Delhi - CPCB",08-02-2026 21:00:00,28.628624,77.241060,CO,25,96,48
India,Chandigarh,Chandigarh,"Sector-53, Chandigarh - CPCC",08-02-2026 21:00:00,30.719859,76.738637,NH3,10,13,11
India,Chhattisgarh,Bhilai,"32Bungalows, Bhilai - CECB",08-02-2026 21:00:00,21.194815,81.314770,PM2.5,9,30,17
India,Chhattisgarh,Bhilai,"32Bungalows, Bhilai - CECB",08-02-2026 21:00:00,21.194815,81.314770,NO2,23,42,30
India,Chhattisgarh,Bhilai,"Civic Center, Bhilai - Bhilai Steel Plant",08-02-2026 21:00:00,21.185571,81.343175,NO2,10,158,65
India,Chhattisgarh,Bhilai,"Civic Center, Bhilai - Bhilai Steel Plant",08-02-2026 21:00:00,21.185571,81.343175,NH3,1,48,14
India,Chhattisgarh,Bhilai,"Civic Center, Bhilai - Bhilai Steel Plant",08-02-2026 21:00:00,21.185571,81.343175,CO,28,34,30
India,Chhattisgarh,Bhilai,"Hathkhoj, Bhilai - CECB",08-02-2026 21:00:00,21.224231,81.408350,PM10,7,153,47
India,Chhattisgarh,Bhilai,"Hathkhoj, Bhilai - CECB",08-02-2026 21:00:00,21.224231,81.408350,OZONE,3,11,10
India,Chhattisgarh,Chhal,"Nawapara SECL Colony, Chhal - CECB",08-02-2026 21:00:00,22.118125,83.140608,SO2,1,24,7
India,Chhattisgarh,Korba,"Rampur, Korba - CECB",08-02-2026 21:00:00,22.368195,82.746431,PM2.5,NA,NA,NA
India,Delhi,Delhi,"Jahangirpuri, Delhi - DPCC",08-02-2026 21:00:00,28.732820,77.170633,NO2,95,165,116
India,Delhi,Delhi,"Lodhi Road, Delhi - IMD",08-02-2026 21:00:00,28.5918245,77.2273074,PM2.5,43,186,83
India,Delhi,Delhi,"Lodhi Road, Delhi - IMD",08-02-2026 21:00:00,28.5918245,77.2273074,OZONE,13,112,86
India,Delhi,Delhi,"Major Dhyan Chand National Stadium, Delhi - DPCC",08-02-2026 21:00:00,28.611281,77.237738,PM10,89,175,127
India,Delhi,Delhi,"Major Dhyan Chand National Stadium, Delhi - DPCC",08-02-2026 21:00:00,28.611281,77.237738,NO2,42,178,81
India,Delhi,Delhi,"Major Dhyan Chand National Stadium, Delhi - DPCC",08-02-2026 21:00:00,28.611281,77.237738,SO2,8,46,15
India,Delhi,Delhi,"Major Dhyan Chand National Stadium, Delhi - DPCC",08-02-2026 21:00:00,28.611281,77.237738,CO,53,102,72
India,Delhi,Delhi,"Mandir Marg, Delhi - DPCC",08-02-2026 21:00:00,28.636429,77.201067,CO,71,103,78
India,Delhi,Delhi,"Mundka, Delhi - DPCC",08-02-2026 21:00:00,28.684678,77.076574,PM2.5,77,345,245
India,Delhi,Delhi,"Mundka, Delhi - DPCC",08-02-2026 21:00:00,28.684678,77.076574,PM10,105,424,177
India,Delhi,Delhi,"Mundka, Delhi - DPCC",08-02-2026 21:00:00,28.684678,77.076574,NO2,59,139,81
India,Chhattisgarh,Korba,"Urja Nagar, Korba - CECB",08-02-2026 21:00:00,22.348441,82.549611,NO2,13,18,15
India,Chhattisgarh,Kunjemura,"OP Jindal School, Kunjemura - CECB",08-02-2026 21:00:00,22.126650,83.483212,PM10,39,339,161
India,Chhattisgarh,Kunjemura,"OP Jindal School, Kunjemura - CECB",08-02-2026 21:00:00,22.126650,83.483212,SO2,1,28,7
India,Chhattisgarh,Kunjemura,"OP Jindal School, Kunjemura - CECB",08-02-2026 21:00:00,22.126650,83.483212,CO,16,47,18
India,Chhattisgarh,Milupara,"Govt. Higher Secondary School, Milupara - CECB",08-02-2026 21:00:00,22.1910172,83.5197009,PM10,33,187,73
India,Chhattisgarh,Milupara,"Govt. Higher Secondary School, Milupara - CECB",08-02-2026 21:00:00,22.1910172,83.5197009,NH3,1,2,2
India,Chhattisgarh,Raipur,"AIIMS, Raipur - CECB",08-02-2026 21:00:00,21.258815,81.578979,PM10,16,162,74
India,Chhattisgarh,Raipur,"Bhatagaon New ISBT, Raipur - CECB",08-02-2026 21:00:00,21.219665,81.630094,PM10,25,143,80
India,Delhi,Delhi,"Ashok Vihar, Delhi - DPCC",08-02-2026 21:00:00,28.695381,77.181665,NO2,24,125,52
India,Delhi,Delhi,"Burari Crossing, Delhi - IMD",08-02-2026 21:00:00,28.7256504,77.2011573,PM10,6,183,117
India,Delhi,Delhi,"Burari Crossing, Delhi - IMD",08-02-2026 21:00:00,28.7256504,77.2011573,CO,18,112,31
India,Delhi,Delhi,"CRRI Mathura Road, Delhi - IMD",08-02-2026 21:00:00,28.5512005,77.2735737,NO2,21,43,32
India,Delhi,Delhi,"CRRI Mathura Road, Delhi - IMD",08-02-2026 21:00:00,28.5512005,77.2735737,CO,1,64,15
India,Delhi,Delhi,"CRRI Mathura Road, Delhi - IMD",08-02-2026 21:00:00,28.5512005,77.2735737,OZONE,2,67,42
India,Delhi,Delhi,"Chandni Chowk, Delhi - IITM",08-02-2026 21:00:00,28.656756,77.227234,PM2.5,33,307,148
India,Delhi,Delhi,"Chandni Chowk, Delhi - IITM",08-02-2026 21:00:00,28.656756,77.227234,CO,70,122,92
India,Chhattisgarh,Raipur,"Bhatagaon New ISBT, Raipur - CECB",08-02-2026 21:00:00,21.219665,81.630094,CO,30,113,40
India,Chhattisgarh,Raipur,"Krishak Nagar, Raipur - CECB",08-02-2026 21:00:00,21.237755,81.705301,CO,19,54,22
India,Chhattisgarh,Tumidih,"OP Jindal Industrial Park, Tumidih - CECB",08-02-2026 21:00:00,22.06631475,83.33820077,NH3,1,2,2
India,Chhattisgarh,Tumidih,"OP Jindal Industrial Park, Tumidih - CECB",08-02-2026 21:00:00,22.06631475,83.33820077,CO,3,30,7
India,Delhi,Delhi,"Alipur, Delhi - DPCC",08-02-2026 21:00:00,28.815329,77.153010,CO,NA,NA,NA
India,Delhi,Delhi,"Anand Vihar, Delhi - DPCC",08-02-2026 21:00:00,28.647622,77.3158090,CO,48,104,54
India,Bihar,Samastipur,"DM Office_Kasipur, Samastipur - BSPCB",08-02-2026 21:00:00,25.859655,85.77944,PM10,61,164,93
India,Bihar,Samastipur,"DM Office_Kasipur, Samastipur - BSPCB",08-02-2026 21:00:00,25.859655,85.77944,NO2,NA,NA,NA
India,Bihar,Siwan,"Chitragupta Nagar, Siwan - BSPCB",08-02-2026 21:00:00,26.2271665,84.3570427,CO,60,110,106
India,Chandigarh,Chandigarh,"Sector 22, Chandigarh - CPCC",08-02-2026 21:00:00,30.735567,76.775714,SO2,6,38,11
India,Chandigarh,Chandigarh,"Sector-25, Chandigarh - CPCC",08-02-2026 21:00:00,30.751462,76.762879,NO2,9,15,12
India,Chandigarh,Chandigarh,"Sector-25, Chandigarh - CPCC",08-02-2026 21:00:00,30.751462,76.762879,SO2,2,48,14
India,Delhi,Delhi,"NSIT Dwarka, Delhi - CPCB",08-02-2026 21:00:00,28.60909,77.0325413,SO2,9,21,15
India,Delhi,Delhi,"NSIT Dwarka, Delhi - CPCB",08-02-2026 21:00:00,28.60909,77.0325413,OZONE,12,96,25
India,Delhi,Delhi,"Najafgarh, Delhi - DPCC",08-02-2026 21:00:00,28.570173,76.933762,OZONE,5,177,143
India,Delhi,Delhi,"Narela, Delhi - DPCC",08-02-2026 21:00:00,28.822836,77.101981,NO2,16,41,24
India,Delhi,Delhi,"Narela, Delhi - DPCC",08-02-2026 21:00:00,28.822836,77.101981,NH3,4,6,5
India,Delhi,Delhi,"Okhla Phase-2, Delhi - DPCC",08-02-2026 21:00:00,28.530785,77.271255,NH3,15,22,18
India,Delhi,Delhi,"Punjabi Bagh, Delhi - DPCC",08-02-2026 21:00:00,28.674045,77.131023,NH3,3,4,3
India,Delhi,Delhi,"Punjabi Bagh, Delhi - DPCC",08-02-2026 21:00:00,28.674045,77.131023,OZONE,5,77,53
India,Delhi,Delhi,"Pusa, Delhi - DPCC",08-02-2026 21:00:00,28.639652,77.146275,SO2,10,70,24
India,Delhi,Delhi,"Pusa, Delhi - DPCC",08-02-2026 21:00:00,28.639652,77.146275,OZONE,2,123,79
India,Delhi,Delhi,"Pusa, Delhi - IMD",08-02-2026 21:00:00,28.636110,77.173332,PM2.5,54,237,101
India,Delhi,Delhi,"R K Puram, Delhi - DPCC",08-02-2026 21:00:00,28.563262,77.186937,CO,24,121,53
India,Haryana,Ballabgarh,"Nathu Colony, Ballabgarh - HSPCB",08-02-2026 21:00:00,28.3419248,77.319699,NO2,NA,NA,NA
India,Haryana,Bhiwani,"H.B. Colony, Bhiwani - HSPCB",08-02-2026 21:00:00,28.806223,76.141105,PM2.5,176,500,274
India,Haryana,Bhiwani,"H.B. Colony, Bhiwani - HSPCB",08-02-2026 21:00:00,28.806223,76.141105,CO,4,10,8
India,Haryana,Bhiwani,"H.B. Colony, Bhiwani - HSPCB",08-02-2026 21:00:00,28.806223,76.141105,OZONE,9,20,14
India,Haryana,Charkhi Dadri,"Mini Secretariat, Charkhi Dadri - HSPCB",08-02-2026 21:00:00,28.593883,76.270653,SO2,10,11,10
India,Haryana,Dharuhera,"Municipal Corporation Office, Dharuhera -  HSPCB",08-02-2026 21:00:00,28.206800,76.799700,PM2.5,66,307,190
India,Haryana,Dharuhera,"Municipal Corporation Office, Dharuhera -  HSPCB",08-02-2026 21:00:00,28.206800,76.799700,NH3,9,26,19
India,Haryana,Dharuhera,"Municipal Corporation Office, Dharuhera -  HSPCB",08-02-2026 21:00:00,28.206800,76.799700,CO,54,102,91
India,Haryana,Faridabad,"New Industrial Town, Faridabad - HSPCB",08-02-2026 21:00:00,28.39072,77.30059,SO2,8,8,8
India,Haryana,Faridabad,"New Industrial Town, Faridabad - HSPCB",08-02-2026 21:00:00,28.39072,77.30059,CO,10,12,12
India,Haryana,Faridabad,"New Industrial Town, Faridabad - HSPCB",08-02-2026 21:00:00,28.39072,77.30059,OZONE,26,33,30
India,Haryana,Mandikhera,"General Hospital, Mandikhera(Nuh) - HSPCB",08-02-2026 21:00:00,27.9002,76.9938,CO,56,98,69
India,Haryana,Manesar,"Sector-2 IMT, Manesar - HSPCB",08-02-2026 21:00:00,28.360699,76.936090,NO2,47,56,50
India,Haryana,Narnaul,"Shastri Nagar, Narnaul - HSPCB",08-02-2026 21:00:00,28.060249,76.113115,NH3,6,20,11
India,Haryana,Palwal,"Shyam Nagar, Palwal - HSPCB",08-02-2026 21:00:00,28.1485564,77.3320667,PM2.5,44,68,56
India,Haryana,Palwal,"Shyam Nagar, Palwal - HSPCB",08-02-2026 21:00:00,28.1485564,77.3320667,PM10,47,77,62
India,Haryana,Palwal,"Shyam Nagar, Palwal - HSPCB",08-02-2026 21:00:00,28.1485564,77.3320667,NH3,8,9,9
India,Haryana,Panchgaon,"Amity University, Panchgaon - IITM",08-02-2026 21:00:00,28.3153,76.9143,PM10,NA,NA,NA
India,Haryana,Panchgaon,"Amity University, Panchgaon - IITM",08-02-2026 21:00:00,28.3153,76.9143,SO2,NA,NA,NA
India,Haryana,Panipat,"Sector-18, Panipat - HSPCB",08-02-2026 21:00:00,29.432304,76.972765,PM2.5,32,72,51
India,Gujarat,Vadodara,"Bapunagar, Vadodara - Nexteng Enviro",08-02-2026 21:00:00,22.320153,73.216285,PM10,59,339,136
India,Gujarat,Vadodara,"Bapunagar, Vadodara - Nexteng Enviro",08-02-2026 21:00:00,22.320153,73.216285,OZONE,1,4,3
India,Gujarat,Vapi,"Phase-1 GIDC, Vapi - GPCB",08-02-2026 21:00:00,20.362421,72.918013,NO2,NA,NA,NA
India,Gujarat,Vapi,"Phase-1 GIDC, Vapi - GPCB",08-02-2026 21:00:00,20.362421,72.918013,OZONE,8,9,9
India,Gujarat,Vatva,"Phase-4 GIDC, Vatva - GPCB",08-02-2026 21:00:00,22.969611,72.643500,NO2,94,139,113
India,Haryana,Ambala,"Patti Mehar, Ambala - HSPCB",08-02-2026 21:00:00,30.379589,76.778328,CO,26,44,32
India,Haryana,Bahadurgarh,"Arya Nagar, Bahadurgarh - HSPCB",08-02-2026 21:00:00,28.6701,76.9254,SO2,7,7,7
India,Haryana,Ballabgarh,"Nathu Colony, Ballabgarh - HSPCB",08-02-2026 21:00:00,28.3419248,77.319699,PM10,NA,NA,NA
India,Gujarat,Ahmedabad,"Rakhial, Ahmedabad - IITM",08-02-2026 21:00:00,23.016834,72.625775,OZONE,2,111,73
India,Gujarat,Ahmedabad,"SVPI Airport Hansol, Ahmedabad - IITM",08-02-2026 21:00:00,23.076793,72.627874,PM10,104,301,167
India,Gujarat,Ankleshwar,"GIDC, Ankleshwar - GPCB",08-02-2026 21:00:00,21.613267,73.010555,NH3,7,7,7
India,Gujarat,Bhavnagar,"Vidhyanagar, Bhavnagar - Nexteng Enviro",08-02-2026 21:00:00,21.755417,72.139056,PM10,104,230,142
India,Gujarat,Bhavnagar,"Vidhyanagar, Bhavnagar - Nexteng Enviro",08-02-2026 21:00:00,21.755417,72.139056,NO2,95,107,100
India,Gujarat,Bhavnagar,"Vidhyanagar, Bhavnagar - Nexteng Enviro",08-02-2026 21:00:00,21.755417,72.139056,OZONE,6,16,14
India,Gujarat,Gandhinagar,"GIFT City, Gandhinagar - IITM",08-02-2026 21:00:00,23.163798,72.677768,NO2,15,95,34
India,Gujarat,Gandhinagar,"IIPHG Lekawada, Gandhinagar - IITM",08-02-2026 21:00:00,23.243639,72.68994,OZONE,2,50,32
India,Gujarat,Gandhinagar,"Sector-10, Gandhinagar - GPCB",08-02-2026 21:00:00,23.221714,72.654328,PM2.5,63,93,79
India,Gujarat,Gandhinagar,"Sector-10, Gandhinagar - GPCB",08-02-2026 21:00:00,23.221714,72.654328,CO,48,60,54
India,Gujarat,Mehsana,"Sadanand Nagar, Mehsana - Nexteng Enviro",08-02-2026 21:00:00,23.593150,72.372792,SO2,4,41,11
India,Gujarat,Rajkot,"Mavdi, Rajkot - Nexteng Enviro ",08-02-2026 21:00:00,22.248853,70.776774,NO2,9,131,43
India,Gujarat,Rajkot,"Mavdi, Rajkot - Nexteng Enviro ",08-02-2026 21:00:00,22.248853,70.776774,NH3,3,6,4
India,Gujarat,Rajkot,"Mavdi, Rajkot - Nexteng Enviro ",08-02-2026 21:00:00,22.248853,70.776774,OZONE,10,42,37
India,Delhi,Delhi,"Shadipur, Delhi - CPCB",08-02-2026 21:00:00,28.6514781,77.1473105,PM2.5,145,322,209
India,Delhi,Delhi,"Shadipur, Delhi - CPCB",08-02-2026 21:00:00,28.6514781,77.1473105,NH3,11,15,13
India,Delhi,Delhi,"Shadipur, Delhi - CPCB",08-02-2026 21:00:00,28.6514781,77.1473105,SO2,8,20,15
India,Delhi,Delhi,"Shadipur, Delhi - CPCB",08-02-2026 21:00:00,28.6514781,77.1473105,CO,10,102,39
India,Delhi,Delhi,"Sirifort, Delhi - CPCB",08-02-2026 21:00:00,28.5504249,77.2159377,NO2,29,32,30
India,Delhi,Delhi,"Sonia Vihar, Delhi - DPCC",08-02-2026 21:00:00,28.710508,77.249485,PM10,104,209,149
India,Delhi,Delhi,"Sonia Vihar, Delhi - DPCC",08-02-2026 21:00:00,28.710508,77.249485,SO2,NA,NA,NA
India,Delhi,Delhi,"Sri Aurobindo Marg, Delhi - DPCC",08-02-2026 21:00:00,28.531346,77.190156,NH3,4,6,5
India,Haryana,Fatehabad,"Huda Sector, Fatehabad - HSPCB",08-02-2026 21:00:00,29.503664,75.467934,PM2.5,63,175,95
India,Haryana,Fatehabad,"Huda Sector, Fatehabad - HSPCB",08-02-2026 21:00:00,29.503664,75.467934,NH3,13,15,14
India,Haryana,Gurugram,"NISE Gwal Pahari, Gurugram - IMD",08-02-2026 21:00:00,28.422681,77.148944,NO2,20,65,42
India,Haryana,Gurugram,"Sector-51, Gurugram - HSPCB",08-02-2026 21:00:00,28.4227,77.0667,CO,28,64,41
India,Haryana,Gurugram,"Vikas Sadan, Gurugram - HSPCB",08-02-2026 21:00:00,28.4501238,77.0263051,OZONE,4,31,22
India,Gujarat,Ahmedabad,"Chandkheda, Ahmedabad - IITM",08-02-2026 21:00:00,23.107969,72.574648,PM10,106,161,133
India,Gujarat,Ahmedabad,"Chandkheda, Ahmedabad - IITM",08-02-2026 21:00:00,23.107969,72.574648,SO2,3,39,18
India,Gujarat,Ahmedabad,"Chandkheda, Ahmedabad - IITM",08-02-2026 21:00:00,23.107969,72.574648,CO,NA,NA,NA
India,Gujarat,Ahmedabad,"Maninagar, Ahmedabad - GPCB",08-02-2026 21:00:00,23.002657,72.591912,PM10,83,128,109
India,Gujarat,Ahmedabad,"Maninagar, Ahmedabad - GPCB",08-02-2026 21:00:00,23.002657,72.591912,NO2,94,105,99
India,Gujarat,Ahmedabad,"Rakhial, Ahmedabad - IITM",08-02-2026 21:00:00,23.016834,72.625775,SO2,20,105,38
India,Haryana,Hisar,"Urban Estate-II, Hisar - HSPCB",08-02-2026 21:00:00,29.140560,75.744941,SO2,6,14,10
India,Haryana,Jind,"Police Lines, Jind - HSPCB",08-02-2026 21:00:00,29.307814,76.337619,CO,22,96,75
India,Haryana,Karnal,"Sector-12, Karnal - HSPCB",08-02-2026 21:00:00,29.695300,77.002700,NO2,6,7,6
India,Haryana,Kurukshetra,"Sector-7, Kurukshetra - HSPCB",08-02-2026 21:00:00,29.966942,76.875879,OZONE,13,61,50
India,Madhya Pradesh,Indore,"Airport Area, Indore - IMC",08-02-2026 21:00:00,22.7289,75.8076,CO,2,42,4
India,Madhya Pradesh,Indore,"Chhoti Gwaltoli, Indore - MPPCB",08-02-2026 21:00:00,22.4310,75.5213,NO2,63,149,111
India,Madhya Pradesh,Indore,"Chhoti Gwaltoli, Indore - MPPCB",08-02-2026 21:00:00,22.4310,75.5213,SO2,24,41,30
India,Madhya Pradesh,Indore,"Chhoti Gwaltoli, Indore - MPPCB",08-02-2026 21:00:00,22.4310,75.5213,CO,36,115,48
India,Madhya Pradesh,Indore,"Chhoti Gwaltoli, Indore - MPPCB",08-02-2026 21:00:00,22.4310,75.5213,OZONE,3,40,28
India,Madhya Pradesh,Indore,"Maguda Nagar, Indore - IMC",08-02-2026 21:00:00,22.7524,75.8872,SO2,11,14,12
India,Madhya Pradesh,Indore,"Regional Park, Indore - IMC",08-02-2026 21:00:00,22.6780,75.8559,CO,12,52,14
India,Madhya Pradesh,Indore,"Residency Area, Indore - IMC",08-02-2026 21:00:00,22.7084,75.8815,PM2.5,33,221,115
India,Madhya Pradesh,Indore,"Residency Area, Indore - IMC",08-02-2026 21:00:00,22.7084,75.8815,PM10,39,146,96
India,Madhya Pradesh,Indore,"Residency Area, Indore - IMC",08-02-2026 21:00:00,22.7084,75.8815,SO2,1,4,3
India,Madhya Pradesh,Indore,"Residency Area, Indore - IMC",08-02-2026 21:00:00,22.7084,75.8815,CO,26,94,32
India,Madhya Pradesh,Indore,"Residency Area, Indore - IMC",08-02-2026 21:00:00,22.7084,75.8815,OZONE,6,10,8
India,Madhya Pradesh,Jabalpur,"Govindh Bhavan Colony, Jabalpur - JMC",08-02-2026 21:00:00,23.163174,79.973061,PM2.5,28,57,43
India,Madhya Pradesh,Jabalpur,"Govindh Bhavan Colony, Jabalpur - JMC",08-02-2026 21:00:00,23.163174,79.973061,NO2,9,16,11
India,Madhya Pradesh,Jabalpur,"Govindh Bhavan Colony, Jabalpur - JMC",08-02-2026 21:00:00,23.163174,79.973061,SO2,4,9,7
India,Madhya Pradesh,Jabalpur,"Gupteshwar, Jabalpur - JMC",08-02-2026 21:00:00,23.142888,79.916147,NO2,17,95,37
India,Madhya Pradesh,Jabalpur,"Gupteshwar, Jabalpur - JMC",08-02-2026 21:00:00,23.142888,79.916147,NH3,2,2,2
India,Karnataka,Bagalkot,"Vidayagiri, Bagalkot - KSPCB",08-02-2026 21:00:00,16.172806,75.659694,PM2.5,35,36,35
India,Karnataka,Bagalkot,"Vidayagiri, Bagalkot - KSPCB",08-02-2026 21:00:00,16.172806,75.659694,CO,8,38,23
India,Karnataka,Bagalkot,"Vidayagiri, Bagalkot - KSPCB",08-02-2026 21:00:00,16.172806,75.659694,OZONE,12,12,12
India,Karnataka,Belgaum,"Ramteerth Nagar, Belgaum - KSPCB",08-02-2026 21:00:00,15.888653,74.541751,PM2.5,41,104,62
India,Karnataka,Belgaum,"Ramteerth Nagar, Belgaum - KSPCB",08-02-2026 21:00:00,15.888653,74.541751,OZONE,19,20,19
India,Karnataka,Bengaluru,"BTM Layout, Bengaluru - CPCB",08-02-2026 21:00:00,12.9135218,77.5950804,NH3,8,14,11
India,Karnataka,Bengaluru,"BTM Layout, Bengaluru - CPCB",08-02-2026 21:00:00,12.9135218,77.5950804,OZONE,22,23,23
India,Karnataka,Bengaluru,"BWSSB Kadabesanahalli, Bengaluru - CPCB",08-02-2026 21:00:00,12.9352049,77.6814488,SO2,3,7,5
India,Karnataka,Bengaluru,"BWSSB Kadabesanahalli, Bengaluru - CPCB",08-02-2026 21:00:00,12.9352049,77.6814488,CO,38,40,38
India,Karnataka,Bengaluru,"Bapuji Nagar, Bengaluru - KSPCB",08-02-2026 21:00:00,12.951913,77.539784,NH3,4,5,5
India,Karnataka,Bengaluru,"Hebbal, Bengaluru - KSPCB",08-02-2026 21:00:00,13.029152,77.585901,PM2.5,84,224,131
India,Karnataka,Bengaluru,"Hebbal, Bengaluru - KSPCB",08-02-2026 21:00:00,13.029152,77.585901,NO2,42,50,46
India,Haryana,Rohtak,"MD University, Rohtak - HSPCB",08-02-2026 21:00:00,28.52123,76.37138,PM10,48,500,109
India,Haryana,Rohtak,"MD University, Rohtak - HSPCB",08-02-2026 21:00:00,28.52123,76.37138,SO2,11,13,12
India,Haryana,Rohtak,"MD University, Rohtak - HSPCB",08-02-2026 21:00:00,28.52123,76.37138,OZONE,39,40,39
India,Haryana,Yamuna Nagar,"Gobind Pura, Yamuna Nagar - HSPCB",08-02-2026 21:00:00,30.1480566,77.2893471,NH3,4,4,4
India,Himachal Pradesh,Baddi,"HIMUDA Complex Phase-1, Baddi - HPPCB",08-02-2026 21:00:00,30.943887,76.801991,CO,44,98,52
India,Himachal Pradesh,Baddi,"HIMUDA Complex Phase-1, Baddi - HPPCB",08-02-2026 21:00:00,30.943887,76.801991,OZONE,11,120,102
India,Jammu_and_Kashmir,Pampore,"Khrew, Pampore - JKPCC",08-02-2026 21:00:00,34.031606,75.009712,PM10,32,74,51
India,Jammu_and_Kashmir,Pampore,"Khrew, Pampore - JKPCC",08-02-2026 21:00:00,34.031606,75.009712,SO2,1,2,2
India,Jammu_and_Kashmir,Srinagar,"Khunmoh, Srinagar - JKPCC",08-02-2026 21:00:00,34.06313,74.96017,NO2,5,25,11
India,Jammu_and_Kashmir,Srinagar,"Khunmoh, Srinagar - JKPCC",08-02-2026 21:00:00,34.06313,74.96017,SO2,2,4,3
India,Karnataka,Chikkamagaluru,"Kalyana Nagara, Chikkamagaluru - KSPCB",08-02-2026 21:00:00,13.328028,75.797056,SO2,4,10,7
India,Karnataka,Dharwad,"Kalabhavan, Dharwad - KSPCB",08-02-2026 21:00:00,15.459706,75.008381,SO2,NA,NA,NA
India,Karnataka,Hubballi,"Lingaraj Nagar, Hubballi - KSPCB",08-02-2026 21:00:00,15.3714823,75.1160168,NH3,1,1,1
India,Karnataka,Hubballi,"Lingaraj Nagar, Hubballi - KSPCB",08-02-2026 21:00:00,15.3714823,75.1160168,SO2,3,6,4
India,Karnataka,Kalaburagi,"Mahatma Basaveswar Colony, Kalaburgi - KSPCB",08-02-2026 21:00:00,17.336318,76.847397,PM2.5,22,59,47
India,Karnataka,Kalaburagi,"Mahatma Basaveswar Colony, Kalaburgi - KSPCB",08-02-2026 21:00:00,17.336318,76.847397,NO2,13,19,16
India,Karnataka,Mysuru,"Hebbal 1st Stage, Mysuru - KSPCB",08-02-2026 21:00:00,12.21041,76.37376,PM2.5,68,94,80
India,Karnataka,Ramanagara,"Vijay Nagar, Ramanagara - KSPCB",08-02-2026 21:00:00,12.733409,77.298051,PM10,102,187,142
India,Kerala,Kollam,"Polayathode, Kollam - Kerala PCB",08-02-2026 21:00:00,8.8787,76.6073,NH3,1,1,1
India,Kerala,Kollam,"Polayathode, Kollam - Kerala PCB",08-02-2026 21:00:00,8.8787,76.6073,OZONE,28,37,34
India,Kerala,Thiruvananthapuram,"Plammoodu, Thiruvananthapuram - Kerala PCB",08-02-2026 21:00:00,8.5149093,76.9435879,PM2.5,32,62,48
India,Kerala,Thrissur,"Corporation Ground, Thrissur - Kerala PCB",08-02-2026 21:00:00,10.532400,76.215900,SO2,NA,NA,NA
India,Madhya Pradesh,Bhopal,"Idgah Hills, Bhopal - MPPCB",08-02-2026 21:00:00,23.264759,77.381568,OZONE,27,80,68
India,Madhya Pradesh,Bhopal,"Paryavaran Parisar, Bhopal - MPPCB",08-02-2026 21:00:00,23.210494,77.425409,SO2,5,14,10
India,Madhya Pradesh,Bhopal,"Paryavaran Parisar, Bhopal - MPPCB",08-02-2026 21:00:00,23.210494,77.425409,CO,12,75,32
India,Madhya Pradesh,Bhopal,"T T Nagar, Bhopal - MPPCB",08-02-2026 21:00:00,23.233584,77.400574,NH3,6,7,7
India,Madhya Pradesh,Dewas,"Bhopal Chauraha, Dewas - MPPCB",08-02-2026 21:00:00,22.9682591,76.064118,NO2,64,103,79
India,Madhya Pradesh,Dewas,"Bhopal Chauraha, Dewas - MPPCB",08-02-2026 21:00:00,22.9682591,76.064118,CO,18,52,22
India,Madhya Pradesh,Dewas,"Bhopal Chauraha, Dewas - MPPCB",08-02-2026 21:00:00,22.9682591,76.064118,OZONE,14,84,17
India,Madhya Pradesh,Gwalior,"City Center, Gwalior - MPPCB",08-02-2026 21:00:00,26.203442,78.193251,NH3,2,2,2
India,Madhya Pradesh,Gwalior,"Deen Dayal Nagar, Gwalior - MPPCB",08-02-2026 21:00:00,26.259242,78.216432,NO2,26,90,62
India,Madhya Pradesh,Gwalior,"Deen Dayal Nagar, Gwalior - MPPCB",08-02-2026 21:00:00,26.259242,78.216432,NH3,9,13,10
India,Karnataka,Bengaluru,"Silk Board, Bengaluru - KSPCB",08-02-2026 21:00:00,12.917348,77.622813,SO2,8,13,10
India,Karnataka,Chamarajanagar,"Urban, Chamarajanagar - KSPCB",08-02-2026 21:00:00,11.55358,76.55521,PM2.5,20,39,32
India,Karnataka,Chamarajanagar,"Urban, Chamarajanagar - KSPCB",08-02-2026 21:00:00,11.55358,76.55521,CO,14,25,23
India,Karnataka,Chikkaballapur,"Chikkaballapur Rural, Chikkaballapur - KSPCB",08-02-2026 21:00:00,13.428828,77.731418,PM2.5,NA,NA,NA
India,Karnataka,Chikkaballapur,"Chikkaballapur Rural, Chikkaballapur - KSPCB",08-02-2026 21:00:00,13.428828,77.731418,SO2,13,23,17
India,Karnataka,Chikkamagaluru,"Kalyana Nagara, Chikkamagaluru - KSPCB",08-02-2026 21:00:00,13.328028,75.797056,PM10,28,52,40
India,Karnataka,Shivamogga,"Vinoba Nagara, Shivamogga - KSPCB",08-02-2026 21:00:00,13.940000,75.555917,NH3,3,4,3
India,Karnataka,Tumakuru,"Thimmalapura, Tumakuru - KSPCB",08-02-2026 21:00:00,13.377516,77.099072,PM2.5,NA,NA,NA
India,Karnataka,Vijayapura,"Ibrahimpur, Vijayapura - KSPCB",08-02-2026 21:00:00,16.802639,75.722694,PM10,61,62,62
India,Karnataka,Vijayapura,"Ibrahimpur, Vijayapura - KSPCB",08-02-2026 21:00:00,16.802639,75.722694,NO2,11,12,11
India,Kerala,Kannur,"Thavakkara, Kannur - Kerala PCB",08-02-2026 21:00:00,11.875000,75.373200,PM10,87,91,88
India,Kerala,Kannur,"Thavakkara, Kannur - Kerala PCB",08-02-2026 21:00:00,11.875000,75.373200,NH3,2,3,2
India,Karnataka,Bengaluru,"Jayanagar 5th Block, Bengaluru - KSPCB",08-02-2026 21:00:00,12.920984,77.584908,PM10,95,163,120
India,Karnataka,Bengaluru,"Jayanagar 5th Block, Bengaluru - KSPCB",08-02-2026 21:00:00,12.920984,77.584908,SO2,15,22,18
India,Karnataka,Bengaluru,"Jigani, Bengaluru - KSPCB",08-02-2026 21:00:00,12.7816279,77.6299145,NH3,4,4,4
India,Karnataka,Bengaluru,"Jigani, Bengaluru - KSPCB",08-02-2026 21:00:00,12.7816279,77.6299145,OZONE,24,25,25
India,Karnataka,Bengaluru,"Kasturi Nagar, Bengaluru - KSPCB",08-02-2026 21:00:00,13.003872,77.664217,NH3,4,4,4
India,Karnataka,Bengaluru,"Peenya, Bengaluru - CPCB",08-02-2026 21:00:00,13.0270199,77.494094,SO2,6,13,9
India,Maharashtra,Chandrapur,"MIDC Khutala, Chandrapur - MPCB",08-02-2026 21:00:00,19.9775302,79.2337086,SO2,8,9,9
India,Maharashtra,Dhule,"Deopur, Dhule - MPCB",08-02-2026 21:00:00,20.918946,74.776388,PM10,103,190,128
India,Maharashtra,Jalgaon,"Prabhat Colony, Jalgaon - MPCB",08-02-2026 21:00:00,21.001264,75.565602,SO2,4,14,8
India,Maharashtra,Jalgaon,"Prabhat Colony, Jalgaon - MPCB",08-02-2026 21:00:00,21.001264,75.565602,CO,19,50,24
India,Maharashtra,Jalna,"Old MIDC, Jalna - MPCB",08-02-2026 21:00:00,19.854616,75.905894,NO2,5,17,11
India,Maharashtra,Jalna,"Old MIDC, Jalna - MPCB",08-02-2026 21:00:00,19.854616,75.905894,NH3,NA,NA,NA
India,Maharashtra,Jalna,"Old MIDC, Jalna - MPCB",08-02-2026 21:00:00,19.854616,75.905894,OZONE,18,40,38
India,Maharashtra,Kalyan,"Khadakpada, Kalyan - MPCB",08-02-2026 21:00:00,19.25292,73.142019,PM2.5,40,92,73
India,Maharashtra,Kalyan,"Khadakpada, Kalyan - MPCB",08-02-2026 21:00:00,19.25292,73.142019,NO2,37,37,37
India,Maharashtra,Kolhapur,"Sinchan Bhavan, Kolhapur - MPCB",08-02-2026 21:00:00,16.7143745,74.2426398,PM10,107,153,127
India,Maharashtra,Latur,"Sawe Wadi, Latur - MPCB",08-02-2026 21:00:00,18.39963,76.57452,CO,9,59,15
India,Maharashtra,Latur,"Sawe Wadi, Latur - MPCB",08-02-2026 21:00:00,18.39963,76.57452,OZONE,18,57,49
India,Maharashtra,Mahad,"Kamble Tarf Birwadi, Mahad - MPCB",08-02-2026 21:00:00,18.1023399,73.4783687,NO2,34,101,45
India,Maharashtra,Mahad,"Kamble Tarf Birwadi, Mahad - MPCB",08-02-2026 21:00:00,18.1023399,73.4783687,OZONE,22,30,25
India,Maharashtra,Malegaon,"Mahesh Nagar, Malegaon - MPCB",08-02-2026 21:00:00,20.555712,74.529236,PM2.5,54,90,72
India,Maharashtra,Mira-Bhayandar,"Bhayandar West, Mira-Bhayandar - MPCB",08-02-2026 21:00:00,19.296481,72.840923,SO2,14,17,15
India,Maharashtra,Mumbai,"Borivali East, Mumbai - MPCB",08-02-2026 21:00:00,19.2243333,72.8658113,NH3,1,7,4
India,Maharashtra,Aurangabad,"Rachnakar Colony, Aurangabad - MPCB",08-02-2026 21:00:00,19.863756,75.321188,SO2,9,42,33
India,Maharashtra,Aurangabad,"Rachnakar Colony, Aurangabad - MPCB",08-02-2026 21:00:00,19.863756,75.321188,CO,16,50,23
India,Maharashtra,Badlapur,"Katrap, Badlapur - MPCB",08-02-2026 21:00:00,19.16485,73.23409,OZONE,12,98,66
India,Maharashtra,Belapur,"CBD Belapur, Belapur - MPCB",08-02-2026 21:00:00,19.0243902,73.0406721,NO2,11,42,28
India,Maharashtra,Bhiwandi,"Gokul Nagar, Bhiwandi - MPCB",08-02-2026 21:00:00,19.309073,73.057223,PM2.5,52,228,122
India,Maharashtra,Bhiwandi,"Gokul Nagar, Bhiwandi - MPCB",08-02-2026 21:00:00,19.309073,73.057223,NO2,16,43,29
India,Maharashtra,Bhiwandi,"Gokul Nagar, Bhiwandi - MPCB",08-02-2026 21:00:00,19.309073,73.057223,SO2,4,9,6
India,Maharashtra,Bhiwandi,"Gokul Nagar, Bhiwandi - MPCB",08-02-2026 21:00:00,19.309073,73.057223,OZONE,13,100,62
India,Maharashtra,Mumbai,"Kandivali East, Mumbai - MPCB",08-02-2026 21:00:00,19.205800,72.868200,OZONE,18,18,18
India,Maharashtra,Mumbai,"Kandivali West, Mumbai - BMC",08-02-2026 21:00:00,19.215859,72.831718,NH3,NA,NA,NA
India,Maharashtra,Mumbai,"Kandivali West, Mumbai - BMC",08-02-2026 21:00:00,19.215859,72.831718,SO2,5,17,9
India,Maharashtra,Mumbai,"Kherwadi_Bandra East, Mumbai - MPCB",08-02-2026 21:00:00,19.0632143,72.8456324,NH3,5,35,20
India,Maharashtra,Mumbai,"Khindipada-Bhandup West, Mumbai - IITM",08-02-2026 21:00:00,19.1653323,72.922099,PM10,71,125,105
India,Maharashtra,Mumbai,"Khindipada-Bhandup West, Mumbai - IITM",08-02-2026 21:00:00,19.1653323,72.922099,OZONE,6,88,74
India,Maharashtra,Mumbai,"Kurla, Mumbai - MPCB",08-02-2026 21:00:00,19.0863,72.8888,PM2.5,54,174,79
India,Maharashtra,Mumbai,"Mazgaon, Mumbai - IITM",08-02-2026 21:00:00,18.96702,72.84214,PM2.5,70,158,106
India,Maharashtra,Mumbai,"Mazgaon, Mumbai - IITM",08-02-2026 21:00:00,18.96702,72.84214,NH3,11,18,15
India,Maharashtra,Mumbai,"Mindspace-Malad West, Mumbai - MPCB",08-02-2026 21:00:00,19.1878657,72.8304069,SO2,11,56,27
India,Maharashtra,Mumbai,"Mulund West, Mumbai - MPCB",08-02-2026 21:00:00,19.1750,72.9419,PM10,NA,NA,NA
India,Maharashtra,Mumbai,"Powai, Mumbai - MPCB",08-02-2026 21:00:00,19.137500,72.915056,PM10,54,88,68
India,Maharashtra,Mumbai,"Powai, Mumbai - MPCB",08-02-2026 21:00:00,19.137500,72.915056,NH3,1,2,2
India,Madhya Pradesh,Jabalpur,"Marhatal, Jabalpur - MPPCB",08-02-2026 21:00:00,23.168606,79.932247,PM10,60,205,99
India,Madhya Pradesh,Jabalpur,"Marhatal, Jabalpur - MPPCB",08-02-2026 21:00:00,23.168606,79.932247,OZONE,108,110,82
India,Madhya Pradesh,Katni,"Gole Bazar, Katni - MPPCB",08-02-2026 21:00:00,23.50016,80.23284,NO2,25,67,45
India,Madhya Pradesh,Katni,"Gole Bazar, Katni - MPPCB",08-02-2026 21:00:00,23.50016,80.23284,OZONE,9,112,85
