country,state,city,station,last_update,latitude,longitude,pollutant_id,min_value,max_value,avg_value
India,Bihar,Buxar,"Charitra Van, Buxar - BSPCB",14-01-2026 16:00:00,25.567520,83.966379,CO,22,28,25
India,Bihar,Chhapra,"Darshan Nagar, Chhapra - BSPCB",14-01-2026 16:00:00,25.7808257,84.7446768,PM2.5,28,100,67
India,Bihar,Chhapra,"Darshan Nagar, Chhapra - BSPCB",14-01-2026 16:00:00,25.7808257,84.7446768,NH3,7,15,11
India,Bihar,Chhapra,"Darshan Nagar, Chhapra - BSPCB",14-01-2026 16:00:00,25.7808257,84.7446768,SO2,26,29,27
India,Bihar,Chhapra,"Darshan Nagar, Chhapra - BSPCB",14-01-2026 16:00:00,25.7808257,84.7446768,OZONE,14,20,17
India,Bihar,Gaya,"Collectorate, Gaya - BSPCB",14-01-2026 16:00:00,24.7955,84.9994,NO2,9,9,9
India,Bihar,Gaya,"Kareemganj, Gaya - BSPCB",14-01-2026 16:00:00,24.792403,84.992416,PM2.5,30,117,50
India,Bihar,Gaya,"SFTI Kusdihra, Gaya - BSPCB",14-01-2026 16:00:00,24.762518,84.982348,PM10,54,80,70
India,Bihar,Gaya,"SFTI Kusdihra, Gaya - BSPCB",14-01-2026 16:00:00,24.762518,84.982348,NH3,3,5,4
India,Bihar,Hajipur,"Industrial Area, Hajipur - BSPCB",14-01-2026 16:00:00,25.697189,85.245900,NH3,7,11,9
India,Andhra_Pradesh,Vijayawada,"Rajiv Nagar, Vijayawada - APPCB",14-01-2026 16:00:00,16.554731,80.649110,PM2.5,86,163,120
India,Andhra_Pradesh,Vijayawada,"Rajiv Nagar, Vijayawada - APPCB",14-01-2026 16:00:00,16.554731,80.649110,PM10,86,114,101
India,Andhra_Pradesh,Vijayawada,"Rajiv Nagar, Vijayawada - APPCB",14-01-2026 16:00:00,16.554731,80.649110,OZONE,15,18,15
India,Andhra_Pradesh,Visakhapatnam,"GVM Corporation, Visakhapatnam - APPCB",14-01-2026 16:00:00,17.72,83.3,NO2,20,197,101
India,Arunachal_Pradesh,Naharlagun,"Naharlagun, Naharlagun - APSPCB",14-01-2026 16:00:00,27.103358,93.679645,NO2,6,7,7
India,Arunachal_Pradesh,Naharlagun,"Naharlagun, Naharlagun - APSPCB",14-01-2026 16:00:00,27.103358,93.679645,CO,10,94,16
India,Assam,Byrnihat,"Central Academy for SFS, Byrnihat - PCBA",14-01-2026 16:00:00,26.071318,91.87488,PM10,73,116,88
India,Assam,Byrnihat,"Central Academy for SFS, Byrnihat - PCBA",14-01-2026 16:00:00,26.071318,91.87488,NO2,5,8,7
India,Assam,Byrnihat,"Central Academy for SFS, Byrnihat - PCBA",14-01-2026 16:00:00,26.071318,91.87488,NH3,4,4,4
India,Assam,Byrnihat,"Central Academy for SFS, Byrnihat - PCBA",14-01-2026 16:00:00,26.071318,91.87488,CO,38,62,51
India,Assam,Guwahati,"LGBI Airport, Guwahati - PCBA",14-01-2026 16:00:00,26.10887,91.589544,PM10,47,150,110
India,Assam,Guwahati,"Pan Bazaar, Guwahati - PCBA",14-01-2026 16:00:00,26.187500,91.744194,SO2,20,41,29
India,Assam,Guwahati,"Pan Bazaar, Guwahati - PCBA",14-01-2026 16:00:00,26.187500,91.744194,CO,10,102,47
India,Assam,Nagaon,"Christianpatty, Nagaon - PCBA",14-01-2026 16:00:00,26.349082,92.68449,PM2.5,78,171,126
India,Assam,Nagaon,"Christianpatty, Nagaon - PCBA",14-01-2026 16:00:00,26.349082,92.68449,PM10,83,124,108
India,Bihar,Hajipur,"Industrial Area, Hajipur - BSPCB",14-01-2026 16:00:00,25.697189,85.245900,OZONE,16,173,122
India,Bihar,Kishanganj,"SDM Office_Khagra, Kishanganj - BSPCB",14-01-2026 16:00:00,26.0881305,87.93840336,PM10,37,70,57
India,Bihar,Kishanganj,"SDM Office_Khagra, Kishanganj - BSPCB",14-01-2026 16:00:00,26.0881305,87.93840336,NH3,3,3,3
India,Bihar,Kishanganj,"SDM Office_Khagra, Kishanganj - BSPCB",14-01-2026 16:00:00,26.0881305,87.93840336,SO2,6,10,8
India,Bihar,Kishanganj,"SDM Office_Khagra, Kishanganj - BSPCB",14-01-2026 16:00:00,26.0881305,87.93840336,CO,16,24,22
India,Bihar,Motihari,"Gandak Colony, Motihari - BSPCB",14-01-2026 16:00:00,26.63086,84.90051,PM2.5,33,240,108
India,Andhra_Pradesh,Chittoor,"Gangineni Cheruvu, Chittoor - APPCB",14-01-2026 16:00:00,13.204880,79.097889,NH3,5,6,6
India,Andhra_Pradesh,Kadapa,"Yerramukkapalli, Kadapa - APPCB",14-01-2026 16:00:00,14.465052,78.824187,NH3,3,4,3
India,Andhra_Pradesh,Kadapa,"Yerramukkapalli, Kadapa - APPCB",14-01-2026 16:00:00,14.465052,78.824187,OZONE,20,22,21
India,Andhra_Pradesh,Rajamahendravaram,"Anand Kala Kshetram, Rajamahendravaram - APPCB",14-01-2026 16:00:00,16.9872867,81.7363176,NO2,19,206,54
India,Andhra_Pradesh,Rajamahendravaram,"Anand Kala Kshetram, Rajamahendravaram - APPCB",14-01-2026 16:00:00,16.9872867,81.7363176,NH3,4,16,7
India,Andhra_Pradesh,Tirupati,"Vaikuntapuram, Tirupati - APPCB",14-01-2026 16:00:00,13.615387,79.409230,CO,26,82,52
India,Andhra_Pradesh,Tirupati,"Vaikuntapuram, Tirupati - APPCB",14-01-2026 16:00:00,13.615387,79.409230,OZONE,17,25,20
India,Andhra_Pradesh,Vijayawada,"HB Colony, Vijayawada - APPCB",14-01-2026 16:00:00,16.536107,80.594233,NO2,14,24,17
India,Andhra_Pradesh,Vijayawada,"Kanuru, Vijayawada - APPCB",14-01-2026 16:00:00,16.486692,80.699436,PM10,74,142,95
India,Andhra_Pradesh,Vijayawada,"Kanuru, Vijayawada - APPCB",14-01-2026 16:00:00,16.486692,80.699436,OZONE,28,36,31
India,Bihar,Bettiah,"Kamalnath Nagar, Bettiah - BSPCB",14-01-2026 16:00:00,26.80365,84.51954,CO,56,107,77
India,Bihar,Bettiah,"Kamalnath Nagar, Bettiah - BSPCB",14-01-2026 16:00:00,26.80365,84.51954,OZONE,22,25,23
India,Bihar,Bhagalpur,"Mayaganj, Bhagalpur - BSPCB",14-01-2026 16:00:00,25.265194,87.012947,PM10,NA,NA,NA
India,Bihar,Bihar Sharif,"D M Colony, Bihar Sharif - BSPCB",14-01-2026 16:00:00,25.204762,85.514960,CO,19,107,53
India,Bihar,Muzaffarpur,"Buddha Colony, Muzaffarpur - BSPCB",14-01-2026 16:00:00,26.11442,85.39813,CO,30,92,45
India,Bihar,Muzaffarpur,"MIT-Daudpur Kothi, Muzaffarpur - BSPCB",14-01-2026 16:00:00,26.1403345,85.3650192,NH3,2,2,2
India,Bihar,Muzaffarpur,"Muzaffarpur Collectorate, Muzaffarpur - BSPCB",14-01-2026 16:00:00,26.1209,85.3647,SO2,4,7,6
India,Bihar,Aurangabad,"Gurdeo Nagar, Aurangabad - BSPCB",14-01-2026 16:00:00,24.75746,84.366208,NO2,7,8,8
India,Bihar,Begusarai,"Lohiyanagar, Begusarai - BSPCB",14-01-2026 16:00:00,25.42742023,86.13886079,NH3,10,11,11
India,Assam,Silchar,"Tarapur, Silchar - PCBA",14-01-2026 16:00:00,24.82827,92.79525,OZONE,2,3,2
India,Assam,Sivasagar,"Girls College, Sivasagar - PCBA",14-01-2026 16:00:00,26.987634,94.636574,NO2,NA,NA,NA
India,Chandigarh,Chandigarh,"Sector 22, Chandigarh - CPCC",14-01-2026 16:00:00,30.735567,76.775714,SO2,1,10,4
India,Chandigarh,Chandigarh,"Sector 22, Chandigarh - CPCC",14-01-2026 16:00:00,30.735567,76.775714,CO,71,124,96
India,Chandigarh,Chandigarh,"Sector 22, Chandigarh - CPCC",14-01-2026 16:00:00,30.735567,76.775714,OZONE,6,91,13
India,Chandigarh,Chandigarh,"Sector-25, Chandigarh - CPCC",14-01-2026 16:00:00,30.751462,76.762879,PM2.5,79,319,182
India,Chandigarh,Chandigarh,"Sector-25, Chandigarh - CPCC",14-01-2026 16:00:00,30.751462,76.762879,OZONE,1,40,3
India,Chandigarh,Chandigarh,"Sector-53, Chandigarh - CPCC",14-01-2026 16:00:00,30.719859,76.738637,SO2,NA,NA,NA
India,Chhattisgarh,Bhilai,"32Bungalows, Bhilai - CECB",14-01-2026 16:00:00,21.194815,81.314770,PM2.5,19,50,34
India,Chhattisgarh,Bhilai,"32Bungalows, Bhilai - CECB",14-01-2026 16:00:00,21.194815,81.314770,NH3,5,7,6
India,Chhattisgarh,Bhilai,"32Bungalows, Bhilai - CECB",14-01-2026 16:00:00,21.194815,81.314770,CO,16,88,38
India,Chhattisgarh,Bhilai,"Civic Center, Bhilai - Bhilai Steel Plant",14-01-2026 16:00:00,21.185571,81.343175,PM2.5,NA,NA,NA
India,Chhattisgarh,Bhilai,"Civic Center, Bhilai - Bhilai Steel Plant",14-01-2026 16:00:00,21.185571,81.343175,SO2,NA,NA,NA
India,Chhattisgarh,Bhilai,"Civic Center, Bhilai - Bhilai Steel Plant",14-01-2026 16:00:00,21.185571,81.343175,OZONE,10,12,10
India,Chhattisgarh,Bhilai,"Hathkhoj, Bhilai - CECB",14-01-2026 16:00:00,21.224231,81.408350,PM2.5,17,273,70
India,Chhattisgarh,Bhilai,"Hathkhoj, Bhilai - CECB",14-01-2026 16:00:00,21.224231,81.408350,NH3,4,7,5
India,Chhattisgarh,Bilaspur,"Mangala, Bilaspur - NTPC",14-01-2026 16:00:00,22.08815,82.13737,PM10,48,94,70
India,Chhattisgarh,Bilaspur,"Mangala, Bilaspur - NTPC",14-01-2026 16:00:00,22.08815,82.13737,NO2,NA,NA,NA
India,Chhattisgarh,Chhal,"Nawapara SECL Colony, Chhal - CECB",14-01-2026 16:00:00,22.118125,83.140608,PM2.5,47,78,60
India,Chhattisgarh,Chhal,"Nawapara SECL Colony, Chhal - CECB",14-01-2026 16:00:00,22.118125,83.140608,OZONE,5,103,81
India,Chhattisgarh,Korba,"Rampur, Korba - CECB",14-01-2026 16:00:00,22.368195,82.746431,PM2.5,33,90,55
India,Delhi,Delhi,"Aya Nagar, Delhi - IMD",14-01-2026 16:00:00,28.4706914,77.1099364,PM2.5,175,377,304
India,Delhi,Delhi,"Aya Nagar, Delhi - IMD",14-01-2026 16:00:00,28.4706914,77.1099364,PM10,149,411,267
India,Delhi,Delhi,"Bawana, Delhi - DPCC",14-01-2026 16:00:00,28.776200,77.051074,NO2,15,66,32
India,Delhi,Delhi,"Bawana, Delhi - DPCC",14-01-2026 16:00:00,28.776200,77.051074,OZONE,6,86,44
India,Delhi,Delhi,"CRRI Mathura Road, Delhi - IMD",14-01-2026 16:00:00,28.5512005,77.2735737,PM2.5,NA,NA,NA
India,Delhi,Delhi,"CRRI Mathura Road, Delhi - IMD",14-01-2026 16:00:00,28.5512005,77.2735737,CO,30,128,51
India,Delhi,Delhi,"CRRI Mathura Road, Delhi - IMD",14-01-2026 16:00:00,28.5512005,77.2735737,OZONE,7,59,39
India,Delhi,Delhi,"Chandni Chowk, Delhi - IITM",14-01-2026 16:00:00,28.656756,77.227234,PM2.5,134,460,355
India,Delhi,Delhi,"Chandni Chowk, Delhi - IITM",14-01-2026 16:00:00,28.656756,77.227234,SO2,13,106,45
India,Bihar,Saharsa,"Police Line, Saharsa - BSPCB",14-01-2026 16:00:00,25.892357,86.590325,PM10,79,229,137
India,Bihar,Saharsa,"Police Line, Saharsa - BSPCB",14-01-2026 16:00:00,25.892357,86.590325,NO2,6,8,7
India,Bihar,Saharsa,"Police Line, Saharsa - BSPCB",14-01-2026 16:00:00,25.892357,86.590325,CO,38,44,42
India,Bihar,Samastipur,"DM Office_Kasipur, Samastipur - BSPCB",14-01-2026 16:00:00,25.859655,85.77944,CO,7,10,8
India,Bihar,Sasaram,"Dada Peer, Sasaram - BSPCB",14-01-2026 16:00:00,24.952822,84.002396,CO,46,67,52
India,Bihar,Siwan,"Chitragupta Nagar, Siwan - BSPCB",14-01-2026 16:00:00,26.2271665,84.3570427,PM10,100,164,126
India,Chhattisgarh,Korba,"Urja Nagar, Korba - CECB",14-01-2026 16:00:00,22.348441,82.549611,NH3,NA,NA,NA
India,Chhattisgarh,Korba,"Urja Nagar, Korba - CECB",14-01-2026 16:00:00,22.348441,82.549611,SO2,NA,NA,NA
India,Chhattisgarh,Korba,"Urja Nagar, Korba - CECB",14-01-2026 16:00:00,22.348441,82.549611,CO,23,27,25
India,Chhattisgarh,Korba,"Urja Nagar, Korba - CECB",14-01-2026 16:00:00,22.348441,82.549611,OZONE,28,28,28
India,Chhattisgarh,Milupara,"Govt. Higher Secondary School, Milupara - CECB",14-01-2026 16:00:00,22.1910172,83.5197009,PM2.5,32,72,50
India,Chhattisgarh,Milupara,"Govt. Higher Secondary School, Milupara - CECB",14-01-2026 16:00:00,22.1910172,83.5197009,PM10,37,122,65
India,Chhattisgarh,Milupara,"Govt. Higher Secondary School, Milupara - CECB",14-01-2026 16:00:00,22.1910172,83.5197009,SO2,13,17,14
India,Chhattisgarh,Milupara,"Govt. Higher Secondary School, Milupara - CECB",14-01-2026 16:00:00,22.1910172,83.5197009,CO,16,59,26
India,Bihar,Patna,"DRM Office Danapur, Patna - BSPCB",14-01-2026 16:00:00,25.586562,85.043586,PM10,95,265,151
India,Bihar,Patna,"DRM Office Danapur, Patna - BSPCB",14-01-2026 16:00:00,25.586562,85.043586,CO,37,105,54
India,Bihar,Patna,"Govt. High School Shikarpur, Patna - BSPCB",14-01-2026 16:00:00,25.592539,85.227158,PM2.5,57,144,95
India,Bihar,Patna,"Govt. High School Shikarpur, Patna - BSPCB",14-01-2026 16:00:00,25.592539,85.227158,NH3,4,5,5
India,Bihar,Patna,"IGSC Planetarium Complex, Patna - BSPCB",14-01-2026 16:00:00,25.610369,85.132568,SO2,NA,NA,NA
India,Bihar,Patna,"IGSC Planetarium Complex, Patna - BSPCB",14-01-2026 16:00:00,25.610369,85.132568,OZONE,28,29,29
India,Chhattisgarh,Raipur,"Siltara Phase-II, Raipur - CECB",14-01-2026 16:00:00,21.371751,81.664929,NO2,48,63,54
India,Delhi,Delhi,"Anand Vihar, Delhi - DPCC",14-01-2026 16:00:00,28.647622,77.3158090,NH3,5,8,6
India,Delhi,Delhi,"Anand Vihar, Delhi - DPCC",14-01-2026 16:00:00,28.647622,77.3158090,CO,42,114,81
India,Delhi,Delhi,"Ashok Vihar, Delhi - DPCC",14-01-2026 16:00:00,28.695381,77.181665,PM10,163,443,323
India,Delhi,Delhi,"Ashok Vihar, Delhi - DPCC",14-01-2026 16:00:00,28.695381,77.181665,CO,18,123,81
India,Bihar,Patna,"Rajbansi Nagar, Patna - BSPCB",14-01-2026 16:00:00,25.599486,85.113666,PM2.5,68,106,86
India,Bihar,Patna,"Rajbansi Nagar, Patna - BSPCB",14-01-2026 16:00:00,25.599486,85.113666,NH3,1,7,5
India,Bihar,Purnia,"Mariam Nagar, Purnia - BSPCB",14-01-2026 16:00:00,25.366336,87.117468,PM10,NA,NA,NA
India,Bihar,Purnia,"Mariam Nagar, Purnia - BSPCB",14-01-2026 16:00:00,25.366336,87.117468,NH3,3,3,3
India,Chhattisgarh,Raipur,"Bhatagaon New ISBT, Raipur - CECB",14-01-2026 16:00:00,21.219665,81.630094,PM10,23,108,53
India,Chhattisgarh,Raipur,"Krishak Nagar, Raipur - CECB",14-01-2026 16:00:00,21.237755,81.705301,NH3,2,2,2
India,Chhattisgarh,Raipur,"Siltara Phase-II, Raipur - CECB",14-01-2026 16:00:00,21.371751,81.664929,PM2.5,43,202,87
India,Delhi,Delhi,"DTU, Delhi - CPCB",14-01-2026 16:00:00,28.7500499,77.1112615,SO2,35,40,38
India,Delhi,Delhi,"Dr. Karni Singh Shooting Range, Delhi - DPCC",14-01-2026 16:00:00,28.498571,77.264840,PM10,150,454,286
India,Delhi,Delhi,"Dr. Karni Singh Shooting Range, Delhi - DPCC",14-01-2026 16:00:00,28.498571,77.264840,SO2,7,23,13
India,Delhi,Delhi,"Dr. Karni Singh Shooting Range, Delhi - DPCC",14-01-2026 16:00:00,28.498571,77.264840,CO,2,137,11
India,Delhi,Delhi,"Dwarka-Sector 8, Delhi - DPCC ",14-01-2026 16:00:00,28.5710274,77.0719006,OZONE,4,115,56
India,Delhi,Delhi,"IHBAS, Dilshad Garden, Delhi - CPCB",14-01-2026 16:00:00,28.6811736,77.3025234,PM10,135,252,198
India,Delhi,Delhi,"IIT Delhi, Delhi - IITM",14-01-2026 16:00:00,28.542460,77.191651,PM2.5,213,436,334
India,Delhi,Delhi,"Jahangirpuri, Delhi - DPCC",14-01-2026 16:00:00,28.732820,77.170633,PM2.5,243,500,404
India,Delhi,Delhi,"Jahangirpuri, Delhi - DPCC",14-01-2026 16:00:00,28.732820,77.170633,SO2,1,44,12
India,Delhi,Delhi,"Jahangirpuri, Delhi - DPCC",14-01-2026 16:00:00,28.732820,77.170633,CO,34,115,81
India,Delhi,Delhi,"Lodhi Road, Delhi - IMD",14-01-2026 16:00:00,28.5918245,77.2273074,NO2,30,67,40
India,Delhi,Delhi,"Lodhi Road, Delhi - IMD",14-01-2026 16:00:00,28.5918245,77.2273074,CO,36,102,52
India,Delhi,Delhi,"Lodhi Road, Delhi - IMD",14-01-2026 16:00:00,28.5918245,77.2273074,OZONE,10,82,58
India,Delhi,Delhi,"Major Dhyan Chand National Stadium, Delhi - DPCC",14-01-2026 16:00:00,28.611281,77.237738,NO2,2,80,34
India,Delhi,Delhi,"Okhla Phase-2, Delhi - DPCC",14-01-2026 16:00:00,28.530785,77.271255,CO,56,136,78
India,Delhi,Delhi,"Punjabi Bagh, Delhi - DPCC",14-01-2026 16:00:00,28.674045,77.131023,PM2.5,140,463,372
India,Delhi,Delhi,"Punjabi Bagh, Delhi - DPCC",14-01-2026 16:00:00,28.674045,77.131023,NH3,5,7,6
India,Delhi,Delhi,"Punjabi Bagh, Delhi - DPCC",14-01-2026 16:00:00,28.674045,77.131023,SO2,1,11,6
India,Delhi,Delhi,"Pusa, Delhi - DPCC",14-01-2026 16:00:00,28.639652,77.146275,NH3,6,23,17
India,Delhi,Delhi,"Pusa, Delhi - DPCC",14-01-2026 16:00:00,28.639652,77.146275,CO,47,113,74
India,Delhi,Delhi,"Pusa, Delhi - IMD",14-01-2026 16:00:00,28.636110,77.173332,NO2,44,173,97
India,Delhi,Delhi,"Narela, Delhi - DPCC",14-01-2026 16:00:00,28.822836,77.101981,SO2,1,16,6
India,Delhi,Delhi,"Nehru Nagar, Delhi - DPCC",14-01-2026 16:00:00,28.567890,77.250515,OZONE,1,232,220
India,Delhi,Delhi,"North Campus, DU, Delhi - IMD",14-01-2026 16:00:00,28.6573814,77.1585447,NO2,67,182,104
India,Delhi,Delhi,"Okhla Phase-2, Delhi - DPCC",14-01-2026 16:00:00,28.530785,77.271255,PM10,171,433,285
India,Gujarat,Ahmedabad,"Raikhad, Ahmedabad - IITM",14-01-2026 16:00:00,23.020509,72.579261,CO,3,66,10
India,Gujarat,Ahmedabad,"Raikhad, Ahmedabad - IITM",14-01-2026 16:00:00,23.020509,72.579261,OZONE,3,76,57
India,Gujarat,Ahmedabad,"Rakhial, Ahmedabad - IITM",14-01-2026 16:00:00,23.016834,72.625775,OZONE,3,98,79
India,Gujarat,Ahmedabad,"SAC ISRO Bopal, Ahmedabad - IITM",14-01-2026 16:00:00,23.041137,72.456691,PM2.5,84,195,151
India,Delhi,Delhi,"R K Puram, Delhi - DPCC",14-01-2026 16:00:00,28.563262,77.186937,NO2,38,141,79
India,Delhi,Delhi,"Rohini, Delhi - DPCC",14-01-2026 16:00:00,28.732528,77.119920,PM2.5,163,489,379
India,Delhi,Delhi,"Rohini, Delhi - DPCC",14-01-2026 16:00:00,28.732528,77.119920,CO,17,112,52
India,Delhi,Delhi,"Rohini, Delhi - DPCC",14-01-2026 16:00:00,28.732528,77.119920,OZONE,3,117,57
India,Delhi,Delhi,"Vivek Vihar, Delhi - DPCC",14-01-2026 16:00:00,28.672342,77.315260,SO2,7,34,13
India,Gujarat,Ahmedabad,"Chandkheda, Ahmedabad - IITM",14-01-2026 16:00:00,23.107969,72.574648,NH3,2,6,4
India,Delhi,Delhi,"Mundka, Delhi - DPCC",14-01-2026 16:00:00,28.684678,77.076574,PM2.5,163,457,378
India,Delhi,Delhi,"Mundka, Delhi - DPCC",14-01-2026 16:00:00,28.684678,77.076574,SO2,14,38,19
India,Delhi,Delhi,"Mundka, Delhi - DPCC",14-01-2026 16:00:00,28.684678,77.076574,CO,27,88,79
India,Gujarat,Ahmedabad,"Gyaspur, Ahmedabad - IITM",14-01-2026 16:00:00,22.977134,72.553024,PM10,73,151,123
India,Gujarat,Ahmedabad,"Gyaspur, Ahmedabad - IITM",14-01-2026 16:00:00,22.977134,72.553024,OZONE,17,90,67
India,Gujarat,Ahmedabad,"SAC ISRO Bopal, Ahmedabad - IITM",14-01-2026 16:00:00,23.041137,72.456691,PM10,84,151,121
India,Gujarat,Ahmedabad,"SAC ISRO Bopal, Ahmedabad - IITM",14-01-2026 16:00:00,23.041137,72.456691,CO,4,22,18
India,Gujarat,Ahmedabad,"SAC ISRO Bopal, Ahmedabad - IITM",14-01-2026 16:00:00,23.041137,72.456691,OZONE,4,74,40
India,Gujarat,Ahmedabad,"SAC ISRO Satellite, Ahmedabad - IITM",14-01-2026 16:00:00,23.023389,72.515201,PM10,62,147,98
India,Gujarat,Ahmedabad,"SAC ISRO Satellite, Ahmedabad - IITM",14-01-2026 16:00:00,23.023389,72.515201,NO2,3,26,11
India,Gujarat,Ahmedabad,"SAC ISRO Satellite, Ahmedabad - IITM",14-01-2026 16:00:00,23.023389,72.515201,NH3,2,12,6
India,Gujarat,Ahmedabad,"SAC ISRO Satellite, Ahmedabad - IITM",14-01-2026 16:00:00,23.023389,72.515201,SO2,7,24,13
India,Gujarat,Ankleshwar,"GIDC, Ankleshwar - GPCB",14-01-2026 16:00:00,21.613267,73.010555,CO,32,76,47
India,Gujarat,Gandhinagar,"GIFT City, Gandhinagar - IITM",14-01-2026 16:00:00,23.163798,72.677768,SO2,1,13,6
India,Haryana,Jind,"Police Lines, Jind - HSPCB",14-01-2026 16:00:00,29.307814,76.337619,PM10,105,195,141
India,Haryana,Jind,"Police Lines, Jind - HSPCB",14-01-2026 16:00:00,29.307814,76.337619,CO,2,132,35
India,Haryana,Jind,"Police Lines, Jind - HSPCB",14-01-2026 16:00:00,29.307814,76.337619,OZONE,4,28,15
India,Haryana,Kaithal,"Rishi Nagar, Kaithal - HSPCB",14-01-2026 16:00:00,29.8006,76.4155,OZONE,49,51,50
India,Haryana,Kurukshetra,"Sector-7, Kurukshetra - HSPCB",14-01-2026 16:00:00,29.966942,76.875879,PM10,112,258,169
India,Haryana,Mandikhera,"General Hospital, Mandikhera(Nuh) - HSPCB",14-01-2026 16:00:00,27.9002,76.9938,PM2.5,85,206,157
India,Haryana,Mandikhera,"General Hospital, Mandikhera(Nuh) - HSPCB",14-01-2026 16:00:00,27.9002,76.9938,NH3,12,14,13
India,Haryana,Ambala,"Patti Mehar, Ambala - HSPCB",14-01-2026 16:00:00,30.379589,76.778328,PM10,38,141,86
India,Haryana,Bahadurgarh,"Arya Nagar, Bahadurgarh - HSPCB",14-01-2026 16:00:00,28.6701,76.9254,NH3,12,13,13
India,Haryana,Bahadurgarh,"Arya Nagar, Bahadurgarh - HSPCB",14-01-2026 16:00:00,28.6701,76.9254,OZONE,16,19,18
India,Haryana,Ballabgarh,"Nathu Colony, Ballabgarh - HSPCB",14-01-2026 16:00:00,28.3419248,77.319699,PM2.5,46,309,196
India,Haryana,Ballabgarh,"Nathu Colony, Ballabgarh - HSPCB",14-01-2026 16:00:00,28.3419248,77.319699,OZONE,15,16,15
India,Haryana,Bhiwani,"H.B. Colony, Bhiwani - HSPCB",14-01-2026 16:00:00,28.806223,76.141105,PM10,66,156,108
India,Haryana,Bhiwani,"H.B. Colony, Bhiwani - HSPCB",14-01-2026 16:00:00,28.806223,76.141105,CO,10,13,11
India,Haryana,Charkhi Dadri,"Mini Secretariat, Charkhi Dadri - HSPCB",14-01-2026 16:00:00,28.593883,76.270653,PM10,96,264,186
India,Haryana,Charkhi Dadri,"Mini Secretariat, Charkhi Dadri - HSPCB",14-01-2026 16:00:00,28.593883,76.270653,NO2,9,25,16
India,Haryana,Dharuhera,"Municipal Corporation Office, Dharuhera -  HSPCB",14-01-2026 16:00:00,28.206800,76.799700,CO,28,64,45
India,Haryana,Faridabad,"New Industrial Town, Faridabad - HSPCB",14-01-2026 16:00:00,28.39072,77.30059,PM10,171,177,174
India,Haryana,Faridabad,"Sector 30, Faridabad - HSPCB",14-01-2026 16:00:00,28.4417,77.3217,PM10,159,164,161
India,Haryana,Manesar,"Sector-2 IMT, Manesar - HSPCB",14-01-2026 16:00:00,28.360699,76.936090,SO2,6,13,9
India,Haryana,Palwal,"Shyam Nagar, Palwal - HSPCB",14-01-2026 16:00:00,28.1485564,77.3320667,NO2,23,24,24
India,Haryana,Panchgaon,"Amity University, Panchgaon - IITM",14-01-2026 16:00:00,28.3153,76.9143,PM2.5,28,284,121
India,Haryana,Panchgaon,"Amity University, Panchgaon - IITM",14-01-2026 16:00:00,28.3153,76.9143,PM10,25,185,93
India,Gujarat,Gandhinagar,"GIFT City, Gandhinagar - IITM",14-01-2026 16:00:00,23.163798,72.677768,OZONE,4,89,33
India,Gujarat,Surat,"Science Center, Surat - SMC",14-01-2026 16:00:00,21.170046,72.795405,PM2.5,60,189,121
India,Gujarat,Vapi,"Phase-1 GIDC, Vapi - GPCB",14-01-2026 16:00:00,20.362421,72.918013,PM2.5,43,359,97
India,Gujarat,Vapi,"Phase-1 GIDC, Vapi - GPCB",14-01-2026 16:00:00,20.362421,72.918013,NH3,4,6,5
India,Haryana,Fatehabad,"Huda Sector, Fatehabad - HSPCB",14-01-2026 16:00:00,29.503664,75.467934,PM2.5,82,310,168
India,Haryana,Gurugram,"Sector-51, Gurugram - HSPCB",14-01-2026 16:00:00,28.4227,77.0667,NO2,6,15,10
India,Haryana,Gurugram,"Sector-51, Gurugram - HSPCB",14-01-2026 16:00:00,28.4227,77.0667,NH3,9,14,12
India,Haryana,Gurugram,"Sector-51, Gurugram - HSPCB",14-01-2026 16:00:00,28.4227,77.0667,OZONE,3,16,14
India,Haryana,Gurugram,"Vikas Sadan, Gurugram - HSPCB",14-01-2026 16:00:00,28.4501238,77.0263051,CO,61,114,92
India,Haryana,Hisar,"Urban Estate-II, Hisar - HSPCB",14-01-2026 16:00:00,29.140560,75.744941,PM10,21,59,39
India,Haryana,Hisar,"Urban Estate-II, Hisar - HSPCB",14-01-2026 16:00:00,29.140560,75.744941,OZONE,14,102,39
India,Haryana,Rohtak,"MD University, Rohtak - HSPCB",14-01-2026 16:00:00,28.52123,76.37138,CO,10,36,26
India,Haryana,Sonipat,"Murthal, Sonipat - HSPCB",14-01-2026 16:00:00,29.027200,77.062100,NO2,19,44,33
India,Karnataka,Chamarajanagar,"Urban, Chamarajanagar - KSPCB",14-01-2026 16:00:00,11.55358,76.55521,CO,18,32,24
India,Karnataka,Chamarajanagar,"Urban, Chamarajanagar - KSPCB",14-01-2026 16:00:00,11.55358,76.55521,OZONE,15,49,35
India,Karnataka,Chikkaballapur,"Chikkaballapur Rural, Chikkaballapur - KSPCB",14-01-2026 16:00:00,13.428828,77.731418,NO2,5,60,19
India,Karnataka,Chikkaballapur,"Chikkaballapur Rural, Chikkaballapur - KSPCB",14-01-2026 16:00:00,13.428828,77.731418,SO2,40,52,45
India,Karnataka,Chikkamagaluru,"Kalyana Nagara, Chikkamagaluru - KSPCB",14-01-2026 16:00:00,13.328028,75.797056,PM10,21,40,37
India,Karnataka,Chikkamagaluru,"Kalyana Nagara, Chikkamagaluru - KSPCB",14-01-2026 16:00:00,13.328028,75.797056,NO2,18,25,20
India,Karnataka,Chikkamagaluru,"Kalyana Nagara, Chikkamagaluru - KSPCB",14-01-2026 16:00:00,13.328028,75.797056,NH3,3,3,3
India,Karnataka,Chikkamagaluru,"Kalyana Nagara, Chikkamagaluru - KSPCB",14-01-2026 16:00:00,13.328028,75.797056,CO,8,74,10
India,Karnataka,Hubballi,"Lingaraj Nagar, Hubballi - KSPCB",14-01-2026 16:00:00,15.3714823,75.1160168,PM2.5,41,45,44
India,Himachal Pradesh,Baddi,"HIMUDA Complex Phase-1, Baddi - HPPCB",14-01-2026 16:00:00,30.943887,76.801991,NH3,2,4,2
India,Himachal Pradesh,Baddi,"HIMUDA Complex Phase-1, Baddi - HPPCB",14-01-2026 16:00:00,30.943887,76.801991,SO2,23,76,39
India,Himachal Pradesh,Baddi,"HIMUDA Complex Phase-1, Baddi - HPPCB",14-01-2026 16:00:00,30.943887,76.801991,OZONE,6,79,22
India,Jharkhand,Dhanbad,"Sardar Patel Nagar, Dhanbad - JSPCB",14-01-2026 16:00:00,23.80569,86.44268,NO2,49,50,50
India,Jharkhand,Dhanbad,"Sardar Patel Nagar, Dhanbad - JSPCB",14-01-2026 16:00:00,23.80569,86.44268,OZONE,1,30,22
India,Karnataka,Bagalkot,"Vidayagiri, Bagalkot - KSPCB",14-01-2026 16:00:00,16.172806,75.659694,PM10,53,54,53
India,Karnataka,Bagalkot,"Vidayagiri, Bagalkot - KSPCB",14-01-2026 16:00:00,16.172806,75.659694,NO2,11,12,12
India,Karnataka,Belgaum,"Ramteerth Nagar, Belgaum - KSPCB",14-01-2026 16:00:00,15.888653,74.541751,PM2.5,NA,NA,NA
India,Karnataka,Belgaum,"Ramteerth Nagar, Belgaum - KSPCB",14-01-2026 16:00:00,15.888653,74.541751,SO2,NA,NA,NA
India,Karnataka,Belgaum,"Ramteerth Nagar, Belgaum - KSPCB",14-01-2026 16:00:00,15.888653,74.541751,OZONE,19,19,19
India,Karnataka,Bengaluru,"BTM Layout, Bengaluru - CPCB",14-01-2026 16:00:00,12.9135218,77.5950804,NH3,NA,NA,NA
India,Karnataka,Bengaluru,"BTM Layout, Bengaluru - CPCB",14-01-2026 16:00:00,12.9135218,77.5950804,CO,NA,NA,NA
India,Karnataka,Bengaluru,"BWSSB Kadabesanahalli, Bengaluru - CPCB",14-01-2026 16:00:00,12.9352049,77.6814488,PM2.5,55,321,155
India,Karnataka,Bengaluru,"Bapuji Nagar, Bengaluru - KSPCB",14-01-2026 16:00:00,12.951913,77.539784,PM10,NA,NA,NA
India,Karnataka,Bengaluru,"Bapuji Nagar, Bengaluru - KSPCB",14-01-2026 16:00:00,12.951913,77.539784,NH3,2,2,2
India,Karnataka,Bengaluru,"City Railway Station, Bengaluru - KSPCB",14-01-2026 16:00:00,12.9756843,77.5660749,PM10,91,92,91
India,Karnataka,Bengaluru,"Hombegowda Nagar, Bengaluru - KSPCB",14-01-2026 16:00:00,12.938539,77.590100,NH3,3,4,3
India,Karnataka,Bengaluru,"Hombegowda Nagar, Bengaluru - KSPCB",14-01-2026 16:00:00,12.938539,77.590100,CO,13,33,18
India,Karnataka,Bengaluru,"Jayanagar 5th Block, Bengaluru - KSPCB",14-01-2026 16:00:00,12.920984,77.584908,PM2.5,34,90,54
India,Karnataka,Bengaluru,"Jayanagar 5th Block, Bengaluru - KSPCB",14-01-2026 16:00:00,12.920984,77.584908,SO2,1,14,5
India,Karnataka,Bengaluru,"Jigani, Bengaluru - KSPCB",14-01-2026 16:00:00,12.7816279,77.6299145,NH3,4,5,4
India,Karnataka,Bengaluru,"Jigani, Bengaluru - KSPCB",14-01-2026 16:00:00,12.7816279,77.6299145,CO,51,53,52
India,Karnataka,Bengaluru,"Peenya, Bengaluru - CPCB",14-01-2026 16:00:00,13.0270199,77.494094,PM2.5,20,54,35
India,Karnataka,Bengaluru,"Peenya, Bengaluru - CPCB",14-01-2026 16:00:00,13.0270199,77.494094,NO2,22,28,25
India,Karnataka,Bengaluru,"RVCE-Mailasandra, Bengaluru - KSPCB",14-01-2026 16:00:00,12.921418,77.502466,PM10,84,133,104
India,Karnataka,Bengaluru,"RVCE-Mailasandra, Bengaluru - KSPCB",14-01-2026 16:00:00,12.921418,77.502466,SO2,5,6,6
India,Karnataka,Bengaluru,"Shivapura_Peenya, Bengaluru - KSPCB",14-01-2026 16:00:00,13.0246342,77.5080115,PM10,53,139,105
India,Karnataka,Bengaluru,"Shivapura_Peenya, Bengaluru - KSPCB",14-01-2026 16:00:00,13.0246342,77.5080115,NO2,29,33,32
India,Karnataka,Bengaluru,"Silk Board, Bengaluru - KSPCB",14-01-2026 16:00:00,12.917348,77.622813,PM2.5,NA,NA,NA
India,Karnataka,Chamarajanagar,"Urban, Chamarajanagar - KSPCB",14-01-2026 16:00:00,11.55358,76.55521,PM2.5,NA,NA,NA
India,Karnataka,Hubballi,"Lingaraj Nagar, Hubballi - KSPCB",14-01-2026 16:00:00,15.3714823,75.1160168,OZONE,15,21,15
India,Karnataka,Kalaburagi,"Mahatma Basaveswar Colony, Kalaburgi - KSPCB",14-01-2026 16:00:00,17.336318,76.847397,SO2,2,6,4
India,Karnataka,Kalaburagi,"Mahatma Basaveswar Colony, Kalaburgi - KSPCB",14-01-2026 16:00:00,17.336318,76.847397,CO,34,67,42
India,Karnataka,Kalaburagi,"Mahatma Basaveswar Colony, Kalaburgi - KSPCB",14-01-2026 16:00:00,17.336318,76.847397,OZONE,9,28,18
India,Karnataka,Madikeri,"Stuart Hill, Madikeri - KSPCB",14-01-2026 16:00:00,12.415911,75.735050,PM10,7,186,35
India,Karnataka,Madikeri,"Stuart Hill, Madikeri - KSPCB",14-01-2026 16:00:00,12.415911,75.735050,OZONE,2,6,3
India,Kerala,Kannur,"Thavakkara, Kannur - Kerala PCB",14-01-2026 16:00:00,11.875000,75.373200,NO2,NA,NA,NA
India,Kerala,Kollam,"Polayathode, Kollam - Kerala PCB",14-01-2026 16:00:00,8.8787,76.6073,NH3,NA,NA,NA
India,Kerala,Kollam,"Polayathode, Kollam - Kerala PCB",14-01-2026 16:00:00,8.8787,76.6073,CO,13,17,15
India,Kerala,Kollam,"Polayathode, Kollam - Kerala PCB",14-01-2026 16:00:00,8.8787,76.6073,OZONE,31,36,36
India,Kerala,Thiruvananthapuram,"Kariavattom, Thiruvananthapuram - Kerala PCB",14-01-2026 16:00:00,8.563700,76.886500,SO2,1,42,13
India,Kerala,Thiruvananthapuram,"Kariavattom, Thiruvananthapuram - Kerala PCB",14-01-2026 16:00:00,8.563700,76.886500,OZONE,36,37,37
India,Karnataka,Bengaluru,"City Railway Station, Bengaluru - KSPCB",14-01-2026 16:00:00,12.9756843,77.5660749,SO2,21,22,22
India,Karnataka,Bengaluru,"Hebbal, Bengaluru - KSPCB",14-01-2026 16:00:00,13.029152,77.585901,PM2.5,21,162,75
India,Karnataka,Bengaluru,"Hombegowda Nagar, Bengaluru - KSPCB",14-01-2026 16:00:00,12.938539,77.590100,PM2.5,24,82,51
India,Karnataka,Bengaluru,"Hombegowda Nagar, Bengaluru - KSPCB",14-01-2026 16:00:00,12.938539,77.590100,NO2,17,59,36
India,Karnataka,Ramanagara,"Vijay Nagar, Ramanagara - KSPCB",14-01-2026 16:00:00,12.733409,77.298051,SO2,NA,NA,NA
India,Karnataka,Tumakuru,"Thimmalapura, Tumakuru - KSPCB",14-01-2026 16:00:00,13.377516,77.099072,PM10,NA,NA,NA
India,Madhya Pradesh,Indore,"Airport Area, Indore - IMC",14-01-2026 16:00:00,22.7289,75.8076,OZONE,6,40,19
India,Madhya Pradesh,Indore,"Chhoti Gwaltoli, Indore - MPPCB",14-01-2026 16:00:00,22.4310,75.5213,PM10,70,212,127
India,Madhya Pradesh,Indore,"Chhoti Gwaltoli, Indore - MPPCB",14-01-2026 16:00:00,22.4310,75.5213,NO2,98,180,128
India,Madhya Pradesh,Indore,"Regional Park, Indore - IMC",14-01-2026 16:00:00,22.6780,75.8559,PM2.5,49,309,126
India,Madhya Pradesh,Indore,"Regional Park, Indore - IMC",14-01-2026 16:00:00,22.6780,75.8559,OZONE,9,52,17
India,Madhya Pradesh,Indore,"Residency Area, Indore - IMC",14-01-2026 16:00:00,22.7084,75.8815,PM10,30,132,90
India,Madhya Pradesh,Indore,"Residency Area, Indore - IMC",14-01-2026 16:00:00,22.7084,75.8815,CO,18,28,20
India,Madhya Pradesh,Jabalpur,"Govindh Bhavan Colony, Jabalpur - JMC",14-01-2026 16:00:00,23.163174,79.973061,PM10,66,118,92
India,Madhya Pradesh,Sagar,"Deen Dayal Nagar, Sagar - MPPCB",14-01-2026 16:00:00,23.8640158,78.80289321,CO,64,101,67
India,Madhya Pradesh,Singrauli,"Suryakiran Bhawan NCL, Singrauli - MPPCB",14-01-2026 16:00:00,24.108970,82.645580,PM10,110,220,159
India,Madhya Pradesh,Ujjain,"Mahashweta Nagar, Ujjain - MPPCB",14-01-2026 16:00:00,23.1633321,75.800225,NH3,9,21,14
India,Madhya Pradesh,Ujjain,"Mahashweta Nagar, Ujjain - MPPCB",14-01-2026 16:00:00,23.1633321,75.800225,SO2,2,28,12
India,Maharashtra,Ahmednagar,"Tarakpur, Ahmednagar - MPCB",14-01-2026 16:00:00,19.10122,74.73339,PM2.5,48,148,81
India,Maharashtra,Ahmednagar,"Tarakpur, Ahmednagar - MPCB",14-01-2026 16:00:00,19.10122,74.73339,SO2,2,5,4
India,Madhya Pradesh,Dewas,"Bhopal Chauraha, Dewas - MPPCB",14-01-2026 16:00:00,22.9682591,76.064118,PM10,93,185,124
India,Madhya Pradesh,Dewas,"Bhopal Chauraha, Dewas - MPPCB",14-01-2026 16:00:00,22.9682591,76.064118,OZONE,25,111,40
India,Madhya Pradesh,Gwalior,"Deen Dayal Nagar, Gwalior - MPPCB",14-01-2026 16:00:00,26.259242,78.216432,PM10,76,437,183
India,Madhya Pradesh,Gwalior,"Deen Dayal Nagar, Gwalior - MPPCB",14-01-2026 16:00:00,26.259242,78.216432,NO2,12,135,53
India,Madhya Pradesh,Gwalior,"Deen Dayal Nagar, Gwalior - MPPCB",14-01-2026 16:00:00,26.259242,78.216432,OZONE,19,93,65
India,Madhya Pradesh,Gwalior,"Maharaj Bada, Gwalior - MPPCB",14-01-2026 16:00:00,26.200388,78.147714,NH3,6,6,6
India,Madhya Pradesh,Gwalior,"Maharaj Bada, Gwalior - MPPCB",14-01-2026 16:00:00,26.200388,78.147714,SO2,7,10,8
India,Maharashtra,Akola,"Ramdaspeth, Akola - MPCB",14-01-2026 16:00:00,20.719516,77.000253,PM10,66,147,104
India,Maharashtra,Amravati,"Shivneri Colony, Amravati - MPCB",14-01-2026 16:00:00,20.9402359,77.7895248,PM10,85,102,92
India,Maharashtra,Amravati,"Shivneri Colony, Amravati - MPCB",14-01-2026 16:00:00,20.9402359,77.7895248,NO2,11,42,22
India,Maharashtra,Amravati,"Shivneri Colony, Amravati - MPCB",14-01-2026 16:00:00,20.9402359,77.7895248,OZONE,15,109,70
India,Maharashtra,Amravati,"Shri Shivaji Science College, Amravati - MPCB",14-01-2026 16:00:00,20.939198,77.765701,NH3,2,10,4
India,Madhya Pradesh,Katni,"Gole Bazar, Katni - MPPCB",14-01-2026 16:00:00,23.50016,80.23284,CO,26,113,46
India,Madhya Pradesh,Mandideep,"Sector-D Industrial Area, Mandideep - MPPCB",14-01-2026 16:00:00,23.108440,77.511428,PM10,107,332,188
India,Madhya Pradesh,Sagar,"Deen Dayal Nagar, Sagar - MPPCB",14-01-2026 16:00:00,23.8640158,78.80289321,PM2.5,47,195,82
India,Madhya Pradesh,Jabalpur,"Govindh Bhavan Colony, Jabalpur - JMC",14-01-2026 16:00:00,23.163174,79.973061,SO2,3,20,10
India,Madhya Pradesh,Jabalpur,"Govindh Bhavan Colony, Jabalpur - JMC",14-01-2026 16:00:00,23.163174,79.973061,CO,32,60,37
India,Madhya Pradesh,Jabalpur,"Gupteshwar, Jabalpur - JMC",14-01-2026 16:00:00,23.142888,79.916147,NH3,2,2,2
India,Madhya Pradesh,Jabalpur,"Marhatal, Jabalpur - MPPCB",14-01-2026 16:00:00,23.168606,79.932247,PM10,111,500,190
India,Madhya Pradesh,Bhopal,"Idgah Hills, Bhopal - MPPCB",14-01-2026 16:00:00,23.264759,77.381568,OZONE,29,95,68
India,Madhya Pradesh,Bhopal,"Paryavaran Parisar, Bhopal - MPPCB",14-01-2026 16:00:00,23.210494,77.425409,NH3,15,25,19
India,Kerala,Thrissur,"Corporation Ground, Thrissur - Kerala PCB",14-01-2026 16:00:00,10.532400,76.215900,SO2,NA,NA,NA
India,Kerala,Thrissur,"Corporation Ground, Thrissur - Kerala PCB",14-01-2026 16:00:00,10.532400,76.215900,OZONE,29,30,30
India,Madhya Pradesh,Bhopal,"T T Nagar, Bhopal - MPPCB",14-01-2026 16:00:00,23.233584,77.400574,PM2.5,80,148,102
India,Maharashtra,Mahad,"Kamble Tarf Birwadi, Mahad - MPCB",14-01-2026 16:00:00,18.1023399,73.4783687,OZONE,15,84,51
India,Maharashtra,Malegaon,"Mahesh Nagar, Malegaon - MPCB",14-01-2026 16:00:00,20.555712,74.529236,PM2.5,37,101,68
India,Maharashtra,Mira-Bhayandar,"Bhayandar West, Mira-Bhayandar - MPCB",14-01-2026 16:00:00,19.296481,72.840923,NO2,27,94,56
India,Maharashtra,Mira-Bhayandar,"Bhayandar West, Mira-Bhayandar - MPCB",14-01-2026 16:00:00,19.296481,72.840923,NH3,3,10,6
India,Maharashtra,Mira-Bhayandar,"Bhayandar West, Mira-Bhayandar - MPCB",14-01-2026 16:00:00,19.296481,72.840923,CO,30,87,38
India,Maharashtra,Mumbai,"Bandra Kurla Complex, Mumbai - IITM",14-01-2026 16:00:00,19.053536,72.84643,PM10,106,170,143
India,Maharashtra,Mumbai,"Bandra Kurla Complex, Mumbai - MPCB",14-01-2026 16:00:00,19.065931,72.862131,CO,14,20,17
India,Maharashtra,Kolhapur,"Shivaji University, Kolhapur - MPCB",14-01-2026 16:00:00,16.6870449,74.2505872,NH3,3,4,3
India,Maharashtra,Kolhapur,"Sinchan Bhavan, Kolhapur - MPCB",14-01-2026 16:00:00,16.7143745,74.2426398,NH3,1,7,3
India,Maharashtra,Kolhapur,"Sinchan Bhavan, Kolhapur - MPCB",14-01-2026 16:00:00,16.7143745,74.2426398,CO,18,43,30
India,Maharashtra,Latur,"Sawe Wadi, Latur - MPCB",14-01-2026 16:00:00,18.39963,76.57452,SO2,NA,NA,NA
India,Maharashtra,Latur,"Sawe Wadi, Latur - MPCB",14-01-2026 16:00:00,18.39963,76.57452,OZONE,NA,NA,NA
India,Maharashtra,Mahad,"Kamble Tarf Birwadi, Mahad - MPCB",14-01-2026 16:00:00,18.1023399,73.4783687,PM2.5,41,180,80
India,Maharashtra,Mahad,"Kamble Tarf Birwadi, Mahad - MPCB",14-01-2026 16:00:00,18.1023399,73.4783687,NO2,16,89,26
India,Maharashtra,Jalgaon,"Prabhat Colony, Jalgaon - MPCB",14-01-2026 16:00:00,21.001264,75.565602,PM2.5,79,172,119
India,Maharashtra,Jalgaon,"Prabhat Colony, Jalgaon - MPCB",14-01-2026 16:00:00,21.001264,75.565602,NH3,2,3,2
India,Maharashtra,Jalgaon,"Prabhat Colony, Jalgaon - MPCB",14-01-2026 16:00:00,21.001264,75.565602,SO2,1,22,10
India,Maharashtra,Jalna,"Old MIDC, Jalna - MPCB",14-01-2026 16:00:00,19.854616,75.905894,SO2,10,29,16
India,Maharashtra,Kalyan,"Khadakpada, Kalyan - MPCB",14-01-2026 16:00:00,19.25292,73.142019,PM10,61,194,134
India,Maharashtra,Kalyan,"Pimpleshwar Mandir, Kalyan - MPCB",14-01-2026 16:00:00,19.192056,72.9585188,NH3,NA,NA,NA
India,Maharashtra,Aurangabad,"MIDC Chilkalthana, Aurangabad - MPCB",14-01-2026 16:00:00,19.875620,75.387310,PM2.5,59,166,103
India,Maharashtra,Aurangabad,"More Chowk Waluj, Aurangabad - MPCB",14-01-2026 16:00:00,19.8389439,75.244448,NO2,14,22,18
India,Maharashtra,Aurangabad,"More Chowk Waluj, Aurangabad - MPCB",14-01-2026 16:00:00,19.8389439,75.244448,NH3,10,11,11
India,Maharashtra,Aurangabad,"More Chowk Waluj, Aurangabad - MPCB",14-01-2026 16:00:00,19.8389439,75.244448,CO,7,119,28
India,Maharashtra,Bhiwandi,"Gokul Nagar, Bhiwandi - MPCB",14-01-2026 16:00:00,19.309073,73.057223,PM2.5,50,225,118
India,Maharashtra,Boisar,"Khaira, Boisar - MPCB",14-01-2026 16:00:00,19.786089,72.757971,NO2,13,57,30
India,Maharashtra,Chandrapur,"Chauhan Colony, Chandrapur - MPCB",14-01-2026 16:00:00,19.962900,79.298714,CO,23,54,39
India,Maharashtra,Aurangabad,"Rachnakar Colony, Aurangabad - MPCB",14-01-2026 16:00:00,19.863756,75.321188,NH3,NA,NA,NA
India,Maharashtra,Belapur,"CBD Belapur, Belapur - MPCB",14-01-2026 16:00:00,19.0243902,73.0406721,CO,5,58,17
India,Maharashtra,Belapur,"CBD Belapur, Belapur - MPCB",14-01-2026 16:00:00,19.0243902,73.0406721,OZONE,1,75,50
India,Maharashtra,Mumbai,"Byculla, Mumbai - BMC",14-01-2026 16:00:00,18.9767,72.8380,NO2,46,138,90
India,Maharashtra,Mumbai,"Byculla, Mumbai - BMC",14-01-2026 16:00:00,18.9767,72.8380,NH3,9,34,22
India,Maharashtra,Mumbai,"Byculla, Mumbai - BMC",14-01-2026 16:00:00,18.9767,72.8380,SO2,1,5,3
India,Maharashtra,Mumbai,"Byculla, Mumbai - BMC",14-01-2026 16:00:00,18.9767,72.8380,OZONE,1,59,33
India,Maharashtra,Chandrapur,"MIDC Khutala, Chandrapur - MPCB",14-01-2026 16:00:00,19.9775302,79.2337086,PM2.5,NA,NA,NA
India,Maharashtra,Chandrapur,"MIDC Khutala, Chandrapur - MPCB",14-01-2026 16:00:00,19.9775302,79.2337086,NO2,12,37,21
India,Maharashtra,Chandrapur,"MIDC Khutala, Chandrapur - MPCB",14-01-2026 16:00:00,19.9775302,79.2337086,NH3,2,10,5
India,Maharashtra,Mumbai,"Deonar, Mumbai - IITM",14-01-2026 16:00:00,19.04946,72.9230,PM10,94,164,133
India,Maharashtra,Mumbai,"Deonar, Mumbai - IITM",14-01-2026 16:00:00,19.04946,72.9230,NH3,NA,NA,NA
India,Maharashtra,Nagpur,"Opp GPO Civil Lines, Nagpur - MPCB",14-01-2026 16:00:00,21.152875,79.0517531,OZONE,1,39,26
India,Maharashtra,Nagpur,"Ram Nagar, Nagpur - MPCB",14-01-2026 16:00:00,21.143383,79.048912,NO2,10,81,37
India,Maharashtra,Nanded,"Sneh Nagar, Nanded - MPCB",14-01-2026 16:00:00,19.173852,77.296291,PM2.5,56,90,68
India,Maharashtra,Nashik,"Gangapur Road, Nashik - MPCB",14-01-2026 16:00:00,20.0073285,73.7762427,SO2,2,8,5
India,Maharashtra,Nashik,"Hirawadi, Nashik - MPCB",14-01-2026 16:00:00,20.021503,73.813844,NH3,1,9,3
India,Maharashtra,Pimpri-Chinchwad,"Park Street Wakad, Pimpri Chinchwad - MPCB",14-01-2026 16:00:00,18.59051,73.77946,PM2.5,27,97,67
India,Maharashtra,Pimpri-Chinchwad,"Park Street Wakad, Pimpri Chinchwad - MPCB",14-01-2026 16:00:00,18.59051,73.77946,NO2,34,83,57
India,Maharashtra,Pimpri-Chinchwad,"Savta Mali Nagar, Pimpri-Chinchwad - IITM",14-01-2026 16:00:00,18.614767,73.799516,PM2.5,60,256,126
India,Maharashtra,Pimpri-Chinchwad,"Thergaon, Pimpri Chinchwad - MPCB",14-01-2026 16:00:00,18.616318,73.765797,PM2.5,58,306,164
India,Maharashtra,Pimpri-Chinchwad,"Thergaon, Pimpri Chinchwad - MPCB",14-01-2026 16:00:00,18.616318,73.765797,NH3,6,8,7
India,Maharashtra,Pimpri-Chinchwad,"Thergaon, Pimpri Chinchwad - MPCB",14-01-2026 16:00:00,18.616318,73.765797,SO2,1,3,1
India,Maharashtra,Mumbai,"Kandivali East, Mumbai - MPCB",14-01-2026 16:00:00,19.205800,72.868200,NH3,3,3,3
India,Maharashtra,Mumbai,"Kandivali East, Mumbai - MPCB",14-01-2026 16:00:00,19.205800,72.868200,OZONE,18,18,18
India,Maharashtra,Mumbai,"Kandivali West, Mumbai - BMC",14-01-2026 16:00:00,19.215859,72.831718,CO,NA,NA,NA
India,Maharashtra,Mumbai,"Khindipada-Bhandup West, Mumbai - IITM",14-01-2026 16:00:00,19.1653323,72.922099,SO2,NA,NA,NA
India,Maharashtra,Mumbai,"Khindipada-Bhandup West, Mumbai - IITM",14-01-2026 16:00:00,19.1653323,72.922099,CO,6,28,6
India,Maharashtra,Mumbai,"Kurla, Mumbai - MPCB",14-01-2026 16:00:00,19.0863,72.8888,NH3,2,2,2
India,Maharashtra,Nashik,"MIDC Ambad, Nashik - MPCB",14-01-2026 16:00:00,19.950220,73.731480,NO2,NA,NA,NA
India,Maharashtra,Nashik,"MIDC Ambad, Nashik - MPCB",14-01-2026 16:00:00,19.950220,73.731480,SO2,NA,NA,NA
India,Maharashtra,Nashik,"Pandav Nagari, Nashik - MPCB",14-01-2026 16:00:00,19.9591346,73.7788008,PM10,60,125,104
India,Maharashtra,Navi Mumbai,"Kopripada-Vashi, Navi Mumbai - MPCB",14-01-2026 16:00:00,19.090337,73.014232,SO2,9,41,25
India,Maharashtra,Navi Mumbai,"Mahape, Navi Mumbai - MPCB",14-01-2026 16:00:00,19.1135051,73.008978,PM2.5,57,91,79
India,Maharashtra,Mumbai,"Vile Parle West, Mumbai - MPCB",14-01-2026 16:00:00,19.10861,72.83622,SO2,49,52,50
India,Maharashtra,Nagpur,"Ambazari, Nagpur - MPCB",14-01-2026 16:00:00,21.121801,79.04952,PM2.5,88,279,210
India,Maharashtra,Nagpur,"Ambazari, Nagpur - MPCB",14-01-2026 16:00:00,21.121801,79.04952,PM10,105,160,139
India,Maharashtra,Nagpur,"Ambazari, Nagpur - MPCB",14-01-2026 16:00:00,21.121801,79.04952,SO2,15,76,35
India,Maharashtra,Nagpur,"Opp GPO Civil Lines, Nagpur - MPCB",14-01-2026 16:00:00,21.152875,79.0517531,PM2.5,67,294,202
India,Maharashtra,Mumbai,"Mazgaon, Mumbai - IITM",14-01-2026 16:00:00,18.96702,72.84214,OZONE,3,86,47
India,Maharashtra,Mumbai,"Mulund West, Mumbai - MPCB",14-01-2026 16:00:00,19.1750,72.9419,PM10,74,165,113
India,Maharashtra,Mumbai,"Mulund West, Mumbai - MPCB",14-01-2026 16:00:00,19.1750,72.9419,NO2,16,21,18
India,Maharashtra,Mumbai,"Navy Nagar-Colaba, Mumbai - IITM",14-01-2026 16:00:00,18.897756,72.813320,PM10,108,170,131
India,Maharashtra,Mumbai,"Navy Nagar-Colaba, Mumbai - IITM",14-01-2026 16:00:00,18.897756,72.813320,NH3,6,13,8
India,Maharashtra,Mumbai,"Navy Nagar-Colaba, Mumbai - IITM",14-01-2026 16:00:00,18.897756,72.813320,CO,40,86,59
India,Maharashtra,Mumbai,"Powai, Mumbai - MPCB",14-01-2026 16:00:00,19.137500,72.915056,SO2,29,30,30
India,Maharashtra,Mumbai,"Shivaji Nagar, Mumbai - BMC",14-01-2026 16:00:00,19.060498,72.923356,PM2.5,42,110,74
India,Maharashtra,Mumbai,"Shivaji Nagar, Mumbai - BMC",14-01-2026 16:00:00,19.060498,72.923356,NO2,33,112,74
India,Maharashtra,Mumbai,"Sion, Mumbai - MPCB",14-01-2026 16:00:00,19.047000,72.874600,NO2,51,282,147
India,Maharashtra,Navi Mumbai,"Tondare-Taloja, Navi Mumbai - MPCB",14-01-2026 16:00:00,19.0630,73.1209,PM10,59,114,92
India,Maharashtra,Navi Mumbai,"Tondare-Taloja, Navi Mumbai - MPCB",14-01-2026 16:00:00,19.0630,73.1209,NH3,8,25,10
India,Maharashtra,Parbhani,"Masoom Colony, Parbhani - MPCB",14-01-2026 16:00:00,19.265594,76.761463,PM2.5,70,140,99
India,Maharashtra,Navi Mumbai,"Sanpada, Navi Mumbai - MPCB",14-01-2026 16:00:00,19.0575752,73.0151367,NH3,11,13,11
India,Maharashtra,Navi Mumbai,"Sector-2E Kalamboli, Navi Mumbai - MPCB",14-01-2026 16:00:00,19.02579,73.10297,NO2,14,78,41
India,Puducherry,Puducherry,"Jawahar Nagar, Puducherry - PPCC",14-01-2026 16:00:00,11.9309,79.8027,CO,17,56,24
India,Punjab,Amritsar,"Golden Temple, Amritsar - PPCB",14-01-2026 16:00:00,31.620000,74.876512,SO2,13,22,19
India,Punjab,Amritsar,"Golden Temple, Amritsar - PPCB",14-01-2026 16:00:00,31.620000,74.876512,OZONE,30,46,37
India,Punjab,Bathinda,"Hardev Nagar, Bathinda - PPCB",14-01-2026 16:00:00,30.233011,74.907758,PM10,36,91,56
India,Punjab,Bathinda,"Hardev Nagar, Bathinda - PPCB",14-01-2026 16:00:00,30.233011,74.907758,NO2,15,23,17
India,Punjab,Jalandhar,"Civil Line, Jalandhar - PPCB",14-01-2026 16:00:00,31.321907,75.578914,NO2,32,36,35
India,Punjab,Jalandhar,"Civil Line, Jalandhar - PPCB",14-01-2026 16:00:00,31.321907,75.578914,OZONE,19,42,34
India,Punjab,Khanna,"Kalal Majra, Khanna - PPCB",14-01-2026 16:00:00,30.736056 ,76.209694,PM10,45,238,133
India,Punjab,Ludhiana,"Punjab Agricultural University, Ludhiana - PPCB",14-01-2026 16:00:00,30.9028,75.8086,OZONE,10,49,16
India,Maharashtra,Thane,"Upvan Fort, Thane - MPCB",14-01-2026 16:00:00,19.222279,72.957979,SO2,6,24,13
India,Maharashtra,Thane,"Upvan Fort, Thane - MPCB",14-01-2026 16:00:00,19.222279,72.957979,CO,6,57,26
India,Maharashtra,Ulhasnagar,"Sidhi Vinayak Nagar, Ulhasnagar - MPCB",14-01-2026 16:00:00,19.235581,73.159121,OZONE,12,86,57
India,Maharashtra,Virar,"Bolinj, Virar - MPCB",14-01-2026 16:00:00,19.4458210,72.7988231,PM2.5,78,133,114
India,Maharashtra,Virar,"Bolinj, Virar - MPCB",14-01-2026 16:00:00,19.4458210,72.7988231,NO2,17,49,29
India,Maharashtra,Virar,"Bolinj, Virar - MPCB",14-01-2026 16:00:00,19.4458210,72.7988231,NH3,3,4,4
India,Nagaland,Kohima,"PWD Junction, Kohima - NPCB",14-01-2026 16:00:00,25.6635413,94.0989878,PM2.5,18,68,38
India,Maharashtra,Pune,"Transport Nagar-Nigdi, Pune - IITM",14-01-2026 16:00:00,18.664282,73.763966,PM2.5,34,134,82
India,Maharashtra,Pune,"Transport Nagar-Nigdi, Pune - IITM",14-01-2026 16:00:00,18.664282,73.763966,CO,63,106,97
India,Maharashtra,Solapur,"Dnyaneshwar Nagar, Solapur - MPCB",14-01-2026 16:00:00,17.6336264,75.9132495,PM2.5,68,122,86
India,Maharashtra,Solapur,"Ratandeep Housing Society, Solapur - MPCB",14-01-2026 16:00:00,17.65439,75.90649,PM2.5,38,133,82
India,Maharashtra,Solapur,"Ratandeep Housing Society, Solapur - MPCB",14-01-2026 16:00:00,17.65439,75.90649,OZONE,3,44,36
India,Maharashtra,Thane,"Kasarvadavali, Thane - MPCB",14-01-2026 16:00:00,19.26777,72.97182,NO2,28,119,66
India,Odisha,Bhubaneswar,"Lingraj Mandir, Bhubaneswar - OSPCB",14-01-2026 16:00:00,20.240790,85.836784,PM10,105,301,153
India,Odisha,Bhubaneswar,"Lingraj Mandir, Bhubaneswar - OSPCB",14-01-2026 16:00:00,20.240790,85.836784,SO2,4,101,18
India,Odisha,Bileipada,"Tata Township, Bileipada - OSPCB",14-01-2026 16:00:00,22.06156703,85.47409613,PM10,NA,NA,NA
India,Odisha,Bileipada,"Tata Township, Bileipada - OSPCB",14-01-2026 16:00:00,22.06156703,85.47409613,NO2,NA,NA,NA
India,Odisha,Brajrajnagar,"GM Office, Brajrajnagar - OSPCB",14-01-2026 16:00:00,21.8004996,83.8396977,PM2.5,6,335,113
India,Odisha,Brajrajnagar,"GM Office, Brajrajnagar - OSPCB",14-01-2026 16:00:00,21.8004996,83.8396977,NO2,14,14,14
India,Odisha,Brajrajnagar,"GM Office, Brajrajnagar - OSPCB",14-01-2026 16:00:00,21.8004996,83.8396977,NH3,10,10,10
India,Punjab,Mandi Gobindgarh,"RIMT University, Mandi Gobindgarh - PPCB",14-01-2026 16:00:00,30.649961,76.331442,PM2.5,60,446,317
India,Punjab,Mandi Gobindgarh,"RIMT University, Mandi Gobindgarh - PPCB",14-01-2026 16:00:00,30.649961,76.331442,PM10,78,470,304
India,Punjab,Mandi Gobindgarh,"RIMT University, Mandi Gobindgarh - PPCB",14-01-2026 16:00:00,30.649961,76.331442,OZONE,30,35,34
India,Rajasthan,Ajmer,"Civil Lines,  Ajmer - RSPCB",14-01-2026 16:00:00,26.470859,74.646594,PM10,72,215,136
India,Rajasthan,Alwar,"Moti Doongri, Alwar - RSPCB",14-01-2026 16:00:00,27.554793,76.611536,NO2,42,69,49
India,Maharashtra,Pune,"Katraj Dairy, Pune - MPCB",14-01-2026 16:00:00,18.454450,73.854155,PM2.5,40,58,44
India,Maharashtra,Pune,"Katraj Dairy, Pune - MPCB",14-01-2026 16:00:00,18.454450,73.854155,SO2,2,3,3
India,Maharashtra,Pune,"Katraj Dairy, Pune - MPCB",14-01-2026 16:00:00,18.454450,73.854155,CO,56,108,78
India,Maharashtra,Pune,"Panchawati_Pashan, Pune - IITM",14-01-2026 16:00:00,18.536457,73.805454,PM10,51,103,79
India,Maharashtra,Pune,"Revenue Colony-Shivajinagar, Pune - IITM",14-01-2026 16:00:00,18.530085,73.849598,PM10,68,183,134
India,Maharashtra,Pune,"Revenue Colony-Shivajinagar, Pune - IITM",14-01-2026 16:00:00,18.530085,73.849598,CO,44,135,71
India,Nagaland,Kohima,"PWD Junction, Kohima - NPCB",14-01-2026 16:00:00,25.6635413,94.0989878,NO2,3,4,4
India,Odisha,Barbil,"Forest Office, Barbil - OSPCB",14-01-2026 16:00:00,22.1166054,85.3945546,PM10,25,266,122
India,Odisha,Barbil,"Forest Office, Barbil - OSPCB",14-01-2026 16:00:00,22.1166054,85.3945546,NO2,16,63,33
India,Odisha,Baripada,"Meher Colony, Baripada - OSPCB",14-01-2026 16:00:00,21.941841,86.728318,NO2,10,83,34
India,Odisha,Baripada,"Meher Colony, Baripada - OSPCB",14-01-2026 16:00:00,21.941841,86.728318,SO2,2,21,11
India,Odisha,Rourkela,"Sector-2, Rourkela - OSPCB",14-01-2026 16:00:00,22.24500000,84.88111111,PM10,68,120,102
India,Odisha,Suakati,"OMC Colony, Suakati - OSPCB",14-01-2026 16:00:00,21.606865,85.510538,NH3,6,6,6
India,Puducherry,Puducherry,"Jawahar Nagar, Puducherry - PPCC",14-01-2026 16:00:00,11.9309,79.8027,NO2,15,61,32
India,Puducherry,Puducherry,"Jawahar Nagar, Puducherry - PPCC",14-01-2026 16:00:00,11.9309,79.8027,SO2,3,10,8
India,Odisha,Rairangpur,"Divisional Forest Office, Rairangpur - OSPCB",14-01-2026 16:00:00,22.265816,86.174829,NH3,1,1,1
India,Rajasthan,Jalore,"Mudtra Sili, Jalore - RSPCB",14-01-2026 16:00:00,25.344694,72.626208,PM10,56,402,163
India,Rajasthan,Jalore,"Mudtra Sili, Jalore - RSPCB",14-01-2026 16:00:00,25.344694,72.626208,SO2,3,11,7
India,Rajasthan,Jhalawar,"Rajlaxmi Nagar, Jhalawar - RSPCB",14-01-2026 16:00:00,24.588397,76.172782,PM2.5,52,320,144
India,Rajasthan,Jhalawar,"Rajlaxmi Nagar, Jhalawar - RSPCB",14-01-2026 16:00:00,24.588397,76.172782,OZONE,1,161,161
India,Rajasthan,Jhunjhunu,"Indra Nagar, Jhunjhunu - RSPCB",14-01-2026 16:00:00,28.108988,75.386577,NH3,6,14,10
India,Rajasthan,Jhunjhunu,"Indra Nagar, Jhunjhunu - RSPCB",14-01-2026 16:00:00,28.108988,75.386577,SO2,4,14,7
India,Rajasthan,Jodhpur,"Digari Kalan, Jodhpur - RSPCB",14-01-2026 16:00:00,26.295810,73.082283,NO2,19,103,45
India,Rajasthan,Jaipur,"Police Commissionerate, Jaipur - RSPCB",14-01-2026 16:00:00,26.9164092,75.7994901,PM10,58,227,138
India,Rajasthan,Jaipur,"RIICO Sitapura, Jaipur - RSPCB",14-01-2026 16:00:00,26.786682,75.827928,PM2.5,83,401,257
India,Rajasthan,Jaipur,"RIICO Sitapura, Jaipur - RSPCB",14-01-2026 16:00:00,26.786682,75.827928,PM10,83,407,197
India,Rajasthan,Jaipur,"Sector-2 Murlipura, Jaipur - RSPCB",14-01-2026 16:00:00,26.960669,75.771817,NO2,34,138,62
India,Rajasthan,Jaipur,"Sector-2 Murlipura, Jaipur - RSPCB",14-01-2026 16:00:00,26.960669,75.771817,CO,13,126,32
India,Rajasthan,Jaisalmer,"Sadar Bazar, Jaisalmer - RSPCB",14-01-2026 16:00:00,26.912329,70.909168,OZONE,3,102,80
India,Rajasthan,Dholpur,"Raja Ganj, Dholpur - RSPCB",14-01-2026 16:00:00,26.699557,77.898881,PM2.5,50,315,168
India,Rajasthan,Dholpur,"Raja Ganj, Dholpur - RSPCB",14-01-2026 16:00:00,26.699557,77.898881,NO2,30,102,56
India,Rajasthan,Hanumangarh,"Housing Board, Hanumangarh - RSPCB",14-01-2026 16:00:00,29.610750,74.283608,PM2.5,40,364,208
India,Rajasthan,Hanumangarh,"Housing Board, Hanumangarh - RSPCB",14-01-2026 16:00:00,29.610750,74.283608,SO2,1,10,5
India,Rajasthan,Jaipur,"Adarsh Nagar, Jaipur - RSPCB",14-01-2026 16:00:00,26.902909,75.836858,OZONE,3,53,41
India,Rajasthan,Jaipur,"Mansarovar Sector-12, Jaipur - RSPCB",14-01-2026 16:00:00,26.843698,75.766894,NO2,10,75,43
India,Rajasthan,Alwar,"Moti Doongri, Alwar - RSPCB",14-01-2026 16:00:00,27.554793,76.611536,NH3,7,12,9
India,Rajasthan,Banswara,"Rati Talai, Banswara - RSPCB",14-01-2026 16:00:00,23.555190,74.440010,PM2.5,60,293,98
India,Rajasthan,Banswara,"Rati Talai, Banswara - RSPCB",14-01-2026 16:00:00,23.555190,74.440010,CO,6,102,15
India,Rajasthan,Baran,"Bamboliya, Baran - RSPCB",14-01-2026 16:00:00,25.106006,76.469948,CO,16,42,24
India,Rajasthan,Baran,"Bamboliya, Baran - RSPCB",14-01-2026 16:00:00,25.106006,76.469948,OZONE,10,96,74
India,Rajasthan,Barmer,"Railway Colony, Barmer - RSPCB",14-01-2026 16:00:00,25.747299,71.393989,OZONE,7,128,106
India,Rajasthan,Bikaner,"MM Ground, Bikaner - RSPCB",14-01-2026 16:00:00,28.018792,73.292658,SO2,8,22,14
India,Rajasthan,Bundi,"New Colony, Bundi - RSPCB",14-01-2026 16:00:00,25.435774,75.644272,PM10,66,149,100
India,Rajasthan,Bundi,"New Colony, Bundi - RSPCB",14-01-2026 16:00:00,25.435774,75.644272,NO2,19,108,39
India,Rajasthan,Bundi,"New Colony, Bundi - RSPCB",14-01-2026 16:00:00,25.435774,75.644272,NH3,2,26,7
India,Rajasthan,Bundi,"New Colony, Bundi - RSPCB",14-01-2026 16:00:00,25.435774,75.644272,SO2,3,16,9
India,Rajasthan,Chittorgarh,"Shastri Nagar, Chittorgarh - RSPCB",14-01-2026 16:00:00,24.892047,74.623527,PM10,92,344,159
India,Rajasthan,Bhilwara,"Pratap Nagar, Bhilwara - RSPCB",14-01-2026 16:00:00,25.339605,74.618883,OZONE,4,62,46
India,Rajasthan,Bhiwadi,"RIICO Ind. Area III, Bhiwadi - RSPCB",14-01-2026 16:00:00,28.194909,76.862296,PM2.5,196,358,312
India,Rajasthan,Bhiwadi,"RIICO Ind. Area III, Bhiwadi - RSPCB",14-01-2026 16:00:00,28.194909,76.862296,SO2,5,31,18
India,Rajasthan,Bhiwadi,"RIICO Ind. Area III, Bhiwadi - RSPCB",14-01-2026 16:00:00,28.194909,76.862296,OZONE,3,47,28
India,Rajasthan,Bhiwadi,"Vasundhara Nagar_UIT, Bhiwadi - RSPCB",14-01-2026 16:00:00,28.207266,76.829265,PM10,123,437,264
India,Rajasthan,Jodhpur,"Digari Kalan, Jodhpur - RSPCB",14-01-2026 16:00:00,26.295810,73.082283,CO,16,114,46
India,Rajasthan,Jodhpur,"Jhalamand, Jodhpur - RSPCB",14-01-2026 16:00:00,26.215415,73.070156,NH3,5,20,12
India,Rajasthan,Jodhpur,"Mandor, Jodhpur - RSPCB",14-01-2026 16:00:00,26.358805,73.047444,PM2.5,53,217,112
India,Rajasthan,Jodhpur,"Mandor, Jodhpur - RSPCB",14-01-2026 16:00:00,26.358805,73.047444,NH3,3,6,4
India,Rajasthan,Karauli,"Satyawati Vihar, Karauli - RSPCB",14-01-2026 16:00:00,26.506177,77.025989,NO2,26,102,44
India,Rajasthan,Kota,"Dhanmandi, Kota - RSPCB",14-01-2026 16:00:00,25.164090,75.858137,SO2,2,58,18
India,Rajasthan,Kota,"Nayapura, Kota - RSPCB",14-01-2026 16:00:00,25.196024,75.855668,PM10,116,325,182
India,Rajasthan,Pali,"Indira Colony Vistar, Pali - RSPCB",14-01-2026 16:00:00,25.771061, 73.340227,PM10,113,320,164
India,Rajasthan,Pali,"Indira Colony Vistar, Pali - RSPCB",14-01-2026 16:00:00,25.771061, 73.340227,NH3,4,26,12
India,Rajasthan,Pali,"Indira Colony Vistar, Pali - RSPCB",14-01-2026 16:00:00,25.771061, 73.340227,OZONE,3,43,23
India,Rajasthan,Churu,"Subash Chowk, Churu - RSPCB",14-01-2026 16:00:00,28.296139,74.961696,PM2.5,78,410,210
India,Rajasthan,Churu,"Subash Chowk, Churu - RSPCB",14-01-2026 16:00:00,28.296139,74.961696,OZONE,8,161,156
India,Rajasthan,Dausa,"Khatikan Mohalla, Dausa - RSPCB",14-01-2026 16:00:00,26.895552,76.334753,NO2,17,113,51
India,Rajasthan,Sri Ganganagar,"Old City, Sri Ganganagar - RSPCB",14-01-2026 16:00:00,29.931624,73.864511,PM10,105,417,211
India,Rajasthan,Tonk,"Shastri Nagar, Tonk - RSPCB",14-01-2026 16:00:00,26.159933,75.780517,PM2.5,187,450,302
India,Rajasthan,Udaipur,"Ashok Nagar, Udaipur - RSPCB",14-01-2026 16:00:00,24.5886166,73.6321397,PM2.5,27,317,155
India,Rajasthan,Udaipur,"Ashok Nagar, Udaipur - RSPCB",14-01-2026 16:00:00,24.5886166,73.6321397,PM10,52,208,127
India,Rajasthan,Udaipur,"Ashok Nagar, Udaipur - RSPCB",14-01-2026 16:00:00,24.5886166,73.6321397,NO2,23,49,38
India,Rajasthan,Udaipur,"Ashok Nagar, Udaipur - RSPCB",14-01-2026 16:00:00,24.5886166,73.6321397,NH3,4,7,6
India,TamilNadu,Chennai,"Arumbakkam, Chennai - TNPCB",14-01-2026 16:00:00,13.0664,80.2112 ,PM2.5,60,500,167
India,TamilNadu,Chennai,"Arumbakkam, Chennai - TNPCB",14-01-2026 16:00:00,13.0664,80.2112 ,PM10,77,484,172
India,TamilNadu,Gummidipoondi,"Anthoni Pillai Nagar, Gummidipoondi - TNPCB",14-01-2026 16:00:00,13.4127,80.1081,NO2,1,9,4
India,TamilNadu,Gummidipoondi,"Anthoni Pillai Nagar, Gummidipoondi - TNPCB",14-01-2026 16:00:00,13.4127,80.1081,NH3,1,2,1
India,TamilNadu,Gummidipoondi,"Anthoni Pillai Nagar, Gummidipoondi - TNPCB",14-01-2026 16:00:00,13.4127,80.1081,SO2,2,112,49
India,TamilNadu,Karur,"Kamadenu Nagar, Karur - TNPCB",14-01-2026 16:00:00,10.967820,78.080882,SO2,14,15,15
India,TamilNadu,Karur,"Kamadenu Nagar, Karur - TNPCB",14-01-2026 16:00:00,10.967820,78.080882,OZONE,6,9,7
India,TamilNadu,Madurai,"Uchapatti, Madurai - TNPCB",14-01-2026 16:00:00,9.865935,78.022669,CO,18,25,21
India,TamilNadu,Nagapattinam,"Velippalayam, Nagapattinam - TNPCB",14-01-2026 16:00:00,10.798548,79.838212,PM2.5,NA,NA,NA
India,TamilNadu,Chennai,"Royapuram, Chennai - TNPCB",14-01-2026 16:00:00,13.1036,80.2909,PM2.5,20,404,120
India,TamilNadu,Chennai,"Velachery Res. Area, Chennai - CPCB",14-01-2026 16:00:00,13.0052189,80.2398125,PM10,54,401,103
India,TamilNadu,Coimbatore,"PSG College of Arts and Science, Coimbatore - TNPCB",14-01-2026 16:00:00,11.0328,77.0349,NO2,10,11,11
India,TamilNadu,Coimbatore,"SIDCO Kurichi, Coimbatore - TNPCB",14-01-2026 16:00:00,10.942451,76.978996,NO2,3,43,22
India,TamilNadu,Cuddalore,"Kudikadu, Cuddalore - TNPCB",14-01-2026 16:00:00,11.6829898,79.7532099,PM2.5,40,283,92
India,TamilNadu,Ramanathapuram,"Chalai Bazaar, Ramanathapuram - TNPCB",14-01-2026 16:00:00,9.36399,78.831977,PM10,22,56,47
India,TamilNadu,Thanjavur,"Parisutham Nagar, Thanjavur - TNPCB",14-01-2026 16:00:00,10.7654824,79.1389968,PM2.5,30,66,50
India,TamilNadu,Thanjavur,"Parisutham Nagar, Thanjavur - TNPCB",14-01-2026 16:00:00,10.7654824,79.1389968,NH3,1,1,1
India,TamilNadu,Thanjavur,"Parisutham Nagar, Thanjavur - TNPCB",14-01-2026 16:00:00,10.7654824,79.1389968,SO2,16,17,17
India,Telangana,Hyderabad,"Bollaram Industrial Area, Hyderabad - TSPCB",14-01-2026 16:00:00,17.540891,78.358528,PM2.5,62,184,127
India,Telangana,Hyderabad,"Bollaram Industrial Area, Hyderabad - TSPCB",14-01-2026 16:00:00,17.540891,78.358528,NO2,19,60,38
India,Rajasthan,Pratapgarh,"Pragati Nagar, Pratapgarh - RSPCB",14-01-2026 16:00:00,24.041198,74.780702,SO2,2,13,5
India,Rajasthan,Rajsamand,"Dhoinda, Rajsamand - RSPCB",14-01-2026 16:00:00,25.036360,73.883502,OZONE,6,140,101
India,Rajasthan,Sikar,"Radhakishan Pura, Sikar - RSPCB",14-01-2026 16:00:00,27.608912,75.153302,SO2,2,11,5
India,Rajasthan,Sirohi,"Vedhaynath Colony, Sirohi - RSPCB",14-01-2026 16:00:00,24.885261,72.857549,CO,22,70,32
India,TamilNadu,Chennai,"Gandhi Nagar_Ennore, Chennai - TNPCB",14-01-2026 16:00:00,13.218341,80.32027,PM2.5,43,163,82
India,TamilNadu,Chennai,"Gandhi Nagar_Ennore, Chennai - TNPCB",14-01-2026 16:00:00,13.218341,80.32027,PM10,50,114,77
India,TamilNadu,Chennai,"Manali, Chennai - CPCB",14-01-2026 16:00:00,13.164544,80.26285,PM2.5,3,438,180
India,TamilNadu,Chennai,"Manali, Chennai - CPCB",14-01-2026 16:00:00,13.164544,80.26285,OZONE,10,23,16
India,Telangana,Hyderabad,"Central University, Hyderabad - TSPCB",14-01-2026 16:00:00,17.460103,78.334361,SO2,8,15,10
India,Telangana,Hyderabad,"Central University, Hyderabad - TSPCB",14-01-2026 16:00:00,17.460103,78.334361,OZONE,13,16,14
India,Telangana,Hyderabad,"ECIL Kapra, Hyderabad - TSPCB",14-01-2026 16:00:00,17.470431,78.566959,PM10,53,90,73
India,Telangana,Hyderabad,"ECIL Kapra, Hyderabad - TSPCB",14-01-2026 16:00:00,17.470431,78.566959,NO2,15,40,19
India,TamilNadu,Ooty,"Bombay Castel, Ooty - TNPCB",14-01-2026 16:00:00,11.4068288,76.7138973,NO2,3,5,4
India,TamilNadu,Ooty,"Bombay Castel, Ooty - TNPCB",14-01-2026 16:00:00,11.4068288,76.7138973,SO2,8,14,12
India,Telangana,Hyderabad,"ICRISAT Patancheru, Hyderabad - TSPCB",14-01-2026 16:00:00,17.518400,78.278777,SO2,3,13,8
India,Uttar_Pradesh,Bareilly,"Rajendra Nagar, Bareilly - UPPCB",14-01-2026 16:00:00,28.38910936,79.42963708,SO2,37,38,37
India,Uttar_Pradesh,Bulandshahr,"Yamunapuram, Bulandshahr - UPPCB",14-01-2026 16:00:00,28.406963,77.849831,PM10,146,308,207
India,Uttar_Pradesh,Bulandshahr,"Yamunapuram, Bulandshahr - UPPCB",14-01-2026 16:00:00,28.406963,77.849831,NH3,8,13,11
India,Uttar_Pradesh,Firozabad,"Nagla Bhau, Firozabad - UPPCB",14-01-2026 16:00:00,27.168897,78.376960,SO2,1,102,69
India,Uttar_Pradesh,Firozabad,"Vibhab Nagar, Firozabad - UPPCB",14-01-2026 16:00:00,27.1594,78.3953,PM2.5,39,219,92
India,Uttar_Pradesh,Firozabad,"Vibhab Nagar, Firozabad - UPPCB",14-01-2026 16:00:00,27.1594,78.3953,PM10,34,127,75
India,Uttar_Pradesh,Firozabad,"Vibhab Nagar, Firozabad - UPPCB",14-01-2026 16:00:00,27.1594,78.3953,CO,18,22,20
India,Uttar_Pradesh,Ghaziabad,"Indirapuram, Ghaziabad - UPPCB",14-01-2026 16:00:00,28.646233,77.358075,PM2.5,138,369,300
India,Uttar_Pradesh,Ghaziabad,"Indirapuram, Ghaziabad - UPPCB",14-01-2026 16:00:00,28.646233,77.358075,CO,40,117,78
India,Uttar_Pradesh,Ghaziabad,"Indirapuram, Ghaziabad - UPPCB",14-01-2026 16:00:00,28.646233,77.358075,OZONE,8,37,21
India,Uttar_Pradesh,Ghaziabad,"Sanjay Nagar, Ghaziabad - UPPCB",14-01-2026 16:00:00,28.685382,77.453839,PM10,150,342,246
India,Uttar_Pradesh,Ghaziabad,"Vasundhara, Ghaziabad - UPPCB",14-01-2026 16:00:00,28.6603346,77.3572563,PM2.5,221,488,405
India,Uttar_Pradesh,Gorakhpur,"Madan Mohan Malaviya University of Technology, Gorakhpur - UPPCB",14-01-2026 16:00:00,26.730136,83.433859,PM2.5,53,87,70
India,Uttar_Pradesh,Greater Noida,"Knowledge Park - III, Greater Noida - UPPCB",14-01-2026 16:00:00,28.47272,77.482000,NH3,NA,NA,NA
India,Uttar_Pradesh,Agra,"Shahjahan Garden, Agra - UPPCB",14-01-2026 16:00:00,27.169338,78.03582,PM2.5,20,319,114
India,Uttar_Pradesh,Agra,"Shahjahan Garden, Agra - UPPCB",14-01-2026 16:00:00,27.169338,78.03582,CO,1,90,7
India,Uttar_Pradesh,Agra,"Shastripuram, Agra - UPPCB",14-01-2026 16:00:00,27.19862,77.92066,SO2,14,22,18
India,Uttar_Pradesh,Baghpat,"Sardar Patel Inter College, Baghpat - UPPCB",14-01-2026 16:00:00,28.964949,77.278761,PM2.5,161,381,315
India,Uttar_Pradesh,Baghpat,"Sardar Patel Inter College, Baghpat - UPPCB",14-01-2026 16:00:00,28.964949,77.278761,PM10,109,229,167
India,Uttar_Pradesh,Baghpat,"Sardar Patel Inter College, Baghpat - UPPCB",14-01-2026 16:00:00,28.964949,77.278761,OZONE,1,62,30
India,Telangana,Hyderabad,"Nacharam_TSIIC IALA, Hyderabad - TSPCB",14-01-2026 16:00:00,17.429398,78.569354,SO2,16,17,16
India,Telangana,Hyderabad,"Nacharam_TSIIC IALA, Hyderabad - TSPCB",14-01-2026 16:00:00,17.429398,78.569354,CO,32,42,39
India,Telangana,Hyderabad,"New Malakpet, Hyderabad - TSPCB",14-01-2026 16:00:00,17.37206,78.50864,PM10,82,97,88
India,Telangana,Hyderabad,"New Malakpet, Hyderabad - TSPCB",14-01-2026 16:00:00,17.37206,78.50864,SO2,13,20,15
India,Telangana,Hyderabad,"Somajiguda, Hyderabad - TSPCB",14-01-2026 16:00:00,17.417094,78.457437,NH3,3,4,3
India,Telangana,Hyderabad,"Zoo Park, Hyderabad - TSPCB",14-01-2026 16:00:00,17.349694,78.451437,NO2,9,23,14
India,Telangana,Hyderabad,"IDA Pashamylaram, Hyderabad - TSPCB",14-01-2026 16:00:00,17.5316895,78.218939,NH3,2,2,2
India,Telangana,Hyderabad,"IDA Pashamylaram, Hyderabad - TSPCB",14-01-2026 16:00:00,17.5316895,78.218939,CO,36,60,44
India,Telangana,Hyderabad,"IITH Kandi, Hyderabad - TSPCB",14-01-2026 16:00:00,17.585705,78.126199,PM10,68,88,77
India,Telangana,Hyderabad,"IITH Kandi, Hyderabad - TSPCB",14-01-2026 16:00:00,17.585705,78.126199,NH3,3,4,3
India,Telangana,Hyderabad,"Nacharam_TSIIC IALA, Hyderabad - TSPCB",14-01-2026 16:00:00,17.429398,78.569354,NO2,16,17,16
India,Uttar_Pradesh,Agra,"Rohta, Agra - UPPCB",14-01-2026 16:00:00,27.106972,78.000111,PM2.5,65,366,190
India,Uttar_Pradesh,Agra,"Sanjay Palace, Agra - UPPCB",14-01-2026 16:00:00,27.19865833,78.00598056,PM2.5,87,500,274
India,Uttar_Pradesh,Agra,"Sanjay Palace, Agra - UPPCB",14-01-2026 16:00:00,27.19865833,78.00598056,SO2,17,20,19
India,Uttar_Pradesh,Agra,"Sector-3B Avas Vikas Colony, Agra - UPPCB",14-01-2026 16:00:00,27.19412,77.96237,NO2,32,34,33
India,Uttar_Pradesh,Jhansi,"Shivaji Nagar, Jhansi - UPPCB",14-01-2026 16:00:00,25.4547,78.6039,OZONE,1,48,12
India,Uttar_Pradesh,Kanpur,"NSI Kalyanpur, Kanpur - UPPCB",14-01-2026 16:00:00,26.509954,80.249612,PM10,78,189,126
India,Uttar_Pradesh,Greater Noida,"Knowledge Park - V, Greater Noida - UPPCB",14-01-2026 16:00:00,28.557054,77.453663,SO2,11,25,15
India,Telangana,Hyderabad,"IDA Pashamylaram, Hyderabad - TSPCB",14-01-2026 16:00:00,17.5316895,78.218939,PM2.5,37,103,65
India,Uttar_Pradesh,Prayagraj,"Motilal Nehru NIT, Prayagraj - UPPCB",14-01-2026 16:00:00,25.494,81.863,NH3,7,8,8
India,Uttar_Pradesh,Prayagraj,"Motilal Nehru NIT, Prayagraj - UPPCB",14-01-2026 16:00:00,25.494,81.863,CO,19,42,24
India,Uttar_Pradesh,Prayagraj,"Nagar Nigam, Prayagraj - UPPCB",14-01-2026 16:00:00,25.44919916 ,81.82735986 ,NO2,5,5,5
India,Uttar_Pradesh,Prayagraj,"Nagar Nigam, Prayagraj - UPPCB",14-01-2026 16:00:00,25.44919916 ,81.82735986 ,NH3,7,12,9
India,Uttar_Pradesh,Prayagraj,"Nagar Nigam, Prayagraj - UPPCB",14-01-2026 16:00:00,25.44919916 ,81.82735986 ,CO,28,68,37
India,Uttar_Pradesh,Varanasi,"Ardhali Bazar, Varanasi - UPPCB",14-01-2026 16:00:00,25.3505986,82.9083074,SO2,10,12,11
India,Uttar_Pradesh,Varanasi,"Ardhali Bazar, Varanasi - UPPCB",14-01-2026 16:00:00,25.3505986,82.9083074,CO,12,18,14
India,Uttar_Pradesh,Varanasi,"Bhelupur, Varanasi - UPPCB",14-01-2026 16:00:00,25.301778,82.996789,PM2.5,53,257,102
India,Uttar_Pradesh,Varanasi,"Bhelupur, Varanasi - UPPCB",14-01-2026 16:00:00,25.301778,82.996789,NH3,1,1,1
India,Uttar_Pradesh,Lucknow,"Talkatora District Industries Center, Lucknow - CPCB",14-01-2026 16:00:00,26.83399722,80.8917361,PM2.5,96,322,233
India,Uttar_Pradesh,Lucknow,"Talkatora District Industries Center, Lucknow - CPCB",14-01-2026 16:00:00,26.83399722,80.8917361,NO2,18,28,22
India,Uttar_Pradesh,Lucknow,"Talkatora District Industries Center, Lucknow - CPCB",14-01-2026 16:00:00,26.83399722,80.8917361,NH3,2,7,4
India,Uttar_Pradesh,Meerut,"Ganga Nagar, Meerut - UPPCB",14-01-2026 16:00:00,28.999264,77.7590354,PM2.5,78,291,183
India,Uttar_Pradesh,Meerut,"Ganga Nagar, Meerut - UPPCB",14-01-2026 16:00:00,28.999264,77.7590354,SO2,16,32,19
India,Uttar_Pradesh,Meerut,"Jai Bhim Nagar, Meerut - UPPCB",14-01-2026 16:00:00,28.9535882,77.7622941,PM2.5,181,389,321
India,Uttar_Pradesh,Meerut,"Pallavpuram Phase 2, Meerut - UPPCB",14-01-2026 16:00:00,29.063510,77.709723,PM2.5,190,417,305
India,Uttar_Pradesh,Lucknow,"B R Ambedkar University, Lucknow - UPPCB",14-01-2026 16:00:00,26.766433,80.927299,PM2.5,26,132,81
India,Uttar_Pradesh,Lucknow,"B R Ambedkar University, Lucknow - UPPCB",14-01-2026 16:00:00,26.766433,80.927299,NO2,4,5,5
India,Uttar_Pradesh,Lucknow,"B R Ambedkar University, Lucknow - UPPCB",14-01-2026 16:00:00,26.766433,80.927299,OZONE,17,85,70
India,Uttar_Pradesh,Lucknow,"Gomti Nagar, Lucknow - UPPCB",14-01-2026 16:00:00,26.868120,81.005119,CO,27,34,32
India,Uttar_Pradesh,Lucknow,"Kendriya Vidyalaya, Lucknow - CPCB",14-01-2026 16:00:00,26.906111,80.948222,PM10,81,211,173
India,Uttar_Pradesh,Lucknow,"Kendriya Vidyalaya, Lucknow - CPCB",14-01-2026 16:00:00,26.906111,80.948222,NO2,39,44,41
India,Uttar_Pradesh,Lucknow,"Lalbagh, Lucknow - CPCB",14-01-2026 16:00:00,26.8458805,80.9365541,PM10,12,500,342
India,Uttar_Pradesh,Noida,"Sector - 62, Noida - IMD",14-01-2026 16:00:00,28.6245479,77.3577104,NO2,23,53,30
India,Uttar_Pradesh,Noida,"Sector - 62, Noida - IMD",14-01-2026 16:00:00,28.6245479,77.3577104,OZONE,22,144,77
India,Uttar_Pradesh,Noida,"Sector-1, Noida - UPPCB",14-01-2026 16:00:00,28.5898,77.3101,CO,34,119,59
India,Uttar_Pradesh,Noida,"Sector-116, Noida - UPPCB",14-01-2026 16:00:00,28.569230,77.393848,OZONE,8,209,194
India,Uttar_Pradesh,Prayagraj,"Jhunsi, Prayagraj - UPPCB",14-01-2026 16:00:00,25.425602,81.917152,PM2.5,53,191,94
India,Uttar_Pradesh,Prayagraj,"Jhunsi, Prayagraj - UPPCB",14-01-2026 16:00:00,25.425602,81.917152,CO,8,62,22
India,Uttar_Pradesh,Moradabad,"Kashiram Nagar, Moradabad - UPPCB",14-01-2026 16:00:00,28.849399,78.742362,NH3,4,4,4
India,Uttar_Pradesh,Moradabad,"Transport Nagar, Moradabad - UPPCB",14-01-2026 16:00:00,28.802625,78.753728,NO2,29,30,30
India,Uttar_Pradesh,Muzaffarnagar,"New Mandi, Muzaffarnagar - UPPCB",14-01-2026 16:00:00,29.4723508,77.7194031,PM2.5,134,351,246
India,Uttar_Pradesh,Muzaffarnagar,"New Mandi, Muzaffarnagar - UPPCB",14-01-2026 16:00:00,29.4723508,77.7194031,CO,55,103,70
India,Uttar_Pradesh,Noida,"Sector - 125, Noida - UPPCB",14-01-2026 16:00:00,28.5447608,77.3231257,PM2.5,185,407,336
India,Uttar_Pradesh,Moradabad,"Eco Herbal Park, Moradabad - UPPCB",14-01-2026 16:00:00,28.840739,78.697531,NH3,6,8,7
India,Uttar_Pradesh,Moradabad,"Eco Herbal Park, Moradabad - UPPCB",14-01-2026 16:00:00,28.840739,78.697531,CO,36,104,97
India,Uttar_Pradesh,Moradabad,"Eco Herbal Park, Moradabad - UPPCB",14-01-2026 16:00:00,28.840739,78.697531,OZONE,13,74,41
India,Uttar_Pradesh,Moradabad,"Employment Office, Moradabad - UPPCB",14-01-2026 16:00:00,28.88528,78.73880,PM10,87,155,113
India,Uttar_Pradesh,Varanasi,"Bhelupur, Varanasi - UPPCB",14-01-2026 16:00:00,25.301778,82.996789,OZONE,1,3,1
India,Uttar_Pradesh,Varanasi,"IESD Banaras Hindu University, Varanasi - UPPCB",14-01-2026 16:00:00,25.262326,82.995408,PM10,51,169,100
India,Uttar_Pradesh,Varanasi,"IESD Banaras Hindu University, Varanasi - UPPCB",14-01-2026 16:00:00,25.262326,82.995408,NH3,1,4,2
India,Uttar_Pradesh,Varanasi,"IESD Banaras Hindu University, Varanasi - UPPCB",14-01-2026 16:00:00,25.262326,82.995408,CO,9,37,10
India,Uttar_Pradesh,Kanpur,"NSI Kalyanpur, Kanpur - UPPCB",14-01-2026 16:00:00,26.509954,80.249612,SO2,21,23,21
India,Uttar_Pradesh,Kanpur,"Nehru Nagar, Kanpur - UPPCB",14-01-2026 16:00:00,26.4703136,80.3229863,CO,47,74,63
India,Uttar_Pradesh,Khurja,"Kalindi Kunj, Khurja - UPPCB",14-01-2026 16:00:00,28.2348927,77.8683002,PM2.5,82,331,215
India,Uttar_Pradesh,Vrindavan,"Omex Eternity, Vrindavan - UPPCB",14-01-2026 16:00:00,27.5714090,77.6557570,PM10,21,136,65
India,West_Bengal,Howrah,"Belur Math, Howrah - WBPCB",14-01-2026 16:00:00,22.629801,88.352017,OZONE,13,49,38
India,West_Bengal,Howrah,"Botanical Garden, Howrah - WBPCB",14-01-2026 16:00:00,22.554954,88.292568,PM2.5,68,227,139
India,West_Bengal,Howrah,"Botanical Garden, Howrah - WBPCB",14-01-2026 16:00:00,22.554954,88.292568,SO2,2,11,5
India,West_Bengal,Howrah,"Dasnagar, Howrah - WBPCB",14-01-2026 16:00:00,22.6025571,88.3105664,PM10,72,132,106
India,West_Bengal,Howrah,"Dasnagar, Howrah - WBPCB",14-01-2026 16:00:00,22.6025571,88.3105664,NO2,24,101,55
India,West_Bengal,Howrah,"Ghusuri, Howrah - WBPCB",14-01-2026 16:00:00,22.611968,88.347422,NO2,21,38,26
India,West_Bengal,Howrah,"Ghusuri, Howrah - WBPCB",14-01-2026 16:00:00,22.611968,88.347422,NH3,7,15,11
India,West_Bengal,Howrah,"Ghusuri, Howrah - WBPCB",14-01-2026 16:00:00,22.611968,88.347422,CO,36,113,72
India,West_Bengal,Asansol,"Evelyn Lodge, Asansol - WBPCB",14-01-2026 16:00:00,23.6979360,86.9443950,PM2.5,43,230,151
India,West_Bengal,Asansol,"Evelyn Lodge, Asansol - WBPCB",14-01-2026 16:00:00,23.6979360,86.9443950,NO2,8,57,24
India,West_Bengal,Asansol,"Mahabir Colliery, Asansol - WBPCB",14-01-2026 16:00:00,23.6181830,87.1057180,PM10,53,151,124
India,West_Bengal,Asansol,"Mahabir Colliery, Asansol - WBPCB",14-01-2026 16:00:00,23.6181830,87.1057180,OZONE,7,47,36
India,West_Bengal,Asansol,"Trivenidevi Bhalotia College, Asansol - WBPCB",14-01-2026 16:00:00,23.616515,87.119133,CO,42,82,60
India,West_Bengal,Barrackpore,"SVSPA Campus, Barrackpore - WBPCB",14-01-2026 16:00:00,22.7605581,88.3617589,NO2,18,60,33
India,West_Bengal,Durgapur,"PCBL Residential Complex, Durgapur - WBPCB",14-01-2026 16:00:00,23.5087640,87.3544400,PM2.5,51,165,105
India,West_Bengal,Durgapur,"Womens College_City Center, Durgapur - WBPCB",14-01-2026 16:00:00,23.549395,87.300496,PM10,100,169,133
India,West_Bengal,Durgapur,"Womens College_City Center, Durgapur - WBPCB",14-01-2026 16:00:00,23.549395,87.300496,NO2,29,36,31
India,West_Bengal,Howrah,"Padmapukur, Howrah - WBPCB",14-01-2026 16:00:00,22.5687319,88.2797276,NH3,3,11,7
India,West_Bengal,Kolkata,"Ballygunge, Kolkata - WBPCB",14-01-2026 16:00:00,22.5367507,88.3638022,PM2.5,104,320,225
India,West_Bengal,Kolkata,"Ballygunge, Kolkata - WBPCB",14-01-2026 16:00:00,22.5367507,88.3638022,OZONE,4,30,22
India,West_Bengal,Barrackpore,"SVSPA Campus, Barrackpore - WBPCB",14-01-2026 16:00:00,22.7605581,88.3617589,CO,46,90,72
India,West_Bengal,Durgapur,"Mahishkapur Road_B-Zone, Durgapur - WBPCB",14-01-2026 16:00:00,23.567923,87.306843,NO2,NA,NA,NA
India,West_Bengal,Durgapur,"Mahishkapur Road_B-Zone, Durgapur - WBPCB",14-01-2026 16:00:00,23.567923,87.306843,NH3,NA,NA,NA
India,Uttar_Pradesh,Vrindavan,"Omex Eternity, Vrindavan - UPPCB",14-01-2026 16:00:00,27.5714090,77.6557570,NH3,7,9,8
India,Uttar_Pradesh,Vrindavan,"Omex Eternity, Vrindavan - UPPCB",14-01-2026 16:00:00,27.5714090,77.6557570,SO2,18,24,19
India,Uttar_Pradesh,Vrindavan,"Omex Eternity, Vrindavan - UPPCB",14-01-2026 16:00:00,27.5714090,77.6557570,CO,26,98,43
India,Uttar_Pradesh,Vrindavan,"Omex Eternity, Vrindavan - UPPCB",14-01-2026 16:00:00,27.5714090,77.6557570,OZONE,15,15,15
India,Uttarakhand,Rishikesh,"Shivaji Nagar, Rishikesh - UKPCB",14-01-2026 16:00:00,30.075911,78.2859547,SO2,NA,NA,NA
India,Uttarakhand,Rishikesh,"Shivaji Nagar, Rishikesh - UKPCB",14-01-2026 16:00:00,30.075911,78.2859547,OZONE,NA,NA,NA
India,West_Bengal,Asansol,"Asansol Court Area, Asansol - WBPCB",14-01-2026 16:00:00,23.685297,86.945968,SO2,14,42,23
India,Uttarakhand,Kashipur,"Govt. Girls Inter College, Kashipur - UKPCB",14-01-2026 16:00:00,29.2124114,78.9611753,PM10,90,140,113
India,Uttarakhand,Dehradun,"Doon University, Dehradun - UKPCB",14-01-2026 16:00:00,30.269444,78.044167,PM10,94,154,121
India,West_Bengal,Kolkata,"Fort William, Kolkata - WBPCB",14-01-2026 16:00:00,22.556640,88.342674,CO,32,106,48
India,West_Bengal,Kolkata,"Jadavpur, Kolkata - WBPCB",14-01-2026 16:00:00,22.49929,88.36917,PM2.5,57,117,77
India,West_Bengal,Kolkata,"Rabindra Bharati University, Kolkata - WBPCB",14-01-2026 16:00:00,22.627847,88.380669,PM10,110,271,158
India,West_Bengal,Kolkata,"Rabindra Bharati University, Kolkata - WBPCB",14-01-2026 16:00:00,22.627847,88.380669,NH3,12,13,12
India,West_Bengal,Kolkata,"Rabindra Bharati University, Kolkata - WBPCB",14-01-2026 16:00:00,22.627847,88.380669,SO2,5,10,8
India,West_Bengal,Kolkata,"Rabindra Bharati University, Kolkata - WBPCB",14-01-2026 16:00:00,22.627847,88.380669,CO,54,106,74
India,West_Bengal,Kolkata,"Rabindra Sarobar, Kolkata - WBPCB",14-01-2026 16:00:00,22.51106,88.35142,PM10,101,152,120
India,West_Bengal,Kolkata,"Rabindra Sarobar, Kolkata - WBPCB",14-01-2026 16:00:00,22.51106,88.35142,NO2,33,130,71
India,West_Bengal,Kolkata,"Victoria, Kolkata - WBPCB",14-01-2026 16:00:00,22.5448082,88.3403691,SO2,1,38,17
India,West_Bengal,Siliguri,"Ward-32 Bapupara, Siliguri - WBPCB",14-01-2026 16:00:00,26.6879226,88.4152495,OZONE,11,80,61
India,Bihar,Gaya,"SFTI Kusdihra, Gaya - BSPCB",14-01-2026 16:00:00,24.762518,84.982348,OZONE,10,55,37
India,Bihar,Katihar,"Mirchaibari, Katihar - BSPCB",14-01-2026 16:00:00,25.560083,87.553265,PM2.5,65,207,107
India,Bihar,Katihar,"Mirchaibari, Katihar - BSPCB",14-01-2026 16:00:00,25.560083,87.553265,NH3,1,1,1
India,Bihar,Kishanganj,"SDM Office_Khagra, Kishanganj - BSPCB",14-01-2026 16:00:00,26.0881305,87.93840336,NO2,9,13,11
India,Bihar,Kishanganj,"SDM Office_Khagra, Kishanganj - BSPCB",14-01-2026 16:00:00,26.0881305,87.93840336,OZONE,16,18,16
India,Bihar,Manguraha,"Forest Rest House, Manguraha - BSPCB",14-01-2026 16:00:00,27.308328,84.531742,PM2.5,7,160,78
India,Bihar,Manguraha,"Forest Rest House, Manguraha - BSPCB",14-01-2026 16:00:00,27.308328,84.531742,CO,32,34,32
India,Andhra_Pradesh,Rajamahendravaram,"Anand Kala Kshetram, Rajamahendravaram - APPCB",14-01-2026 16:00:00,16.9872867,81.7363176,CO,26,112,50
India,Andhra_Pradesh,Rajamahendravaram,"Anand Kala Kshetram, Rajamahendravaram - APPCB",14-01-2026 16:00:00,16.9872867,81.7363176,OZONE,5,26,17
India,Andhra_Pradesh,Tirupati,"Vaikuntapuram, Tirupati - APPCB",14-01-2026 16:00:00,13.615387,79.409230,SO2,16,22,18
India,Andhra_Pradesh,Vijayawada,"HB Colony, Vijayawada - APPCB",14-01-2026 16:00:00,16.536107,80.594233,OZONE,7,59,26
India,Andhra_Pradesh,Vijayawada,"Kanuru, Vijayawada - APPCB",14-01-2026 16:00:00,16.486692,80.699436,PM2.5,72,232,103
India,Andhra_Pradesh,Vijayawada,"Kanuru, Vijayawada - APPCB",14-01-2026 16:00:00,16.486692,80.699436,NO2,33,87,42
India,Bihar,Buxar,"Charitra Van, Buxar - BSPCB",14-01-2026 16:00:00,25.567520,83.966379,PM2.5,NA,NA,NA
India,Bihar,Buxar,"Charitra Van, Buxar - BSPCB",14-01-2026 16:00:00,25.567520,83.966379,SO2,NA,NA,NA
India,Bihar,Buxar,"Charitra Van, Buxar - BSPCB",14-01-2026 16:00:00,25.567520,83.966379,OZONE,25,80,53
India,Bihar,Gaya,"Collectorate, Gaya - BSPCB",14-01-2026 16:00:00,24.7955,84.9994,SO2,7,9,8
India,Bihar,Gaya,"Kareemganj, Gaya - BSPCB",14-01-2026 16:00:00,24.792403,84.992416,CO,25,40,34
India,Bihar,Gaya,"SFTI Kusdihra, Gaya - BSPCB",14-01-2026 16:00:00,24.762518,84.982348,NO2,18,23,21
India,Assam,Nalbari,"Bata Chowk, Nalbari - PCBA",14-01-2026 16:00:00,26.446912,91.439057,PM10,94,124,112
India,Assam,Nalbari,"Bata Chowk, Nalbari - PCBA",14-01-2026 16:00:00,26.446912,91.439057,CO,20,22,20
India,Assam,Nalbari,"Bata Chowk, Nalbari - PCBA",14-01-2026 16:00:00,26.446912,91.439057,OZONE,13,16,15
India,Assam,Silchar,"Tarapur, Silchar - PCBA",14-01-2026 16:00:00,24.82827,92.79525,NH3,1,2,1
India,Assam,Silchar,"Tarapur, Silchar - PCBA",14-01-2026 16:00:00,24.82827,92.79525,SO2,3,8,5
India,Assam,Sivasagar,"Girls College, Sivasagar - PCBA",14-01-2026 16:00:00,26.987634,94.636574,NH3,NA,NA,NA
India,Bihar,Begusarai,"Lohiyanagar, Begusarai - BSPCB",14-01-2026 16:00:00,25.42742023,86.13886079,CO,36,67,50
India,Bihar,Bettiah,"Kamalnath Nagar, Bettiah - BSPCB",14-01-2026 16:00:00,26.80365,84.51954,SO2,NA,NA,NA
India,Bihar,Bhagalpur,"DM Office_Kachari Chowk, Bhagalpur - BSPCB",14-01-2026 16:00:00,25.251013,86.989001,PM2.5,50,150,85
India,Bihar,Bhagalpur,"DM Office_Kachari Chowk, Bhagalpur - BSPCB",14-01-2026 16:00:00,25.251013,86.989001,OZONE,10,25,16
India,Bihar,Bhagalpur,"Mayaganj, Bhagalpur - BSPCB",14-01-2026 16:00:00,25.265194,87.012947,PM2.5,NA,NA,NA
India,Assam,Guwahati,"LGBI Airport, Guwahati - PCBA",14-01-2026 16:00:00,26.10887,91.589544,NH3,5,6,5
India,Assam,Guwahati,"LGBI Airport, Guwahati - PCBA",14-01-2026 16:00:00,26.10887,91.589544,SO2,6,21,11
India,Assam,Guwahati,"Pan Bazaar, Guwahati - PCBA",14-01-2026 16:00:00,26.187500,91.744194,OZONE,15,39,18
India,Assam,Guwahati,"Railway Colony, Guwahati - PCBA",14-01-2026 16:00:00,26.181742,91.78063,CO,38,130,90
India,Assam,Nagaon,"Christianpatty, Nagaon - PCBA",14-01-2026 16:00:00,26.349082,92.68449,NO2,1,1,1
India,Bihar,Arrah,"New DM Office, Arrah - BSPCB",14-01-2026 16:00:00,25.5626095,84.663264,NO2,6,9,7
India,Bihar,Arrah,"New DM Office, Arrah - BSPCB",14-01-2026 16:00:00,25.5626095,84.663264,SO2,10,10,10
India,Bihar,Arrah,"New DM Office, Arrah - BSPCB",14-01-2026 16:00:00,25.5626095,84.663264,OZONE,7,8,8
India,Bihar,Aurangabad,"Gurdeo Nagar, Aurangabad - BSPCB",14-01-2026 16:00:00,24.75746,84.366208,PM10,73,141,98
India,Bihar,Begusarai,"Lohiyanagar, Begusarai - BSPCB",14-01-2026 16:00:00,25.42742023,86.13886079,PM2.5,57,304,116
India,Andhra_Pradesh,Visakhapatnam,"GVM Corporation, Visakhapatnam - APPCB",14-01-2026 16:00:00,17.72,83.3,PM2.5,78,317,189
India,Andhra_Pradesh,Visakhapatnam,"GVM Corporation, Visakhapatnam - APPCB",14-01-2026 16:00:00,17.72,83.3,SO2,2,36,8
India,Andhra_Pradesh,Visakhapatnam,"GVM Corporation, Visakhapatnam - APPCB",14-01-2026 16:00:00,17.72,83.3,CO,4,107,25
India,Arunachal_Pradesh,Naharlagun,"Naharlagun, Naharlagun - APSPCB",14-01-2026 16:00:00,27.103358,93.679645,PM10,36,447,136
India,Andhra_Pradesh,Anantapur,"Gulzarpet, Anantapur - APPCB",14-01-2026 16:00:00,14.675886,77.593027,PM10,76,113,92
India,Andhra_Pradesh,Anantapur,"Gulzarpet, Anantapur - APPCB",14-01-2026 16:00:00,14.675886,77.593027,CO,20,43,28
India,Andhra_Pradesh,Chittoor,"Gangineni Cheruvu, Chittoor - APPCB",14-01-2026 16:00:00,13.204880,79.097889,PM2.5,50,315,110
India,Andhra_Pradesh,Chittoor,"Gangineni Cheruvu, Chittoor - APPCB",14-01-2026 16:00:00,13.204880,79.097889,CO,10,62,23
India,Bihar,Motihari,"Gandak Colony, Motihari - BSPCB",14-01-2026 16:00:00,26.63086,84.90051,OZONE,3,10,8
India,Chhattisgarh,Raipur,"Siltara Phase-II, Raipur - CECB",14-01-2026 16:00:00,21.371751,81.664929,OZONE,3,3,3
India,Chhattisgarh,Tumidih,"OP Jindal Industrial Park, Tumidih - CECB",14-01-2026 16:00:00,22.06631475,83.33820077,NO2,NA,NA,NA
India,Chhattisgarh,Tumidih,"OP Jindal Industrial Park, Tumidih - CECB",14-01-2026 16:00:00,22.06631475,83.33820077,OZONE,99,122,109
India,Delhi,Delhi,"Alipur, Delhi - DPCC",14-01-2026 16:00:00,28.815329,77.153010,PM2.5,123,440,328
India,Delhi,Delhi,"Alipur, Delhi - DPCC",14-01-2026 16:00:00,28.815329,77.153010,NH3,18,27,20
India,Delhi,Delhi,"Anand Vihar, Delhi - DPCC",14-01-2026 16:00:00,28.647622,77.3158090,NO2,30,89,57
India,Delhi,Delhi,"Anand Vihar, Delhi - DPCC",14-01-2026 16:00:00,28.647622,77.3158090,OZONE,3,12,5
India,Chhattisgarh,Korba,"Rampur, Korba - CECB",14-01-2026 16:00:00,22.368195,82.746431,NH3,1,1,1
India,Chhattisgarh,Korba,"Rampur, Korba - CECB",14-01-2026 16:00:00,22.368195,82.746431,CO,20,40,24
India,Chhattisgarh,Korba,"Rampur, Korba - CECB",14-01-2026 16:00:00,22.368195,82.746431,OZONE,2,17,12
India,Chhattisgarh,Korba,"Urja Nagar, Korba - CECB",14-01-2026 16:00:00,22.348441,82.549611,PM10,NA,NA,NA
India,Chhattisgarh,Korba,"Urja Nagar, Korba - CECB",14-01-2026 16:00:00,22.348441,82.549611,NO2,NA,NA,NA
India,Chhattisgarh,Kunjemura,"OP Jindal School, Kunjemura - CECB",14-01-2026 16:00:00,22.126650,83.483212,PM2.5,40,107,68
India,Chhattisgarh,Kunjemura,"OP Jindal School, Kunjemura - CECB",14-01-2026 16:00:00,22.126650,83.483212,CO,18,46,29
India,Chhattisgarh,Kunjemura,"OP Jindal School, Kunjemura - CECB",14-01-2026 16:00:00,22.126650,83.483212,OZONE,1,68,50
India,Bihar,Siwan,"Chitragupta Nagar, Siwan - BSPCB",14-01-2026 16:00:00,26.2271665,84.3570427,CO,52,102,69
India,Chandigarh,Chandigarh,"Sector 22, Chandigarh - CPCC",14-01-2026 16:00:00,30.735567,76.775714,PM2.5,63,344,139
India,Chandigarh,Chandigarh,"Sector-25, Chandigarh - CPCC",14-01-2026 16:00:00,30.751462,76.762879,NO2,9,18,13
India,Chandigarh,Chandigarh,"Sector-53, Chandigarh - CPCC",14-01-2026 16:00:00,30.719859,76.738637,NO2,NA,NA,NA
India,Chhattisgarh,Bhilai,"32Bungalows, Bhilai - CECB",14-01-2026 16:00:00,21.194815,81.314770,PM10,24,89,58
India,Bihar,Rajgir,"Dangi Tola, Rajgir - BSPCB",14-01-2026 16:00:00,25.03280,85.41948,PM10,22,127,79
India,Bihar,Samastipur,"DM Office_Kasipur, Samastipur - BSPCB",14-01-2026 16:00:00,25.859655,85.77944,SO2,20,29,26
India,Bihar,Sasaram,"Dada Peer, Sasaram - BSPCB",14-01-2026 16:00:00,24.952822,84.002396,NH3,2,6,3
India,Bihar,Siwan,"Chitragupta Nagar, Siwan - BSPCB",14-01-2026 16:00:00,26.2271665,84.3570427,NO2,1,4,2
India,Chhattisgarh,Bhilai,"Hathkhoj, Bhilai - CECB",14-01-2026 16:00:00,21.224231,81.408350,NO2,39,87,65
India,Chhattisgarh,Bhilai,"Hathkhoj, Bhilai - CECB",14-01-2026 16:00:00,21.224231,81.408350,SO2,16,93,49
India,Chhattisgarh,Bilaspur,"Mangala, Bilaspur - NTPC",14-01-2026 16:00:00,22.08815,82.13737,SO2,13,19,16
India,Chhattisgarh,Chhal,"Nawapara SECL Colony, Chhal - CECB",14-01-2026 16:00:00,22.118125,83.140608,NH3,6,6,6
India,Bihar,Munger,"Town Hall, Munger - BSPCB",14-01-2026 16:00:00,25.376776,86.471523,OZONE,15,47,41
India,Bihar,Muzaffarpur,"Buddha Colony, Muzaffarpur - BSPCB",14-01-2026 16:00:00,26.11442,85.39813,NO2,37,65,46
India,Bihar,Muzaffarpur,"Buddha Colony, Muzaffarpur - BSPCB",14-01-2026 16:00:00,26.11442,85.39813,OZONE,35,96,80
India,Bihar,Muzaffarpur,"MIT-Daudpur Kothi, Muzaffarpur - BSPCB",14-01-2026 16:00:00,26.1403345,85.3650192,OZONE,10,54,35
India,Bihar,Patna,"Muradpur, Patna - BSPCB",14-01-2026 16:00:00,25.619651,85.147382,PM10,95,139,116
India,Bihar,Patna,"Muradpur, Patna - BSPCB",14-01-2026 16:00:00,25.619651,85.147382,SO2,7,10,8
India,Bihar,Patna,"Muradpur, Patna - BSPCB",14-01-2026 16:00:00,25.619651,85.147382,OZONE,4,17,12
India,Bihar,Patna,"Samanpura, Patna - BSPCB",14-01-2026 16:00:00,25.596727,85.085624,PM2.5,80,173,117
India,Bihar,Patna,"Samanpura, Patna - BSPCB",14-01-2026 16:00:00,25.596727,85.085624,NH3,5,6,5
India,Bihar,Patna,"Govt. High School Shikarpur, Patna - BSPCB",14-01-2026 16:00:00,25.592539,85.227158,PM10,96,138,106
India,Bihar,Patna,"Govt. High School Shikarpur, Patna - BSPCB",14-01-2026 16:00:00,25.592539,85.227158,SO2,8,14,12
India,Bihar,Patna,"IGSC Planetarium Complex, Patna - BSPCB",14-01-2026 16:00:00,25.610369,85.132568,NO2,NA,NA,NA
India,Chhattisgarh,Raipur,"Bhatagaon New ISBT, Raipur - CECB",14-01-2026 16:00:00,21.219665,81.630094,CO,37,116,48
India,Delhi,Delhi,"IIT Delhi, Delhi - IITM",14-01-2026 16:00:00,28.542460,77.191651,PM10,153,377,241
India,Delhi,Delhi,"IIT Delhi, Delhi - IITM",14-01-2026 16:00:00,28.542460,77.191651,CO,36,132,61
India,Delhi,Delhi,"ITO, Delhi - CPCB",14-01-2026 16:00:00,28.628624,77.241060,CO,44,111,58
India,Delhi,Delhi,"Jahangirpuri, Delhi - DPCC",14-01-2026 16:00:00,28.732820,77.170633,PM10,173,446,303
India,Delhi,Delhi,"Jawaharlal Nehru Stadium, Delhi - DPCC",14-01-2026 16:00:00,28.580280,77.233829,PM2.5,170,500,379
India,Delhi,Delhi,"Jawaharlal Nehru Stadium, Delhi - DPCC",14-01-2026 16:00:00,28.580280,77.233829,CO,106,157,116
India,Delhi,Delhi,"Jawaharlal Nehru Stadium, Delhi - DPCC",14-01-2026 16:00:00,28.580280,77.233829,OZONE,1,159,155
India,Delhi,Delhi,"Major Dhyan Chand National Stadium, Delhi - DPCC",14-01-2026 16:00:00,28.611281,77.237738,PM2.5,92,441,331
India,Delhi,Delhi,"Okhla Phase-2, Delhi - DPCC",14-01-2026 16:00:00,28.530785,77.271255,PM2.5,270,467,380
India,Delhi,Delhi,"Okhla Phase-2, Delhi - DPCC",14-01-2026 16:00:00,28.530785,77.271255,NH3,12,21,17
India,Delhi,Delhi,"Okhla Phase-2, Delhi - DPCC",14-01-2026 16:00:00,28.530785,77.271255,OZONE,9,217,217
India,Delhi,Delhi,"Patparganj, Delhi - DPCC",14-01-2026 16:00:00,28.623763,77.287209,OZONE,1,255,215
India,Delhi,Delhi,"Punjabi Bagh, Delhi - DPCC",14-01-2026 16:00:00,28.674045,77.131023,CO,52,113,66
India,Delhi,Delhi,"Pusa, Delhi - DPCC",14-01-2026 16:00:00,28.639652,77.146275,PM2.5,267,466,401
India,Gujarat,Ahmedabad,"Chandkheda, Ahmedabad - IITM",14-01-2026 16:00:00,23.107969,72.574648,NO2,9,67,32
India,Gujarat,Ahmedabad,"Gyaspur, Ahmedabad - IITM",14-01-2026 16:00:00,22.977134,72.553024,PM2.5,49,115,80
India,Gujarat,Ahmedabad,"Gyaspur, Ahmedabad - IITM",14-01-2026 16:00:00,22.977134,72.553024,NO2,25,97,65
India,Gujarat,Ahmedabad,"Gyaspur, Ahmedabad - IITM",14-01-2026 16:00:00,22.977134,72.553024,CO,18,62,24
India,Gujarat,Ahmedabad,"Maninagar, Ahmedabad - GPCB",14-01-2026 16:00:00,23.002657,72.591912,PM2.5,74,230,139
India,Gujarat,Ahmedabad,"Maninagar, Ahmedabad - GPCB",14-01-2026 16:00:00,23.002657,72.591912,PM10,80,196,125
India,Delhi,Delhi,"Shadipur, Delhi - CPCB",14-01-2026 16:00:00,28.6514781,77.1473105,PM2.5,245,335,311
India,Delhi,Delhi,"Shadipur, Delhi - CPCB",14-01-2026 16:00:00,28.6514781,77.1473105,NO2,34,67,49
India,Delhi,Delhi,"Shadipur, Delhi - CPCB",14-01-2026 16:00:00,28.6514781,77.1473105,SO2,5,8,6
India,Delhi,Delhi,"Shadipur, Delhi - CPCB",14-01-2026 16:00:00,28.6514781,77.1473105,OZONE,20,37,33
India,Delhi,Delhi,"Sirifort, Delhi - CPCB",14-01-2026 16:00:00,28.5504249,77.2159377,PM2.5,253,500,398
India,Delhi,Delhi,"Sirifort, Delhi - CPCB",14-01-2026 16:00:00,28.5504249,77.2159377,PM10,175,500,335
India,Delhi,Delhi,"Sirifort, Delhi - CPCB",14-01-2026 16:00:00,28.5504249,77.2159377,NH3,1,36,9
India,Delhi,Delhi,"DTU, Delhi - CPCB",14-01-2026 16:00:00,28.7500499,77.1112615,PM2.5,140,456,350
India,Delhi,Delhi,"DTU, Delhi - CPCB",14-01-2026 16:00:00,28.7500499,77.1112615,PM10,121,338,217
India,Delhi,Delhi,"Dr. Karni Singh Shooting Range, Delhi - DPCC",14-01-2026 16:00:00,28.498571,77.264840,OZONE,6,169,155
India,Delhi,Delhi,"Dwarka-Sector 8, Delhi - DPCC ",14-01-2026 16:00:00,28.5710274,77.0719006,PM2.5,308,472,386
India,Delhi,Delhi,"Dwarka-Sector 8, Delhi - DPCC ",14-01-2026 16:00:00,28.5710274,77.0719006,NO2,43,140,86
India,Delhi,Delhi,"NSIT Dwarka, Delhi - CPCB",14-01-2026 16:00:00,28.60909,77.0325413,PM10,176,428,321
India,Delhi,Delhi,"NSIT Dwarka, Delhi - CPCB",14-01-2026 16:00:00,28.60909,77.0325413,CO,38,92,48
India,Delhi,Delhi,"Narela, Delhi - DPCC",14-01-2026 16:00:00,28.822836,77.101981,CO,37,90,47
India,Delhi,Delhi,"Nehru Nagar, Delhi - DPCC",14-01-2026 16:00:00,28.567890,77.250515,CO,110,172,128
India,Delhi,Delhi,"Sonia Vihar, Delhi - DPCC",14-01-2026 16:00:00,28.710508,77.249485,PM10,133,415,301
India,Delhi,Delhi,"Vivek Vihar, Delhi - DPCC",14-01-2026 16:00:00,28.672342,77.315260,PM10,159,353,270
India,Delhi,Delhi,"Wazirpur, Delhi - DPCC",14-01-2026 16:00:00,28.699793,77.165453,SO2,1,6,3
India,Delhi,Delhi,"Wazirpur, Delhi - DPCC",14-01-2026 16:00:00,28.699793,77.165453,CO,38,114,64
India,Delhi,Delhi,"Bawana, Delhi - DPCC",14-01-2026 16:00:00,28.776200,77.051074,SO2,6,19,9
India,Delhi,Delhi,"CRRI Mathura Road, Delhi - IMD",14-01-2026 16:00:00,28.5512005,77.2735737,PM10,140,466,278
India,Delhi,Delhi,"Chandni Chowk, Delhi - IITM",14-01-2026 16:00:00,28.656756,77.227234,PM10,184,500,399
India,Delhi,Delhi,"Major Dhyan Chand National Stadium, Delhi - DPCC",14-01-2026 16:00:00,28.611281,77.237738,PM10,121,399,261
India,Delhi,Delhi,"Mandir Marg, Delhi - DPCC",14-01-2026 16:00:00,28.636429,77.201067,OZONE,1,113,69
India,Haryana,Dharuhera,"Municipal Corporation Office, Dharuhera -  HSPCB",14-01-2026 16:00:00,28.206800,76.799700,PM10,143,288,222
India,Haryana,Dharuhera,"Municipal Corporation Office, Dharuhera -  HSPCB",14-01-2026 16:00:00,28.206800,76.799700,NO2,11,39,30
India,Haryana,Faridabad,"New Industrial Town, Faridabad - HSPCB",14-01-2026 16:00:00,28.39072,77.30059,PM2.5,208,221,214
India,Haryana,Faridabad,"New Industrial Town, Faridabad - HSPCB",14-01-2026 16:00:00,28.39072,77.30059,CO,10,13,12
India,Haryana,Faridabad,"New Industrial Town, Faridabad - HSPCB",14-01-2026 16:00:00,28.39072,77.30059,OZONE,27,34,30
India,Haryana,Faridabad,"Sector 11, Faridabad - HSPCB",14-01-2026 16:00:00,28.376058,77.315741,NO2,31,33,32
India,Haryana,Faridabad,"Sector 11, Faridabad - HSPCB",14-01-2026 16:00:00,28.376058,77.315741,SO2,4,94,11
India,Haryana,Hisar,"Urban Estate-II, Hisar - HSPCB",14-01-2026 16:00:00,29.140560,75.744941,NH3,10,11,11
India,Haryana,Jind,"Police Lines, Jind - HSPCB",14-01-2026 16:00:00,29.307814,76.337619,SO2,2,3,2
India,Haryana,Karnal,"Sector-12, Karnal - HSPCB",14-01-2026 16:00:00,29.695300,77.002700,PM2.5,101,337,226
India,Haryana,Kurukshetra,"Sector-7, Kurukshetra - HSPCB",14-01-2026 16:00:00,29.966942,76.875879,PM2.5,94,311,195
India,Haryana,Kurukshetra,"Sector-7, Kurukshetra - HSPCB",14-01-2026 16:00:00,29.966942,76.875879,NO2,17,21,18
India,Haryana,Manesar,"Sector-2 IMT, Manesar - HSPCB",14-01-2026 16:00:00,28.360699,76.936090,PM10,103,168,143
India,Haryana,Manesar,"Sector-2 IMT, Manesar - HSPCB",14-01-2026 16:00:00,28.360699,76.936090,CO,24,48,36
India,Haryana,Palwal,"Shyam Nagar, Palwal - HSPCB",14-01-2026 16:00:00,28.1485564,77.3320667,NH3,8,9,9
India,Haryana,Palwal,"Shyam Nagar, Palwal - HSPCB",14-01-2026 16:00:00,28.1485564,77.3320667,CO,21,50,34
India,Haryana,Panchgaon,"Amity University, Panchgaon - IITM",14-01-2026 16:00:00,28.3153,76.9143,CO,9,187,123
India,Gujarat,Gandhinagar,"GIFT City, Gandhinagar - IITM",14-01-2026 16:00:00,23.163798,72.677768,NO2,14,67,29
India,Gujarat,Gandhinagar,"GIFT City, Gandhinagar - IITM",14-01-2026 16:00:00,23.163798,72.677768,CO,6,39,17
India,Gujarat,Gandhinagar,"IIPHG Lekawada, Gandhinagar - IITM",14-01-2026 16:00:00,23.243639,72.68994,PM10,75,115,102
India,Gujarat,Gandhinagar,"IIPHG Lekawada, Gandhinagar - IITM",14-01-2026 16:00:00,23.243639,72.68994,SO2,8,15,10
India,Gujarat,Gandhinagar,"Sector-10, Gandhinagar - GPCB",14-01-2026 16:00:00,23.221714,72.654328,PM10,77,142,106
India,Haryana,Gurugram,"Teri Gram, Gurugram - HSPCB",14-01-2026 16:00:00,28.4275,77.1465,PM10,134,301,231
India,Haryana,Gurugram,"Teri Gram, Gurugram - HSPCB",14-01-2026 16:00:00,28.4275,77.1465,CO,42,80,55
India,Haryana,Gurugram,"Vikas Sadan, Gurugram - HSPCB",14-01-2026 16:00:00,28.4501238,77.0263051,PM2.5,302,424,349
India,Haryana,Gurugram,"Vikas Sadan, Gurugram - HSPCB",14-01-2026 16:00:00,28.4501238,77.0263051,OZONE,3,31,22
India,Gujarat,Ahmedabad,"SAC ISRO Bopal, Ahmedabad - IITM",14-01-2026 16:00:00,23.041137,72.456691,NO2,13,39,22
India,Gujarat,Ahmedabad,"SAC ISRO Satellite, Ahmedabad - IITM",14-01-2026 16:00:00,23.023389,72.515201,CO,2,27,23
India,Gujarat,Ankleshwar,"GIDC, Ankleshwar - GPCB",14-01-2026 16:00:00,21.613267,73.010555,SO2,21,22,21
India,Gujarat,Vapi,"Phase-1 GIDC, Vapi - GPCB",14-01-2026 16:00:00,20.362421,72.918013,OZONE,8,16,11
India,Gujarat,Vatva,"Phase-4 GIDC, Vatva - GPCB",14-01-2026 16:00:00,22.969611,72.643500,CO,12,12,12
India,Haryana,Ambala,"Patti Mehar, Ambala - HSPCB",14-01-2026 16:00:00,30.379589,76.778328,CO,26,42,34
India,Haryana,Faridabad,"Sector 30, Faridabad - HSPCB",14-01-2026 16:00:00,28.4417,77.3217,CO,21,66,57
India,Haryana,Fatehabad,"Huda Sector, Fatehabad - HSPCB",14-01-2026 16:00:00,29.503664,75.467934,PM10,115,283,171
India,Haryana,Fatehabad,"Huda Sector, Fatehabad - HSPCB",14-01-2026 16:00:00,29.503664,75.467934,OZONE,43,54,50
India,Gujarat,Ahmedabad,"Raikhad, Ahmedabad - IITM",14-01-2026 16:00:00,23.020509,72.579261,NH3,8,25,13
India,Gujarat,Ahmedabad,"Raikhad, Ahmedabad - IITM",14-01-2026 16:00:00,23.020509,72.579261,SO2,12,22,17
India,Gujarat,Ahmedabad,"Rakhial, Ahmedabad - IITM",14-01-2026 16:00:00,23.016834,72.625775,PM10,89,192,132
India,Haryana,Panipat,"Sector-18, Panipat - HSPCB",14-01-2026 16:00:00,29.432304,76.972765,PM2.5,125,341,280
India,Haryana,Panipat,"Sector-18, Panipat - HSPCB",14-01-2026 16:00:00,29.432304,76.972765,PM10,124,217,173
India,Haryana,Panipat,"Sector-18, Panipat - HSPCB",14-01-2026 16:00:00,29.432304,76.972765,NO2,31,32,31
India,Haryana,Rohtak,"MD University, Rohtak - HSPCB",14-01-2026 16:00:00,28.52123,76.37138,PM2.5,NA,NA,NA
India,Haryana,Sirsa,"F-Block, Sirsa - HSPCB",14-01-2026 16:00:00,29.536400,75.015800,PM2.5,70,323,164
India,Haryana,Sirsa,"F-Block, Sirsa - HSPCB",14-01-2026 16:00:00,29.536400,75.015800,NO2,16,29,21
India,Haryana,Sirsa,"F-Block, Sirsa - HSPCB",14-01-2026 16:00:00,29.536400,75.015800,SO2,3,26,14
India,Haryana,Sirsa,"F-Block, Sirsa - HSPCB",14-01-2026 16:00:00,29.536400,75.015800,OZONE,34,48,40
India,Haryana,Sonipat,"Murthal, Sonipat - HSPCB",14-01-2026 16:00:00,29.027200,77.062100,PM10,53,113,89
India,Haryana,Yamuna Nagar,"Gobind Pura, Yamuna Nagar - HSPCB",14-01-2026 16:00:00,30.1480566,77.2893471,PM2.5,81,306,158
India,Haryana,Yamuna Nagar,"Gobind Pura, Yamuna Nagar - HSPCB",14-01-2026 16:00:00,30.1480566,77.2893471,SO2,10,15,12
India,Karnataka,Dharwad,"Kalabhavan, Dharwad - KSPCB",14-01-2026 16:00:00,15.459706,75.008381,NH3,5,7,7
India,Karnataka,Dharwad,"Kalabhavan, Dharwad - KSPCB",14-01-2026 16:00:00,15.459706,75.008381,OZONE,17,23,17
India,Karnataka,Hubballi,"Lingaraj Nagar, Hubballi - KSPCB",14-01-2026 16:00:00,15.3714823,75.1160168,SO2,1,2,1
India,Karnataka,Kalaburagi,"Mahatma Basaveswar Colony, Kalaburgi - KSPCB",14-01-2026 16:00:00,17.336318,76.847397,NH3,3,4,3
India,Karnataka,Koppal,"Diwator Nagar, Koppal - KSPCB",14-01-2026 16:00:00,15.347630,76.181767,PM10,27,71,47
India,Karnataka,Koppal,"Diwator Nagar, Koppal - KSPCB",14-01-2026 16:00:00,15.347630,76.181767,NO2,25,33,29
India,Karnataka,Koppal,"Diwator Nagar, Koppal - KSPCB",14-01-2026 16:00:00,15.347630,76.181767,NH3,7,8,8
India,Karnataka,Madikeri,"Stuart Hill, Madikeri - KSPCB",14-01-2026 16:00:00,12.415911,75.735050,PM2.5,10,366,59
India,Karnataka,Mysuru,"Hebbal 1st Stage, Mysuru - KSPCB",14-01-2026 16:00:00,12.21041,76.37376,PM10,38,74,55
India,Karnataka,Mysuru,"Hebbal 1st Stage, Mysuru - KSPCB",14-01-2026 16:00:00,12.21041,76.37376,CO,10,38,20
India,Karnataka,Mysuru,"Hebbal 1st Stage, Mysuru - KSPCB",14-01-2026 16:00:00,12.21041,76.37376,OZONE,5,72,46
India,Karnataka,Shivamogga,"Vinoba Nagara, Shivamogga - KSPCB",14-01-2026 16:00:00,13.940000,75.555917,PM2.5,32,39,37
India,Karnataka,Shivamogga,"Vinoba Nagara, Shivamogga - KSPCB",14-01-2026 16:00:00,13.940000,75.555917,NO2,14,21,17
India,Karnataka,Shivamogga,"Vinoba Nagara, Shivamogga - KSPCB",14-01-2026 16:00:00,13.940000,75.555917,CO,12,22,19
India,Karnataka,Tumakuru,"Thimmalapura, Tumakuru - KSPCB",14-01-2026 16:00:00,13.377516,77.099072,NO2,NA,NA,NA
India,Karnataka,Tumakuru,"Thimmalapura, Tumakuru - KSPCB",14-01-2026 16:00:00,13.377516,77.099072,NH3,NA,NA,NA
India,Karnataka,Tumakuru,"Thimmalapura, Tumakuru - KSPCB",14-01-2026 16:00:00,13.377516,77.099072,SO2,NA,NA,NA
India,Karnataka,Tumakuru,"Thimmalapura, Tumakuru - KSPCB",14-01-2026 16:00:00,13.377516,77.099072,CO,52,54,53
India,Karnataka,Vijayapura,"Ibrahimpur, Vijayapura - KSPCB",14-01-2026 16:00:00,16.802639,75.722694,PM2.5,29,46,31
India,Karnataka,Vijayapura,"Ibrahimpur, Vijayapura - KSPCB",14-01-2026 16:00:00,16.802639,75.722694,NH3,1,2,1
India,Karnataka,Bengaluru,"Hombegowda Nagar, Bengaluru - KSPCB",14-01-2026 16:00:00,12.938539,77.590100,PM10,28,56,42
India,Karnataka,Bengaluru,"Jayanagar 5th Block, Bengaluru - KSPCB",14-01-2026 16:00:00,12.920984,77.584908,PM10,62,134,83
India,Karnataka,Bengaluru,"Jayanagar 5th Block, Bengaluru - KSPCB",14-01-2026 16:00:00,12.920984,77.584908,NO2,8,36,24
India,Karnataka,Bengaluru,"Jayanagar 5th Block, Bengaluru - KSPCB",14-01-2026 16:00:00,12.920984,77.584908,CO,6,66,32
India,Karnataka,Bengaluru,"Jayanagar 5th Block, Bengaluru - KSPCB",14-01-2026 16:00:00,12.920984,77.584908,OZONE,28,78,45
India,Karnataka,Bengaluru,"Kasturi Nagar, Bengaluru - KSPCB",14-01-2026 16:00:00,13.003872,77.664217,NO2,NA,NA,NA
India,Karnataka,Bengaluru,"Kasturi Nagar, Bengaluru - KSPCB",14-01-2026 16:00:00,13.003872,77.664217,OZONE,26,27,26
India,Karnataka,Belgaum,"Ramteerth Nagar, Belgaum - KSPCB",14-01-2026 16:00:00,15.888653,74.541751,CO,3,6,3
India,Karnataka,Bengaluru,"BTM Layout, Bengaluru - CPCB",14-01-2026 16:00:00,12.9135218,77.5950804,PM10,NA,NA,NA
India,Karnataka,Bengaluru,"BTM Layout, Bengaluru - CPCB",14-01-2026 16:00:00,12.9135218,77.5950804,NO2,NA,NA,NA
India,Karnataka,Bengaluru,"BWSSB Kadabesanahalli, Bengaluru - CPCB",14-01-2026 16:00:00,12.9352049,77.6814488,SO2,1,11,5
India,Karnataka,Bengaluru,"Bapuji Nagar, Bengaluru - KSPCB",14-01-2026 16:00:00,12.951913,77.539784,NO2,9,21,15
India,Haryana,Yamuna Nagar,"Gobind Pura, Yamuna Nagar - HSPCB",14-01-2026 16:00:00,30.1480566,77.2893471,OZONE,8,34,33
India,Jammu_and_Kashmir,Srinagar,"Rajbagh, Srinagar - JKPCC",14-01-2026 16:00:00,34.066206,74.819820,PM10,20,50,34
India,Karnataka,Bagalkot,"Vidayagiri, Bagalkot - KSPCB",14-01-2026 16:00:00,16.172806,75.659694,PM2.5,34,35,35
India,Karnataka,Bagalkot,"Vidayagiri, Bagalkot - KSPCB",14-01-2026 16:00:00,16.172806,75.659694,NH3,1,2,1
India,Karnataka,Bengaluru,"Peenya, Bengaluru - CPCB",14-01-2026 16:00:00,13.0270199,77.494094,CO,8,52,25
India,Karnataka,Bengaluru,"RVCE-Mailasandra, Bengaluru - KSPCB",14-01-2026 16:00:00,12.921418,77.502466,CO,27,61,52
India,Karnataka,Bengaluru,"Shivapura_Peenya, Bengaluru - KSPCB",14-01-2026 16:00:00,13.0246342,77.5080115,SO2,9,12,9
India,Karnataka,Chikkaballapur,"Chikkaballapur Rural, Chikkaballapur - KSPCB",14-01-2026 16:00:00,13.428828,77.731418,NH3,4,7,5
India,Karnataka,Chikkaballapur,"Chikkaballapur Rural, Chikkaballapur - KSPCB",14-01-2026 16:00:00,13.428828,77.731418,OZONE,24,28,25
India,Karnataka,Dharwad,"Kalabhavan, Dharwad - KSPCB",14-01-2026 16:00:00,15.459706,75.008381,PM10,NA,NA,NA
India,Karnataka,Bengaluru,"Hebbal, Bengaluru - KSPCB",14-01-2026 16:00:00,13.029152,77.585901,PM10,44,133,86
India,Madhya Pradesh,Ratlam,"Shasthri Nagar, Ratlam - IPCA Lab",14-01-2026 16:00:00,23.331731,75.045981,NO2,11,54,25
India,Madhya Pradesh,Sagar,"Civil Lines, Sagar - MPPCB",14-01-2026 16:00:00,23.838586,78.759431,PM10,88,167,110
India,Madhya Pradesh,Sagar,"Civil Lines, Sagar - MPPCB",14-01-2026 16:00:00,23.838586,78.759431,SO2,8,21,13
India,Madhya Pradesh,Satna,"Bandhavgar Colony, Satna - Birla Cement",14-01-2026 16:00:00,24.58434363,80.8549414,PM10,69,71,70
India,Madhya Pradesh,Satna,"Bandhavgar Colony, Satna - Birla Cement",14-01-2026 16:00:00,24.58434363,80.8549414,CO,22,88,30
India,Madhya Pradesh,Singrauli,"Suryakiran Bhawan NCL, Singrauli - MPPCB",14-01-2026 16:00:00,24.108970,82.645580,NH3,1,1,1
India,Madhya Pradesh,Singrauli,"Suryakiran Bhawan NCL, Singrauli - MPPCB",14-01-2026 16:00:00,24.108970,82.645580,CO,32,85,46
India,Madhya Pradesh,Ujjain,"Mahashweta Nagar, Ujjain - MPPCB",14-01-2026 16:00:00,23.1633321,75.800225,PM10,90,265,153
India,Karnataka,Yadgir,"Collector Office, Yadgir - KSPCB",14-01-2026 16:00:00,16.7602,77.1428,PM10,61,109,78
India,Karnataka,Yadgir,"Collector Office, Yadgir - KSPCB",14-01-2026 16:00:00,16.7602,77.1428,NH3,2,3,2
India,Karnataka,Yadgir,"Collector Office, Yadgir - KSPCB",14-01-2026 16:00:00,16.7602,77.1428,CO,14,30,17
India,Karnataka,Yadgir,"Collector Office, Yadgir - KSPCB",14-01-2026 16:00:00,16.7602,77.1428,OZONE,18,19,18
India,Kerala,Eloor,"Udyogamandal, Eloor - Kerala PCB",14-01-2026 16:00:00,10.073232,76.302765,PM2.5,NA,NA,NA
India,Kerala,Eloor,"Udyogamandal, Eloor - Kerala PCB",14-01-2026 16:00:00,10.073232,76.302765,PM10,NA,NA,NA
India,Kerala,Eloor,"Udyogamandal, Eloor - Kerala PCB",14-01-2026 16:00:00,10.073232,76.302765,OZONE,14,16,15
India,Kerala,Kannur,"Thavakkara, Kannur - Kerala PCB",14-01-2026 16:00:00,11.875000,75.373200,PM2.5,NA,NA,NA
India,Kerala,Kollam,"Polayathode, Kollam - Kerala PCB",14-01-2026 16:00:00,8.8787,76.6073,PM2.5,NA,NA,NA
India,Kerala,Kollam,"Polayathode, Kollam - Kerala PCB",14-01-2026 16:00:00,8.8787,76.6073,SO2,NA,NA,NA
India,Madhya Pradesh,Gwalior,"Deen Dayal Nagar, Gwalior - MPPCB",14-01-2026 16:00:00,26.259242,78.216432,SO2,1,42,10
India,Madhya Pradesh,Gwalior,"Maharaj Bada, Gwalior - MPPCB",14-01-2026 16:00:00,26.200388,78.147714,PM10,87,432,195
India,Madhya Pradesh,Gwalior,"Maharaj Bada, Gwalior - MPPCB",14-01-2026 16:00:00,26.200388,78.147714,NO2,40,150,75
India,Madhya Pradesh,Indore,"Airport Area, Indore - IMC",14-01-2026 16:00:00,22.7289,75.8076,PM2.5,72,396,212
India,Madhya Pradesh,Indore,"Airport Area, Indore - IMC",14-01-2026 16:00:00,22.7289,75.8076,NO2,1,3,2
India,Madhya Pradesh,Indore,"Airport Area, Indore - IMC",14-01-2026 16:00:00,22.7289,75.8076,CO,8,13,9
