country,state,city,station,last_update,latitude,longitude,pollutant_id,min_value,max_value,avg_value
India,Bihar,Aurangabad,"Gurdeo Nagar, Aurangabad - BSPCB",23-07-2026 05:00:00,24.75746,84.366208,OZONE,6,6,6
India,Bihar,Begusarai,"Lohiyanagar, Begusarai - BSPCB",23-07-2026 05:00:00,25.42742023,86.13886079,NH3,15,17,16
India,Bihar,Bettiah,"Kamalnath Nagar, Bettiah - BSPCB",23-07-2026 05:00:00,26.80365,84.51954,NO2,22,30,26
India,Bihar,Buxar,"Charitra Van, Buxar - BSPCB",23-07-2026 05:00:00,25.56752,83.966379,OZONE,1,6,3
India,Bihar,Chhapra,"Darshan Nagar, Chhapra - BSPCB",23-07-2026 05:00:00,25.7808257,84.7446768,PM2.5,60,62,61
India,Bihar,Chhapra,"Darshan Nagar, Chhapra - BSPCB",23-07-2026 05:00:00,25.7808257,84.7446768,NH3,3,4,4
India,Bihar,Gaya,"Kareemganj, Gaya - BSPCB",23-07-2026 05:00:00,24.792403,84.992416,PM10,8,75,45
India,Bihar,Gaya,"SFTI Kusdihra, Gaya - BSPCB",23-07-2026 05:00:00,24.762518,84.982348,PM10,27,38,32
India,Bihar,Gaya,"Collectorate, Gaya - BSPCB",23-07-2026 05:00:00,24.7955,84.9994,PM2.5,NA,NA,NA
India,Bihar,Gaya,"Collectorate, Gaya - BSPCB",23-07-2026 05:00:00,24.7955,84.9994,NO2,NA,NA,NA
India,Bihar,Hajipur,"Industrial Area, Hajipur - BSPCB",23-07-2026 05:00:00,25.697189,85.2459,CO,20,29,26
India,Bihar,Hajipur,"Industrial Area, Hajipur - BSPCB",23-07-2026 05:00:00,25.697189,85.2459,OZONE,14,26,20
India,Bihar,Katihar,"Mirchaibari, Katihar - BSPCB",23-07-2026 05:00:00,25.560083,87.553265,PM2.5,NA,NA,NA
India,Bihar,Katihar,"Mirchaibari, Katihar - BSPCB",23-07-2026 05:00:00,25.560083,87.553265,NH3,1,1,1
India,Bihar,Kishanganj,"SDM Office_Khagra, Kishanganj - BSPCB",23-07-2026 05:00:00,26.0881305,87.93840336,PM2.5,55,83,63
India,Bihar,Manguraha,"Forest Rest House, Manguraha - BSPCB",23-07-2026 05:00:00,27.308328,84.531742,PM2.5,NA,NA,NA
India,Andhra Pradesh,Rajamahendravaram,"Anand Kala Kshetram, Rajamahendravaram - APPCB",23-07-2026 05:00:00,16.9872867,81.7363176,OZONE,8,18,14
India,Andhra Pradesh,Tirumala,"Toll Gate, Tirumala - APPCB",23-07-2026 05:00:00,13.67,79.35,SO2,5,9,6
India,Andhra Pradesh,Tirupati,"Vaikuntapuram, Tirupati - APPCB",23-07-2026 05:00:00,13.615387,79.40923,NO2,25,33,28
India,Andhra Pradesh,Vijayawada,"Rajiv Nagar, Vijayawada - APPCB",23-07-2026 05:00:00,16.554731,80.64911,PM10,47,73,55
India,Andhra Pradesh,Vijayawada,"Rajiv Nagar, Vijayawada - APPCB",23-07-2026 05:00:00,16.554731,80.64911,NO2,13,28,17
India,Andhra Pradesh,Vijayawada,"Rajiv Nagar, Vijayawada - APPCB",23-07-2026 05:00:00,16.554731,80.64911,SO2,8,18,12
India,Andhra Pradesh,Chittoor,"Gangineni Cheruvu, Chittoor - APPCB",23-07-2026 05:00:00,13.20488,79.097889,SO2,14,23,18
India,Andhra Pradesh,Eluru,"District Court, Eluru - APPCB",23-07-2026 05:00:00,16.711754,81.092095,NH3,2,6,4
India,Andhra Pradesh,Eluru,"District Court, Eluru - APPCB",23-07-2026 05:00:00,16.711754,81.092095,SO2,8,17,11
India,Andhra Pradesh,Guntur,"Rajendra Nagar North, Guntur - APPCB",23-07-2026 05:00:00,16.316553,80.413302,PM2.5,39,65,45
India,Andhra Pradesh,Guntur,"Rajendra Nagar North, Guntur - APPCB",23-07-2026 05:00:00,16.316553,80.413302,OZONE,36,36,36
India,Andhra Pradesh,Kadapa,"Yerramukkapalli, Kadapa - APPCB",23-07-2026 05:00:00,14.465052,78.824187,NO2,16,27,20
India,Arunachal Pradesh,Naharlagun,"Naharlagun, Naharlagun - APSPCB",23-07-2026 05:00:00,27.103358,93.679645,SO2,NA,NA,NA
India,Assam,Byrnihat,"Central Academy for SFS, Byrnihat - PCBA",23-07-2026 05:00:00,26.071318,91.87488,PM10,22,100,61
India,Assam,Byrnihat,"Central Academy for SFS, Byrnihat - PCBA",23-07-2026 05:00:00,26.071318,91.87488,NO2,6,9,8
India,Assam,Guwahati,"Pan Bazaar, Guwahati - PCBA",23-07-2026 05:00:00,26.1875,91.744194,NH3,1,2,1
India,Assam,Guwahati,"LGBI Airport, Guwahati - PCBA",23-07-2026 05:00:00,26.10887,91.589544,NH3,3,4,4
India,Assam,Guwahati,"LGBI Airport, Guwahati - PCBA",23-07-2026 05:00:00,26.10887,91.589544,CO,20,42,31
India,Andhra Pradesh,Kurnool,"Sita Rama Nagar, Kurnool - APPCB",23-07-2026 05:00:00,15.83411,78.028546,NO2,24,35,28
India,Andhra Pradesh,Machilipatnam,"Srinivas Nagar Colony, Machilipatnam - APPCB",23-07-2026 05:00:00,16.186555,81.13219,PM2.5,47,66,54
India,Andhra Pradesh,Machilipatnam,"Srinivas Nagar Colony, Machilipatnam - APPCB",23-07-2026 05:00:00,16.186555,81.13219,PM10,44,63,54
India,Andhra Pradesh,Machilipatnam,"Srinivas Nagar Colony, Machilipatnam - APPCB",23-07-2026 05:00:00,16.186555,81.13219,NH3,3,5,4
India,Andhra Pradesh,Rajamahendravaram,"Anand Kala Kshetram, Rajamahendravaram - APPCB",23-07-2026 05:00:00,16.9872867,81.7363176,NH3,1,2,2
India,Andhra Pradesh,Rajamahendravaram,"Anand Kala Kshetram, Rajamahendravaram - APPCB",23-07-2026 05:00:00,16.9872867,81.7363176,SO2,4,6,5
India,Assam,Sivasagar,"Girls College, Sivasagar - PCBA",23-07-2026 05:00:00,26.987634,94.636574,NO2,11,16,14
India,Bihar,Arrah,"New DM Office, Arrah - BSPCB",23-07-2026 05:00:00,25.5626095,84.663264,NO2,5,10,7
India,Bihar,Arrah,"New DM Office, Arrah - BSPCB",23-07-2026 05:00:00,25.5626095,84.663264,CO,42,60,52
India,Bihar,Arrah,"New DM Office, Arrah - BSPCB",23-07-2026 05:00:00,25.5626095,84.663264,OZONE,8,9,8
India,Bihar,Aurangabad,"Gurdeo Nagar, Aurangabad - BSPCB",23-07-2026 05:00:00,24.75746,84.366208,PM2.5,NA,NA,NA
India,Andhra Pradesh,Vijayawada,"HB Colony, Vijayawada - APPCB",23-07-2026 05:00:00,16.536107,80.594233,PM2.5,50,76,60
India,Andhra Pradesh,Vijayawada,"Rajiv Gandhi Park, Vijayawada - APPCB",23-07-2026 05:00:00,16.509717,80.612222,PM2.5,38,65,50
India,Andhra Pradesh,Vijayawada,"Rajiv Gandhi Park, Vijayawada - APPCB",23-07-2026 05:00:00,16.509717,80.612222,SO2,11,18,13
India,Andhra Pradesh,Visakhapatnam,"GVM Corporation, Visakhapatnam - APPCB",23-07-2026 05:00:00,17.72,83.3,NH3,3,4,3
India,Assam,Guwahati,"Railway Colony, Guwahati - PCBA",23-07-2026 05:00:00,26.181742,91.78063,PM10,10,38,21
India,Assam,Guwahati,"Railway Colony, Guwahati - PCBA",23-07-2026 05:00:00,26.181742,91.78063,NH3,1,1,1
India,Assam,Guwahati,"Railway Colony, Guwahati - PCBA",23-07-2026 05:00:00,26.181742,91.78063,CO,7,13,11
India,Assam,Nagaon,"Christianpatty, Nagaon - PCBA",23-07-2026 05:00:00,26.349082,92.68449,PM2.5,42,83,58
India,Andhra Pradesh,Amaravati,"Secretariat, Amaravati - APPCB",23-07-2026 05:00:00,16.5150833,80.5181667,OZONE,4,21,14
India,Andhra Pradesh,Anantapur,"Gulzarpet, Anantapur - APPCB",23-07-2026 05:00:00,14.675886,77.593027,PM10,48,70,59
India,Chhattisgarh,Korba,"Urja Nagar, Korba - CECB",23-07-2026 05:00:00,22.348441,82.549611,NH3,1,1,1
India,Chhattisgarh,Korba,"Urja Nagar, Korba - CECB",23-07-2026 05:00:00,22.348441,82.549611,CO,20,24,22
India,Chhattisgarh,Korba,"Urja Nagar, Korba - CECB",23-07-2026 05:00:00,22.348441,82.549611,OZONE,5,5,5
India,Chhattisgarh,Kunjemura,"OP Jindal School, Kunjemura - CECB",23-07-2026 05:00:00,22.12665,83.483212,NH3,2,2,2
India,Chhattisgarh,Milupara,"Govt. Higher Secondary School, Milupara - CECB",23-07-2026 05:00:00,22.1910172,83.5197009,PM2.5,2,22,6
India,Chhattisgarh,Milupara,"Govt. Higher Secondary School, Milupara - CECB",23-07-2026 05:00:00,22.1910172,83.5197009,NO2,13,40,26
India,Chhattisgarh,Raipur,"Siltara Phase-II, Raipur - CECB",23-07-2026 05:00:00,21.371751,81.664929,SO2,1,15,6
India,Chhattisgarh,Raipur,"Bhatagaon New ISBT, Raipur - CECB",23-07-2026 05:00:00,21.219665,81.630094,SO2,0,4,2
India,Chhattisgarh,Raipur,"AIIMS, Raipur - CECB",23-07-2026 05:00:00,21.258815,81.578979,PM2.5,4,4,4
India,Chhattisgarh,Tumidih,"OP Jindal Industrial Park, Tumidih - CECB",23-07-2026 05:00:00,22.06631475,83.33820077,PM2.5,5,64,32
India,Chhattisgarh,Tumidih,"OP Jindal Industrial Park, Tumidih - CECB",23-07-2026 05:00:00,22.06631475,83.33820077,NO2,14,59,34
India,Chhattisgarh,Tumidih,"OP Jindal Industrial Park, Tumidih - CECB",23-07-2026 05:00:00,22.06631475,83.33820077,OZONE,38,38,38
India,Delhi,Delhi,"Mandir Marg, Delhi - DPCC",23-07-2026 05:00:00,28.636429,77.201067,PM10,30,103,62
India,Delhi,Delhi,"Nehru Nagar, Delhi - DPCC",23-07-2026 05:00:00,28.56789,77.250515,NO2,17,35,26
India,Delhi,Delhi,"Patparganj, Delhi - DPCC",23-07-2026 05:00:00,28.623763,77.287209,PM2.5,8,57,33
India,Delhi,Delhi,"Patparganj, Delhi - DPCC",23-07-2026 05:00:00,28.623763,77.287209,NO2,13,48,22
India,Delhi,Delhi,"Patparganj, Delhi - DPCC",23-07-2026 05:00:00,28.623763,77.287209,NH3,8,10,9
India,Delhi,Delhi,"Jawaharlal Nehru Stadium, Delhi - DPCC",23-07-2026 05:00:00,28.58028,77.233829,PM10,34,92,56
India,Delhi,Delhi,"Jawaharlal Nehru Stadium, Delhi - DPCC",23-07-2026 05:00:00,28.58028,77.233829,NO2,23,62,36
India,Delhi,Delhi,"Jawaharlal Nehru Stadium, Delhi - DPCC",23-07-2026 05:00:00,28.58028,77.233829,CO,20,46,28
India,Delhi,Delhi,"IHBAS, Dilshad Garden, Delhi - CPCB",23-07-2026 05:00:00,28.6811736,77.3025234,NO2,10,19,13
India,Delhi,Delhi,"Sri Aurobindo Marg, Delhi - DPCC",23-07-2026 05:00:00,28.531346,77.190156,CO,26,53,40
India,Delhi,Delhi,"Okhla Phase-2, Delhi - DPCC",23-07-2026 05:00:00,28.530785,77.271255,SO2,5,10,8
India,Delhi,Delhi,"Rohini, Delhi - DPCC",23-07-2026 05:00:00,28.732528,77.11992,NH3,7,14,10
India,Delhi,Delhi,"Vivek Vihar, Delhi - DPCC",23-07-2026 05:00:00,28.672342,77.31526,PM2.5,21,53,39
India,Delhi,Delhi,"Najafgarh, Delhi - DPCC",23-07-2026 05:00:00,28.570173,76.933762,OZONE,11,14,12
India,Delhi,Delhi,"Alipur, Delhi - DPCC",23-07-2026 05:00:00,28.815329,77.15301,NO2,76,141,100
India,Delhi,Delhi,"NSIT Dwarka, Delhi - CPCB",23-07-2026 05:00:00,28.60909,77.0325413,PM10,14,91,39
India,Delhi,Delhi,"NSIT Dwarka, Delhi - CPCB",23-07-2026 05:00:00,28.60909,77.0325413,NO2,17,90,48
India,Delhi,Delhi,"Mundka, Delhi - DPCC",23-07-2026 05:00:00,28.684678,77.076574,OZONE,2,4,3
India,Delhi,Delhi,"Wazirpur, Delhi - DPCC",23-07-2026 05:00:00,28.699793,77.165453,NO2,19,44,28
India,Delhi,Delhi,"Dr. Karni Singh Shooting Range, Delhi - DPCC",23-07-2026 05:00:00,28.498571,77.26484,SO2,4,7,5
India,Delhi,Delhi,"Dr. Karni Singh Shooting Range, Delhi - DPCC",23-07-2026 05:00:00,28.498571,77.26484,OZONE,10,15,13
India,Delhi,Delhi,"Anand Vihar, Delhi - DPCC",23-07-2026 05:00:00,28.647622,77.315809,SO2,3,35,23
India,Bihar,Munger,"Town Hall, Munger - BSPCB",23-07-2026 05:00:00,25.376776,86.471523,SO2,7,16,11
India,Bihar,Muzaffarpur,"MIT-Daudpur Kothi, Muzaffarpur - BSPCB",23-07-2026 05:00:00,26.1403345,85.3650192,PM10,26,44,30
India,Bihar,Muzaffarpur,"MIT-Daudpur Kothi, Muzaffarpur - BSPCB",23-07-2026 05:00:00,26.1403345,85.3650192,NH3,1,2,2
India,Bihar,Muzaffarpur,"Muzaffarpur Collectorate, Muzaffarpur - BSPCB",23-07-2026 05:00:00,26.1209,85.3647,PM10,NA,NA,NA
India,Bihar,Muzaffarpur,"Muzaffarpur Collectorate, Muzaffarpur - BSPCB",23-07-2026 05:00:00,26.1209,85.3647,NO2,14,27,17
India,Bihar,Muzaffarpur,"Buddha Colony, Muzaffarpur - BSPCB",23-07-2026 05:00:00,26.11442,85.39813,PM10,22,39,30
India,Bihar,Muzaffarpur,"Buddha Colony, Muzaffarpur - BSPCB",23-07-2026 05:00:00,26.11442,85.39813,NO2,19,25,21
India,Bihar,Muzaffarpur,"Buddha Colony, Muzaffarpur - BSPCB",23-07-2026 05:00:00,26.11442,85.39813,SO2,1,13,8
India,Bihar,Muzaffarpur,"Buddha Colony, Muzaffarpur - BSPCB",23-07-2026 05:00:00,26.11442,85.39813,CO,14,19,16
India,Bihar,Muzaffarpur,"Buddha Colony, Muzaffarpur - BSPCB",23-07-2026 05:00:00,26.11442,85.39813,OZONE,14,21,18
India,Bihar,Saharsa,"Police Line, Saharsa - BSPCB",23-07-2026 05:00:00,25.892357,86.590325,NH3,4,4,4
India,Bihar,Saharsa,"Police Line, Saharsa - BSPCB",23-07-2026 05:00:00,25.892357,86.590325,SO2,16,19,17
India,Bihar,Saharsa,"Police Line, Saharsa - BSPCB",23-07-2026 05:00:00,25.892357,86.590325,OZONE,12,20,17
India,Bihar,Samastipur,"DM Office_Kasipur, Samastipur - BSPCB",23-07-2026 05:00:00,25.859655,85.77944,CO,1,3,2
India,Bihar,Sasaram,"Dada Peer, Sasaram - BSPCB",23-07-2026 05:00:00,24.952822,84.002396,OZONE,17,17,17
India,Bihar,Siwan,"Chitragupta Nagar, Siwan - BSPCB",23-07-2026 05:00:00,26.2271665,84.3570427,NO2,2,2,2
India,Chandigarh,Chandigarh,"Sector-25, Chandigarh - CPCC",23-07-2026 05:00:00,30.751462,76.762879,PM2.5,10,31,19
India,Chandigarh,Chandigarh,"Sector-25, Chandigarh - CPCC",23-07-2026 05:00:00,30.751462,76.762879,PM10,13,39,24
India,Delhi,Delhi,"Vivek Vihar, Delhi - DPCC",23-07-2026 05:00:00,28.672342,77.31526,NO2,25,49,33
India,Delhi,Delhi,"Vivek Vihar, Delhi - DPCC",23-07-2026 05:00:00,28.672342,77.31526,OZONE,27,32,31
India,Delhi,Delhi,"CRRI Mathura Road, Delhi - IITM",23-07-2026 05:00:00,28.5512005,77.2735737,PM2.5,22,39,31
India,Delhi,Delhi,"CRRI Mathura Road, Delhi - IITM",23-07-2026 05:00:00,28.5512005,77.2735737,NH3,NA,NA,NA
India,Delhi,Delhi,"CRRI Mathura Road, Delhi - IITM",23-07-2026 05:00:00,28.5512005,77.2735737,SO2,NA,NA,NA
India,Delhi,Delhi,"Aya Nagar, Delhi - IITM",23-07-2026 05:00:00,28.4706914,77.1099364,OZONE,12,20,17
India,Delhi,Delhi,"Jahangirpuri, Delhi - DPCC",23-07-2026 05:00:00,28.73282,77.170633,PM10,76,143,105
India,Delhi,Delhi,"Jahangirpuri, Delhi - DPCC",23-07-2026 05:00:00,28.73282,77.170633,NO2,14,35,21
India,Bihar,Patna,"IGSC Planetarium Complex, Patna - BSPCB",23-07-2026 05:00:00,25.610369,85.132568,CO,21,27,24
India,Bihar,Patna,"DRM Office Danapur, Patna - BSPCB",23-07-2026 05:00:00,25.586562,85.043586,PM10,23,33,28
India,Bihar,Patna,"DRM Office Danapur, Patna - BSPCB",23-07-2026 05:00:00,25.586562,85.043586,NH3,8,9,9
India,Bihar,Patna,"Samanpura, Patna - BSPCB",23-07-2026 05:00:00,25.596727,85.085624,OZONE,22,23,23
India,Bihar,Patna,"Rajbansi Nagar, Patna - BSPCB",23-07-2026 05:00:00,25.599486,85.113666,OZONE,25,33,29
India,Bihar,Purnia,"Mariam Nagar, Purnia - BSPCB",23-07-2026 05:00:00,25.366336,87.117468,PM10,12,25,19
India,Bihar,Purnia,"Mariam Nagar, Purnia - BSPCB",23-07-2026 05:00:00,25.366336,87.117468,OZONE,19,51,28
India,Chandigarh,Chandigarh,"Sector-53, Chandigarh - CPCC",23-07-2026 05:00:00,30.719859,76.738637,OZONE,5,11,9
India,Chandigarh,Chandigarh,"Sector 22, Chandigarh - CPCC",23-07-2026 05:00:00,30.735567,76.775714,NO2,4,16,8
India,Chandigarh,Chandigarh,"Sector 22, Chandigarh - CPCC",23-07-2026 05:00:00,30.735567,76.775714,SO2,3,7,5
India,Chhattisgarh,Chhal,"Nawapara SECL Colony, Chhal - CECB",23-07-2026 05:00:00,22.118125,83.140608,NH3,3,3,3
India,Chhattisgarh,Chhal,"Nawapara SECL Colony, Chhal - CECB",23-07-2026 05:00:00,22.118125,83.140608,SO2,0,9,7
India,Chhattisgarh,Chhal,"Nawapara SECL Colony, Chhal - CECB",23-07-2026 05:00:00,22.118125,83.140608,CO,11,19,15
India,Chhattisgarh,Korba,"Rampur, Korba - CECB",23-07-2026 05:00:00,22.368195,82.746431,NH3,2,2,2
India,Delhi,Delhi,"Mandir Marg, Delhi - DPCC",23-07-2026 05:00:00,28.636429,77.201067,NH3,11,18,13
India,Delhi,Delhi,"IMD Lodhi Road, Delhi - IITM",23-07-2026 05:00:00,28.5918245,77.2273074,SO2,NA,NA,NA
India,Delhi,Delhi,"Burari Crossing, Delhi - IITM",23-07-2026 05:00:00,28.7256504,77.2011573,OZONE,7,11,9
India,Delhi,Delhi,"Major Dhyan Chand National Stadium, Delhi - DPCC",23-07-2026 05:00:00,28.611281,77.237738,PM2.5,NA,NA,NA
India,Gujarat,Gandhinagar,"GIFT City, Gandhinagar - IITM",23-07-2026 05:00:00,23.163798,72.677768,NO2,21,28,23
India,Gujarat,Gandhinagar,"GIFT City, Gandhinagar - IITM",23-07-2026 05:00:00,23.163798,72.677768,SO2,0,5,3
India,Gujarat,Gandhinagar,"IIPHG Lekawada, Gandhinagar - IITM",23-07-2026 05:00:00,23.243639,72.68994,PM10,58,143,95
India,Gujarat,Rajkot,"Mavdi, Rajkot - Nexteng Enviro ",23-07-2026 05:00:00,22.248853,70.776774,PM10,63,123,90
India,Gujarat,Rajkot,"Mavdi, Rajkot - Nexteng Enviro ",23-07-2026 05:00:00,22.248853,70.776774,NO2,4,13,7
India,Gujarat,Rajkot,"Mavdi, Rajkot - Nexteng Enviro ",23-07-2026 05:00:00,22.248853,70.776774,NH3,0,0,0
India,Gujarat,Surat,"Science Center, Surat - SMC",23-07-2026 05:00:00,21.170046,72.795405,NO2,0,1,0
India,Gujarat,Surat,"Science Center, Surat - SMC",23-07-2026 05:00:00,21.170046,72.795405,NH3,NA,NA,NA
India,Gujarat,Surat,"Science Center, Surat - SMC",23-07-2026 05:00:00,21.170046,72.795405,SO2,15,16,16
India,Gujarat,Surat,"Katargam, Surat - Nexteng Enviro",23-07-2026 05:00:00,21.217779,72.834787,PM2.5,32,32,32
India,Gujarat,Surat,"Katargam, Surat - Nexteng Enviro",23-07-2026 05:00:00,21.217779,72.834787,SO2,7,11,9
India,Gujarat,Vadodara,"Bapunagar, Vadodara - Nexteng Enviro",23-07-2026 05:00:00,22.320153,73.216285,SO2,6,7,7
India,Delhi,Delhi,"Pusa, Delhi - DPCC",23-07-2026 05:00:00,28.639652,77.146275,PM2.5,25,90,40
India,Gujarat,Ahmedabad,"SAC ISRO Bopal, Ahmedabad - IITM",23-07-2026 05:00:00,23.041137,72.456691,NH3,2,2,2
India,Gujarat,Ahmedabad,"SAC ISRO Bopal, Ahmedabad - IITM",23-07-2026 05:00:00,23.041137,72.456691,OZONE,8,24,16
India,Gujarat,Ahmedabad,"Raikhad, Ahmedabad - IITM",23-07-2026 05:00:00,23.020509,72.579261,NO2,2,52,12
India,Gujarat,Ahmedabad,"SAC ISRO Satellite, Ahmedabad - IITM",23-07-2026 05:00:00,23.023389,72.515201,PM10,28,101,63
India,Gujarat,Ahmedabad,"SAC ISRO Satellite, Ahmedabad - IITM",23-07-2026 05:00:00,23.023389,72.515201,OZONE,7,24,15
India,Gujarat,Ahmedabad,"Maninagar, Ahmedabad - GPCB",23-07-2026 05:00:00,23.002657,72.591912,PM2.5,33,122,70
India,Gujarat,Ahmedabad,"Maninagar, Ahmedabad - GPCB",23-07-2026 05:00:00,23.002657,72.591912,PM10,52,111,89
India,Gujarat,Ahmedabad,"Maninagar, Ahmedabad - GPCB",23-07-2026 05:00:00,23.002657,72.591912,OZONE,22,51,30
India,Gujarat,Ahmedabad,"Chandkheda, Ahmedabad - IITM",23-07-2026 05:00:00,23.107969,72.574648,PM10,31,89,69
India,Gujarat,Ahmedabad,"Gyaspur, Ahmedabad - IITM",23-07-2026 05:00:00,22.977134,72.553024,PM2.5,7,34,18
India,Delhi,Delhi,"Punjabi Bagh, Delhi - DPCC",23-07-2026 05:00:00,28.674045,77.131023,PM2.5,3,83,39
India,Delhi,Delhi,"Punjabi Bagh, Delhi - DPCC",23-07-2026 05:00:00,28.674045,77.131023,PM10,41,140,88
India,Delhi,Delhi,"Punjabi Bagh, Delhi - DPCC",23-07-2026 05:00:00,28.674045,77.131023,SO2,27,50,36
India,Delhi,Delhi,"Shadipur, Delhi - CPCB",23-07-2026 05:00:00,28.6514781,77.1473105,PM2.5,19,49,30
India,Delhi,Delhi,"ITO, Delhi - CPCB",23-07-2026 05:00:00,28.628624,77.24106,PM2.5,26,64,43
India,Delhi,Delhi,"ITO, Delhi - CPCB",23-07-2026 05:00:00,28.628624,77.24106,NO2,37,77,59
India,Delhi,Delhi,"ITO, Delhi - CPCB",23-07-2026 05:00:00,28.628624,77.24106,NH3,3,5,4
India,Delhi,Delhi,"ITO, Delhi - CPCB",23-07-2026 05:00:00,28.628624,77.24106,CO,26,49,36
India,Delhi,Delhi,"R K Puram, Delhi - DPCC",23-07-2026 05:00:00,28.563262,77.186937,NO2,6,378,108
India,Delhi,Delhi,"Sirifort, Delhi - CPCB",23-07-2026 05:00:00,28.5504249,77.2159377,PM2.5,44,76,58
India,Delhi,Delhi,"Chandni Chowk, Delhi - IITM",23-07-2026 05:00:00,28.656756,77.227234,SO2,9,13,10
India,Haryana,Faridabad,"Sector 11, Faridabad - HSPCB",23-07-2026 05:00:00,28.376058,77.315741,NO2,29,33,31
India,Haryana,Faridabad,"New Industrial Town, Faridabad - HSPCB",23-07-2026 05:00:00,28.39072,77.30059,OZONE,14,14,14
India,Haryana,Fatehabad,"Huda Sector, Fatehabad - HSPCB",23-07-2026 05:00:00,29.503664,75.467934,PM2.5,NA,NA,NA
India,Haryana,Fatehabad,"Huda Sector, Fatehabad - HSPCB",23-07-2026 05:00:00,29.503664,75.467934,CO,45,53,49
India,Haryana,Gurugram,"Vikas Sadan, Gurugram - HSPCB",23-07-2026 05:00:00,28.4501238,77.0263051,NH3,NA,NA,NA
India,Haryana,Gurugram,"Vikas Sadan, Gurugram - HSPCB",23-07-2026 05:00:00,28.4501238,77.0263051,SO2,0,2,1
India,Haryana,Gurugram,"Teri Gram, Gurugram - HSPCB",23-07-2026 05:00:00,28.4275,77.1465,PM2.5,47,124,74
India,Haryana,Gurugram,"Teri Gram, Gurugram - HSPCB",23-07-2026 05:00:00,28.4275,77.1465,PM10,44,104,69
India,Haryana,Ballabgarh,"Nathu Colony, Ballabgarh - HSPCB",23-07-2026 05:00:00,28.3419248,77.319699,NH3,4,5,5
India,Haryana,Bhiwani,"H.B. Colony, Bhiwani - HSPCB",23-07-2026 05:00:00,28.806223,76.141105,PM10,19,65,40
India,Haryana,Bhiwani,"H.B. Colony, Bhiwani - HSPCB",23-07-2026 05:00:00,28.806223,76.141105,CO,10,24,20
India,Haryana,Charkhi Dadri,"Mini Secretariat, Charkhi Dadri - HSPCB",23-07-2026 05:00:00,28.593883,76.270653,PM2.5,16,229,65
India,Haryana,Charkhi Dadri,"Mini Secretariat, Charkhi Dadri - HSPCB",23-07-2026 05:00:00,28.593883,76.270653,OZONE,18,24,20
India,Haryana,Dharuhera,"Municipal Corporation Office, Dharuhera -  HSPCB",23-07-2026 05:00:00,28.2068,76.7997,SO2,6,14,10
India,Haryana,Faridabad,"Sector 30, Faridabad - HSPCB",23-07-2026 05:00:00,28.4417,77.3217,PM10,89,101,93
India,Gujarat,Vadodara,"Bapunagar, Vadodara - Nexteng Enviro",23-07-2026 05:00:00,22.320153,73.216285,OZONE,2,5,3
India,Gujarat,Vapi,"Phase-1 GIDC, Vapi - GPCB",23-07-2026 05:00:00,20.362421,72.918013,PM10,NA,NA,NA
India,Gujarat,Vapi,"Phase-1 GIDC, Vapi - GPCB",23-07-2026 05:00:00,20.362421,72.918013,NH3,2,5,3
India,Haryana,Ambala,"Patti Mehar, Ambala - HSPCB",23-07-2026 05:00:00,30.379589,76.778328,PM10,45,95,64
India,Haryana,Bahadurgarh,"Arya Nagar, Bahadurgarh - HSPCB",23-07-2026 05:00:00,28.6701,76.9254,PM10,113,119,116
India,Haryana,Bahadurgarh,"Arya Nagar, Bahadurgarh - HSPCB",23-07-2026 05:00:00,28.6701,76.9254,NO2,7,35,23
India,Haryana,Bahadurgarh,"Arya Nagar, Bahadurgarh - HSPCB",23-07-2026 05:00:00,28.6701,76.9254,OZONE,33,43,39
India,Delhi,Delhi,"Anand Vihar, Delhi - DPCC",23-07-2026 05:00:00,28.647622,77.315809,OZONE,4,10,7
India,Delhi,Delhi,"Ashok Vihar, Delhi - DPCC",23-07-2026 05:00:00,28.695381,77.181665,SO2,8,16,12
India,Delhi,Delhi,"Commonwealth Sports Complex, Delhi - DPCC",23-07-2026 05:00:00,28.615828,77.271992,PM10,47,88,62
India,Delhi,Delhi,"Dwarka-Sector 8, Delhi - DPCC ",23-07-2026 05:00:00,28.5710274,77.0719006,NO2,21,74,36
India,Delhi,Delhi,"Dwarka-Sector 8, Delhi - DPCC ",23-07-2026 05:00:00,28.5710274,77.0719006,SO2,7,10,9
India,Delhi,Delhi,"Pusa, Delhi - IITM",23-07-2026 05:00:00,28.63611,77.173332,SO2,NA,NA,NA
India,Gujarat,Ahmedabad,"SVPI Airport Hansol, Ahmedabad - IITM",23-07-2026 05:00:00,23.076793,72.627874,PM10,46,108,84
India,Gujarat,Ahmedabad,"SVPI Airport Hansol, Ahmedabad - IITM",23-07-2026 05:00:00,23.076793,72.627874,SO2,3,6,4
India,Gujarat,Ahmedabad,"SVPI Airport Hansol, Ahmedabad - IITM",23-07-2026 05:00:00,23.076793,72.627874,OZONE,5,15,11
India,Gujarat,Bhavnagar,"Vidhyanagar, Bhavnagar - Nexteng Enviro",23-07-2026 05:00:00,21.755417,72.139056,PM2.5,28,61,37
India,Gujarat,Bhavnagar,"Vidhyanagar, Bhavnagar - Nexteng Enviro",23-07-2026 05:00:00,21.755417,72.139056,PM10,29,56,42
India,Delhi,Delhi,"DTU, Delhi - CPCB",23-07-2026 05:00:00,28.7500499,77.1112615,OZONE,35,42,38
India,Delhi,Delhi,"North Campus, DU, Delhi - IITM",23-07-2026 05:00:00,28.6573814,77.1585447,PM10,35,171,73
India,Delhi,Delhi,"NSUT Jaffarpur, Delhi - DPCC",23-07-2026 05:00:00,28.594004,76.909423,PM2.5,31,64,48
India,Karnataka,Karwar,"KHB Colony, Karwar - KSPCB",23-07-2026 05:00:00,14.816666,74.141003,NH3,3,97,21
India,Karnataka,Karwar,"KHB Colony, Karwar - KSPCB",23-07-2026 05:00:00,14.816666,74.141003,SO2,NA,NA,NA
India,Karnataka,Madikeri,"Stuart Hill, Madikeri - KSPCB",23-07-2026 05:00:00,12.415911,75.73505,SO2,7,8,8
India,Karnataka,Madikeri,"Stuart Hill, Madikeri - KSPCB",23-07-2026 05:00:00,12.415911,75.73505,OZONE,1,4,3
India,Karnataka,Mangalore,"Kadri, Mangalore - KSPCB",23-07-2026 05:00:00,12.88925,74.853,NH3,2,6,4
India,Karnataka,Mangalore,"Kadri, Mangalore - KSPCB",23-07-2026 05:00:00,12.88925,74.853,OZONE,37,37,37
India,Karnataka,Mysuru,"Hebbal 1st Stage, Mysuru - KSPCB",23-07-2026 05:00:00,12.21041,76.37376,PM2.5,10,29,18
India,Karnataka,Mysuru,"Hebbal 1st Stage, Mysuru - KSPCB",23-07-2026 05:00:00,12.21041,76.37376,OZONE,6,21,9
India,Karnataka,Vijayapura,"Ibrahimpur, Vijayapura - KSPCB",23-07-2026 05:00:00,16.802639,75.722694,PM2.5,27,28,27
India,Karnataka,Vijayapura,"Ibrahimpur, Vijayapura - KSPCB",23-07-2026 05:00:00,16.802639,75.722694,CO,7,37,24
India,Karnataka,Vijayapura,"Ibrahimpur, Vijayapura - KSPCB",23-07-2026 05:00:00,16.802639,75.722694,OZONE,16,17,16
India,Haryana,Sirsa,"F-Block, Sirsa - HSPCB",23-07-2026 05:00:00,29.5364,75.0158,PM10,38,55,48
India,Haryana,Sirsa,"F-Block, Sirsa - HSPCB",23-07-2026 05:00:00,29.5364,75.0158,NH3,12,14,14
India,Haryana,Sonipat,"Murthal, Sonipat - HSPCB",23-07-2026 05:00:00,29.0272,77.0621,SO2,62,68,65
India,Haryana,Yamuna Nagar,"Gobind Pura, Yamuna Nagar - HSPCB",23-07-2026 05:00:00,30.1480566,77.2893471,PM2.5,48,90,61
India,Jammu and Kashmir,Pampore,"Khrew, Pampore - JKPCC",23-07-2026 05:00:00,34.031606,75.009712,SO2,NA,NA,NA
India,Jammu and Kashmir,Pampore,"Khrew, Pampore - JKPCC",23-07-2026 05:00:00,34.031606,75.009712,CO,NA,NA,NA
India,Jammu and Kashmir,Srinagar,"Rajbagh, Srinagar - JKPCC",23-07-2026 05:00:00,34.066206,74.81982,NH3,9,9,9
India,Jammu and Kashmir,Srinagar,"Khunmoh, Srinagar - JKPCC",23-07-2026 05:00:00,34.06313,74.96017,PM10,12,100,26
India,Jammu and Kashmir,Srinagar,"Khunmoh, Srinagar - JKPCC",23-07-2026 05:00:00,34.06313,74.96017,OZONE,NA,NA,NA
India,Haryana,Gurugram,"Sector-51, Gurugram - HSPCB",23-07-2026 05:00:00,28.4227,77.0667,NH3,8,20,13
India,Haryana,Gurugram,"NISE Gwal Pahari, Gurugram - IITM",23-07-2026 05:00:00,28.422681,77.148944,PM10,14,138,57
India,Haryana,Gurugram,"NISE Gwal Pahari, Gurugram - IITM",23-07-2026 05:00:00,28.422681,77.148944,SO2,NA,NA,NA
India,Haryana,Gurugram,"NISE Gwal Pahari, Gurugram - IITM",23-07-2026 05:00:00,28.422681,77.148944,OZONE,8,13,12
India,Haryana,Kaithal,"Rishi Nagar, Kaithal - HSPCB",23-07-2026 05:00:00,29.8006,76.4155,PM2.5,19,48,32
India,Haryana,Kaithal,"Rishi Nagar, Kaithal - HSPCB",23-07-2026 05:00:00,29.8006,76.4155,SO2,25,28,27
India,Haryana,Karnal,"Sector-12, Karnal - HSPCB",23-07-2026 05:00:00,29.6953,77.0027,CO,38,61,46
India,Haryana,Kurukshetra,"Sector-7, Kurukshetra - HSPCB",23-07-2026 05:00:00,29.966942,76.875879,NH3,1,6,4
India,Haryana,Kurukshetra,"Sector-7, Kurukshetra - HSPCB",23-07-2026 05:00:00,29.966942,76.875879,SO2,1,16,7
India,Haryana,Manesar,"Sector-2 IMT, Manesar - HSPCB",23-07-2026 05:00:00,28.360699,76.93609,OZONE,10,20,13
India,Haryana,Narnaul,"Shastri Nagar, Narnaul - HSPCB",23-07-2026 05:00:00,28.060249,76.113115,NO2,27,31,28
India,Haryana,Palwal,"Shyam Nagar, Palwal - HSPCB",23-07-2026 05:00:00,28.1485564,77.3320667,PM2.5,34,84,61
India,Haryana,Palwal,"Shyam Nagar, Palwal - HSPCB",23-07-2026 05:00:00,28.1485564,77.3320667,PM10,71,102,83
India,Haryana,Panchgaon,"Amity University, Panchgaon - IITM",23-07-2026 05:00:00,28.3153,76.9143,OZONE,21,26,24
India,Haryana,Panipat,"Sector-18, Panipat - HSPCB",23-07-2026 05:00:00,29.432304,76.972765,NO2,5,9,7
India,Haryana,Panipat,"Sector-18, Panipat - HSPCB",23-07-2026 05:00:00,29.432304,76.972765,NH3,7,12,9
India,Karnataka,Bengaluru,"Hebbal, Bengaluru - KSPCB",23-07-2026 05:00:00,13.029152,77.585901,CO,11,22,16
India,Karnataka,Bengaluru,"Hebbal, Bengaluru - KSPCB",23-07-2026 05:00:00,13.029152,77.585901,OZONE,1,2,2
India,Karnataka,Bengaluru,"City Railway Station, Bengaluru - KSPCB",23-07-2026 05:00:00,12.9756843,77.5660749,NH3,NA,NA,NA
India,Karnataka,Bengaluru,"City Railway Station, Bengaluru - KSPCB",23-07-2026 05:00:00,12.9756843,77.5660749,OZONE,NA,NA,NA
India,Karnataka,Chamarajanagar,"Urban, Chamarajanagar - KSPCB",23-07-2026 05:00:00,11.55358,76.55521,NO2,NA,NA,NA
India,Karnataka,Chamarajanagar,"Urban, Chamarajanagar - KSPCB",23-07-2026 05:00:00,11.55358,76.55521,CO,10,16,15
India,Karnataka,Dharwad,"Kalabhavan, Dharwad - KSPCB",23-07-2026 05:00:00,15.459706,75.008381,PM2.5,NA,NA,NA
India,Karnataka,Dharwad,"Kalabhavan, Dharwad - KSPCB",23-07-2026 05:00:00,15.459706,75.008381,SO2,7,8,8
India,Karnataka,Dharwad,"Kalabhavan, Dharwad - KSPCB",23-07-2026 05:00:00,15.459706,75.008381,OZONE,23,23,23
India,Karnataka,Bengaluru,"Jigani, Bengaluru - KSPCB",23-07-2026 05:00:00,12.7816279,77.6299145,PM2.5,33,192,47
India,Karnataka,Bengaluru,"Jigani, Bengaluru - KSPCB",23-07-2026 05:00:00,12.7816279,77.6299145,CO,50,51,51
India,Karnataka,Bengaluru,"Bapuji Nagar, Bengaluru - KSPCB",23-07-2026 05:00:00,12.951913,77.539784,PM10,18,67,35
India,Karnataka,Bengaluru,"Silk Board, Bengaluru - KSPCB",23-07-2026 05:00:00,12.917348,77.622813,SO2,1,5,3
India,Karnataka,Bengaluru,"Hombegowda Nagar, Bengaluru - KSPCB",23-07-2026 05:00:00,12.938539,77.5901,PM10,16,59,28
India,Karnataka,Bengaluru,"Jayanagar 5th Block, Bengaluru - KSPCB",23-07-2026 05:00:00,12.920984,77.584908,OZONE,40,43,42
India,Kerala,Thiruvananthapuram,"Kariavattom, Thiruvananthapuram - Kerala PCB",23-07-2026 05:00:00,8.5637,76.8865,CO,20,24,22
India,Kerala,Thiruvananthapuram,"Kariavattom, Thiruvananthapuram - Kerala PCB",23-07-2026 05:00:00,8.5637,76.8865,OZONE,30,30,30
India,Kerala,Thiruvananthapuram,"Plammoodu, Thiruvananthapuram - Kerala PCB",23-07-2026 05:00:00,8.5149093,76.9435879,PM10,12,30,20
India,Kerala,Thrissur,"Corporation Ground, Thrissur - Kerala PCB",23-07-2026 05:00:00,10.5324,76.2159,PM10,48,62,57
India,Kerala,Thrissur,"Corporation Ground, Thrissur - Kerala PCB",23-07-2026 05:00:00,10.5324,76.2159,NO2,8,10,9
India,Kerala,Thrissur,"Corporation Ground, Thrissur - Kerala PCB",23-07-2026 05:00:00,10.5324,76.2159,OZONE,30,30,30
India,Jharkhand,Dhanbad,"Sardar Patel Nagar, Dhanbad - JSPCB",23-07-2026 05:00:00,23.80569,86.44268,CO,NA,NA,NA
India,Jharkhand,Jorapokhar,"Tata Stadium, Jorapokhar - JSPCB",23-07-2026 05:00:00,23.707909,86.41467,OZONE,2,3,3
India,Karnataka,Bagalkot,"Vidayagiri, Bagalkot - KSPCB",23-07-2026 05:00:00,16.172806,75.659694,PM10,46,51,48
India,Karnataka,Bengaluru,"BWSSB Kadabesanahalli, Bengaluru - CPCB",23-07-2026 05:00:00,12.9352049,77.6814488,CO,37,38,38
India,Karnataka,Hubballi,"Lingaraj Nagar, Hubballi - KSPCB",23-07-2026 05:00:00,15.3714823,75.1160168,CO,9,13,10
India,Karnataka,Karwar,"KHB Colony, Karwar - KSPCB",23-07-2026 05:00:00,14.816666,74.141003,PM10,NA,NA,NA
India,Madhya Pradesh,Gwalior,"Maharaj Bada, Gwalior - MPPCB",23-07-2026 05:00:00,26.200388,78.147714,OZONE,40,53,44
India,Madhya Pradesh,Gwalior,"City Center, Gwalior - MPPCB",23-07-2026 05:00:00,26.203442,78.193251,CO,14,23,18
India,Madhya Pradesh,Indore,"Maguda Nagar, Indore - IMC",23-07-2026 05:00:00,22.7524,75.8872,NH3,NA,NA,NA
India,Madhya Pradesh,Indore,"Maguda Nagar, Indore - IMC",23-07-2026 05:00:00,22.7524,75.8872,CO,42,47,44
India,Madhya Pradesh,Indore,"Airport Area, Indore - IMC",23-07-2026 05:00:00,22.7289,75.8076,PM10,8,162,33
India,Madhya Pradesh,Indore,"Airport Area, Indore - IMC",23-07-2026 05:00:00,22.7289,75.8076,NO2,27,43,32
India,Madhya Pradesh,Indore,"Airport Area, Indore - IMC",23-07-2026 05:00:00,22.7289,75.8076,NH3,0,0,0
India,Madhya Pradesh,Indore,"Residency Area, Indore - IMC",23-07-2026 05:00:00,22.7084,75.8815,NO2,NA,NA,NA
India,Madhya Pradesh,Indore,"Regional Park, Indore - IMC",23-07-2026 05:00:00,22.678,75.8559,SO2,32,37,36
India,Madhya Pradesh,Jabalpur,"Suhagi, Jabalpur - JMC",23-07-2026 05:00:00,23.218135,79.95777,SO2,5,103,10
India,Maharashtra,Ahmednagar,"Tarakpur, Ahmednagar - MPCB",23-07-2026 05:00:00,19.10122,74.73339,OZONE,11,18,16
India,Maharashtra,Akola,"Ramdaspeth, Akola - MPCB",23-07-2026 05:00:00,20.719516,77.000253,NO2,8,31,14
India,Maharashtra,Ambernath,"Chinchpada, Ambernath - MPCB",23-07-2026 05:00:00,19.215784,73.199781,CO,4,7,5
India,Maharashtra,Amravati,"Shri Shivaji Science College, Amravati - MPCB",23-07-2026 05:00:00,20.939198,77.765701,PM10,9,20,14
India,Maharashtra,Amravati,"Shivneri Colony, Amravati - MPCB",23-07-2026 05:00:00,20.9402359,77.7895248,PM2.5,3,9,5
India,Maharashtra,Amravati,"Shivneri Colony, Amravati - MPCB",23-07-2026 05:00:00,20.9402359,77.7895248,SO2,4,11,5
India,Maharashtra,Amravati,"Shivneri Colony, Amravati - MPCB",23-07-2026 05:00:00,20.9402359,77.7895248,CO,8,18,11
India,Maharashtra,Aurangabad,"Rachnakar Colony, Aurangabad - MPCB",23-07-2026 05:00:00,19.863756,75.321188,PM2.5,15,25,20
India,Madhya Pradesh,Mandideep,"Sector-D Industrial Area, Mandideep - MPPCB",23-07-2026 05:00:00,23.10844,77.511428,NH3,4,4,4
India,Madhya Pradesh,Mandideep,"Sector-D Industrial Area, Mandideep - MPPCB",23-07-2026 05:00:00,23.10844,77.511428,SO2,3,6,5
India,Madhya Pradesh,Pithampur,"Sector-2 Industrial Area, Pithampur - MPPCB",23-07-2026 05:00:00,22.624758,75.675238,PM10,10,80,39
India,Madhya Pradesh,Pithampur,"Sector-2 Industrial Area, Pithampur - MPPCB",23-07-2026 05:00:00,22.624758,75.675238,NO2,14,25,19
India,Madhya Pradesh,Ratlam,"Shasthri Nagar, Ratlam - IPCA Lab",23-07-2026 05:00:00,23.331731,75.045981,OZONE,NA,NA,NA
India,Madhya Pradesh,Satna,"Bandhavgar Colony, Satna - Birla Cement",23-07-2026 05:00:00,24.58434363,80.8549414,PM10,70,71,71
India,Madhya Pradesh,Satna,"Bandhavgar Colony, Satna - Birla Cement",23-07-2026 05:00:00,24.58434363,80.8549414,SO2,17,19,18
India,Madhya Pradesh,Bhopal,"Idgah Hills, Bhopal - MPPCB",23-07-2026 05:00:00,23.264759,77.381568,SO2,4,6,4
India,Madhya Pradesh,Damoh,"Shrivastav Colony, Damoh - MPPCB",23-07-2026 05:00:00,23.81748678,79.446246,PM2.5,NA,NA,NA
India,Madhya Pradesh,Damoh,"Shrivastav Colony, Damoh - MPPCB",23-07-2026 05:00:00,23.81748678,79.446246,NH3,NA,NA,NA
India,Madhya Pradesh,Dewas,"Bhopal Chauraha, Dewas - MPPCB",23-07-2026 05:00:00,22.9682591,76.064118,PM10,5,59,33
India,Madhya Pradesh,Gwalior,"Deen Dayal Nagar, Gwalior - MPPCB",23-07-2026 05:00:00,26.259242,78.216432,PM2.5,7,56,29
India,Madhya Pradesh,Gwalior,"Maharaj Bada, Gwalior - MPPCB",23-07-2026 05:00:00,26.200388,78.147714,CO,4,87,37
India,Madhya Pradesh,Jabalpur,"Suhagi, Jabalpur - JMC",23-07-2026 05:00:00,23.218135,79.95777,OZONE,14,29,19
India,Madhya Pradesh,Jabalpur,"Marhatal, Jabalpur - MPPCB",23-07-2026 05:00:00,23.168606,79.932247,PM10,8,50,23
India,Madhya Pradesh,Jabalpur,"Marhatal, Jabalpur - MPPCB",23-07-2026 05:00:00,23.168606,79.932247,NO2,16,28,22
India,Madhya Pradesh,Katni,"Gole Bazar, Katni - MPPCB",23-07-2026 05:00:00,23.50016,80.23284,PM10,6,66,29
India,Madhya Pradesh,Katni,"Gole Bazar, Katni - MPPCB",23-07-2026 05:00:00,23.50016,80.23284,NH3,2,2,2
India,Madhya Pradesh,Katni,"Gole Bazar, Katni - MPPCB",23-07-2026 05:00:00,23.50016,80.23284,SO2,12,51,28
India,Madhya Pradesh,Maihar,"Sahilara, Maihar - KJS Cements",23-07-2026 05:00:00,24.2613009,80.7231783,NH3,NA,NA,NA
India,Maharashtra,Dhule,"Deopur, Dhule - MPCB",23-07-2026 05:00:00,20.918946,74.776388,SO2,NA,NA,NA
India,Maharashtra,Dombivli,"Kalu Nagar, Dombivli - MPCB",23-07-2026 05:00:00,19.2268427,73.0788456,SO2,4,14,8
India,Maharashtra,Hingoli,"Ashta Vinayak Nagar, Hingoli - MPCB",23-07-2026 05:00:00,19.710842,77.151824,NH3,1,3,2
India,Maharashtra,Hingoli,"Ashta Vinayak Nagar, Hingoli - MPCB",23-07-2026 05:00:00,19.710842,77.151824,SO2,5,6,6
India,Maharashtra,Jalgaon,"Prabhat Colony, Jalgaon - MPCB",23-07-2026 05:00:00,21.001264,75.565602,OZONE,18,24,21
India,Maharashtra,Jalna,"Old MIDC, Jalna - MPCB",23-07-2026 05:00:00,19.854616,75.905894,NH3,3,5,4
India,Maharashtra,Beed,"Bir, Beed - MPCB",23-07-2026 05:00:00,18.988474,75.753873,OZONE,11,13,12
India,Maharashtra,Belapur,"CBD Belapur, Belapur - MPCB",23-07-2026 05:00:00,19.0243902,73.0406721,NO2,10,17,14
India,Maharashtra,Bhiwandi,"Gokul Nagar, Bhiwandi - MPCB",23-07-2026 05:00:00,19.309073,73.057223,PM10,43,48,46
India,Maharashtra,Bhiwandi,"Gokul Nagar, Bhiwandi - MPCB",23-07-2026 05:00:00,19.309073,73.057223,OZONE,15,16,16
India,Maharashtra,Chandrapur,"MIDC Khutala, Chandrapur - MPCB",23-07-2026 05:00:00,19.9775302,79.2337086,NH3,NA,NA,NA
India,Maharashtra,Chandrapur,"Chauhan Colony, Chandrapur - MPCB",23-07-2026 05:00:00,19.9629,79.298714,SO2,13,17,15
India,Maharashtra,Kalyan,"Khadakpada, Kalyan - MPCB",23-07-2026 05:00:00,19.25292,73.142019,NO2,36,37,37
India,Maharashtra,Kalyan,"Pimpleshwar Mandir, Kalyan - MPCB",23-07-2026 05:00:00,19.192056,72.9585188,SO2,NA,NA,NA
India,Maharashtra,Latur,"Sawe Wadi, Latur - MPCB",23-07-2026 05:00:00,18.39963,76.57452,PM10,9,37,20
India,Maharashtra,Latur,"Sawe Wadi, Latur - MPCB",23-07-2026 05:00:00,18.39963,76.57452,NH3,1,5,3
India,Maharashtra,Mahad,"Kamble Tarf Birwadi, Mahad - MPCB",23-07-2026 05:00:00,18.1023399,73.4783687,NH3,3,5,3
India,Maharashtra,Aurangabad,"Rachnakar Colony, Aurangabad - MPCB",23-07-2026 05:00:00,19.863756,75.321188,NO2,5,22,13
India,Maharashtra,Aurangabad,"More Chowk Waluj, Aurangabad - MPCB",23-07-2026 05:00:00,19.8389439,75.244448,PM2.5,46,53,49
India,Maharashtra,Aurangabad,"More Chowk Waluj, Aurangabad - MPCB",23-07-2026 05:00:00,19.8389439,75.244448,PM10,42,56,50
India,Maharashtra,Aurangabad,"More Chowk Waluj, Aurangabad - MPCB",23-07-2026 05:00:00,19.8389439,75.244448,NO2,9,11,10
India,Maharashtra,Pimpri-Chinchwad,"Savta Mali Nagar, Pimpri-Chinchwad - IITM",23-07-2026 05:00:00,18.614767,73.799516,PM10,23,79,47
India,Maharashtra,Pimpri-Chinchwad,"Savta Mali Nagar, Pimpri-Chinchwad - IITM",23-07-2026 05:00:00,18.614767,73.799516,NO2,4,26,17
India,Maharashtra,Pimpri-Chinchwad,"Thergaon, Pimpri Chinchwad - MPCB",23-07-2026 05:00:00,18.616318,73.765797,NO2,1,36,8
India,Maharashtra,Pimpri-Chinchwad,"Thergaon, Pimpri Chinchwad - MPCB",23-07-2026 05:00:00,18.616318,73.765797,NH3,2,3,2
India,Maharashtra,Pimpri-Chinchwad,"Thergaon, Pimpri Chinchwad - MPCB",23-07-2026 05:00:00,18.616318,73.765797,SO2,0,2,1
India,Maharashtra,Pimpri-Chinchwad,"Gavalinagar, Pimpri Chinchwad - MPCB",23-07-2026 05:00:00,18.63673,73.82487,OZONE,15,15,15
India,Maharashtra,Pimpri-Chinchwad,"Park Street Wakad, Pimpri Chinchwad - MPCB",23-07-2026 05:00:00,18.59051,73.77946,PM2.5,3,14,8
India,Maharashtra,Pimpri-Chinchwad,"Park Street Wakad, Pimpri Chinchwad - MPCB",23-07-2026 05:00:00,18.59051,73.77946,SO2,2,3,2
India,Maharashtra,Pune,"Panchawati_Pashan, Pune - IITM",23-07-2026 05:00:00,18.536457,73.805454,PM2.5,20,41,29
India,Maharashtra,Pune,"Panchawati_Pashan, Pune - IITM",23-07-2026 05:00:00,18.536457,73.805454,PM10,24,57,38
India,Maharashtra,Pune,"Panchawati_Pashan, Pune - IITM",23-07-2026 05:00:00,18.536457,73.805454,NO2,5,10,7
India,Maharashtra,Pune,"Panchawati_Pashan, Pune - IITM",23-07-2026 05:00:00,18.536457,73.805454,NH3,NA,NA,NA
India,Maharashtra,Pune,"Panchawati_Pashan, Pune - IITM",23-07-2026 05:00:00,18.536457,73.805454,CO,5,29,19
India,Maharashtra,Pune,"Revenue Colony-Shivajinagar, Pune - IITM",23-07-2026 05:00:00,18.530085,73.849598,CO,33,55,42
India,Maharashtra,Pune,"Revenue Colony-Shivajinagar, Pune - IITM",23-07-2026 05:00:00,18.530085,73.849598,OZONE,23,31,27
India,Maharashtra,Pune,"Katraj Dairy, Pune - MPCB",23-07-2026 05:00:00,18.45445,73.854155,PM10,19,36,27
India,Maharashtra,Pune,"Savitribai Phule Pune University, Pune - MPCB",23-07-2026 05:00:00,18.547056,73.826908,NH3,1,1,1
India,Maharashtra,Pune,"Savitribai Phule Pune University, Pune - MPCB",23-07-2026 05:00:00,18.547056,73.826908,OZONE,15,22,19
India,Maharashtra,Pune,"Dhankawadi, Pune - IITM",23-07-2026 05:00:00,18.459883,73.852193,PM2.5,17,42,24
India,Maharashtra,Pune,"Dhankawadi, Pune - IITM",23-07-2026 05:00:00,18.459883,73.852193,OZONE,1,4,2
India,Maharashtra,Sangli,"Vijay Nagar, Sangli - MPCB",23-07-2026 05:00:00,16.5038,74.3623,NH3,0,1,0
India,Maharashtra,Solapur,"Dnyaneshwar Nagar, Solapur - MPCB",23-07-2026 05:00:00,17.6336264,75.9132495,PM2.5,10,27,16
India,Maharashtra,Solapur,"Dnyaneshwar Nagar, Solapur - MPCB",23-07-2026 05:00:00,17.6336264,75.9132495,NO2,3,9,5
India,Maharashtra,Solapur,"Dnyaneshwar Nagar, Solapur - MPCB",23-07-2026 05:00:00,17.6336264,75.9132495,NH3,6,17,9
India,Maharashtra,Solapur,"Dnyaneshwar Nagar, Solapur - MPCB",23-07-2026 05:00:00,17.6336264,75.9132495,OZONE,16,19,17
India,Maharashtra,Solapur,"Ratandeep Housing Society, Solapur - MPCB",23-07-2026 05:00:00,17.65439,75.90649,CO,6,18,12
India,Maharashtra,Thane,"Kasarvadavali, Thane - MPCB",23-07-2026 05:00:00,19.26777,72.97182,PM10,16,32,27
India,Maharashtra,Thane,"Upvan Fort, Thane - MPCB",23-07-2026 05:00:00,19.222279,72.957979,PM10,10,22,17
India,Maharashtra,Thane,"Upvan Fort, Thane - MPCB",23-07-2026 05:00:00,19.222279,72.957979,NO2,NA,NA,NA
India,Maharashtra,Thane,"Upvan Fort, Thane - MPCB",23-07-2026 05:00:00,19.222279,72.957979,SO2,0,5,2
India,Maharashtra,Ulhasnagar,"Vithalwadi, Ulhasnagar - MPCB",23-07-2026 05:00:00,19.2307571,73.155192,PM10,7,26,17
India,Maharashtra,Mumbai,"Shivaji Nagar, Mumbai - BMC",23-07-2026 05:00:00,19.060498,72.923356,SO2,0,9,6
India,Maharashtra,Mumbai,"Shivaji Nagar, Mumbai - BMC",23-07-2026 05:00:00,19.060498,72.923356,CO,8,51,32
India,Maharashtra,Mumbai,"Borivali East, Mumbai - MPCB",23-07-2026 05:00:00,19.2243333,72.8658113,NO2,NA,NA,NA
India,Maharashtra,Mumbai,"Borivali East, Mumbai - MPCB",23-07-2026 05:00:00,19.2243333,72.8658113,CO,12,13,13
India,Maharashtra,Mumbai,"Chakala-Andheri East, Mumbai - IITM",23-07-2026 05:00:00,19.11074,72.86084,SO2,0,8,5
India,Maharashtra,Mumbai,"Chakala-Andheri East, Mumbai - IITM",23-07-2026 05:00:00,19.11074,72.86084,OZONE,2,3,3
India,Maharashtra,Mumbai,"Khindipada-Bhandup West, Mumbai - IITM",23-07-2026 05:00:00,19.1653323,72.922099,PM2.5,3,23,13
India,Maharashtra,Mumbai,"Khindipada-Bhandup West, Mumbai - IITM",23-07-2026 05:00:00,19.1653323,72.922099,NO2,5,9,7
India,Maharashtra,Mumbai,"Khindipada-Bhandup West, Mumbai - IITM",23-07-2026 05:00:00,19.1653323,72.922099,SO2,5,10,8
India,Maharashtra,Mumbai,"Khindipada-Bhandup West, Mumbai - IITM",23-07-2026 05:00:00,19.1653323,72.922099,CO,13,14,13
India,Maharashtra,Mumbai,"Navy Nagar-Colaba, Mumbai - IITM",23-07-2026 05:00:00,18.897756,72.81332,NH3,5,6,6
India,Maharashtra,Nagpur,"Opp GPO Civil Lines, Nagpur - MPCB",23-07-2026 05:00:00,21.152875,79.0517531,NH3,5,5,5
India,Maharashtra,Nagpur,"Ram Nagar, Nagpur - MPCB",23-07-2026 05:00:00,21.143383,79.048912,PM2.5,5,18,10
India,Maharashtra,Nagpur,"Ram Nagar, Nagpur - MPCB",23-07-2026 05:00:00,21.143383,79.048912,PM10,8,29,16
India,Maharashtra,Nagpur,"Ram Nagar, Nagpur - MPCB",23-07-2026 05:00:00,21.143383,79.048912,NO2,4,8,6
India,Maharashtra,Nagpur,"Ram Nagar, Nagpur - MPCB",23-07-2026 05:00:00,21.143383,79.048912,SO2,3,5,4
India,Maharashtra,Nagpur,"Ram Nagar, Nagpur - MPCB",23-07-2026 05:00:00,21.143383,79.048912,CO,5,11,7
India,Maharashtra,Nagpur,"Mahal, Nagpur - MPCB",23-07-2026 05:00:00,21.14472,79.107595,NH3,2,5,3
India,Maharashtra,Nanded,"Sneh Nagar, Nanded - MPCB",23-07-2026 05:00:00,19.173852,77.296291,NH3,3,5,4
India,Maharashtra,Nanded,"Sneh Nagar, Nanded - MPCB",23-07-2026 05:00:00,19.173852,77.296291,CO,22,26,24
India,Maharashtra,Nanded,"Sneh Nagar, Nanded - MPCB",23-07-2026 05:00:00,19.173852,77.296291,OZONE,18,28,22
India,Maharashtra,Nashik,"Hirawadi, Nashik - MPCB",23-07-2026 05:00:00,20.021503,73.813844,PM10,8,25,16
India,Maharashtra,Nashik,"Hirawadi, Nashik - MPCB",23-07-2026 05:00:00,20.021503,73.813844,NO2,2,9,4
India,Maharashtra,Nashik,"Hirawadi, Nashik - MPCB",23-07-2026 05:00:00,20.021503,73.813844,NH3,3,4,4
India,Maharashtra,Nashik,"Hirawadi, Nashik - MPCB",23-07-2026 05:00:00,20.021503,73.813844,CO,38,42,39
India,Maharashtra,Nashik,"Pandav Nagari, Nashik - MPCB",23-07-2026 05:00:00,19.9591346,73.7788008,PM2.5,5,20,11
India,Maharashtra,Nashik,"Pandav Nagari, Nashik - MPCB",23-07-2026 05:00:00,19.9591346,73.7788008,OZONE,13,14,13
India,Maharashtra,Nashik,"MIDC Ambad, Nashik - MPCB",23-07-2026 05:00:00,19.95022,73.73148,NH3,2,3,3
India,Maharashtra,Nashik,"Gangapur Road, Nashik - MPCB",23-07-2026 05:00:00,20.0073285,73.7762427,PM2.5,8,26,16
India,Maharashtra,Mumbai,"Mulund West, Mumbai - MPCB",23-07-2026 05:00:00,19.175,72.9419,SO2,NA,NA,NA
India,Maharashtra,Mumbai,"Kherwadi_Bandra East, Mumbai - MPCB",23-07-2026 05:00:00,19.0632143,72.8456324,PM10,24,34,29
India,Maharashtra,Mumbai,"Kherwadi_Bandra East, Mumbai - MPCB",23-07-2026 05:00:00,19.0632143,72.8456324,NO2,2,5,4
India,Maharashtra,Mumbai,"Kherwadi_Bandra East, Mumbai - MPCB",23-07-2026 05:00:00,19.0632143,72.8456324,NH3,4,4,4
India,Maharashtra,Mumbai,"Kherwadi_Bandra East, Mumbai - MPCB",23-07-2026 05:00:00,19.0632143,72.8456324,OZONE,8,19,13
India,Maharashtra,Mumbai,"Sewri, Mumbai - BMC",23-07-2026 05:00:00,19.000084,72.85673,PM10,35,47,41
India,Maharashtra,Mumbai,"Malad West, Mumbai - IITM",23-07-2026 05:00:00,19.19709,72.82204,NO2,12,30,24
India,Maharashtra,Mumbai,"Malad West, Mumbai - IITM",23-07-2026 05:00:00,19.19709,72.82204,SO2,3,135,14
India,Maharashtra,Mumbai,"Borivali East, Mumbai - IITM",23-07-2026 05:00:00,19.23241,72.86895,NH3,2,2,2
India,Maharashtra,Mumbai,"Borivali East, Mumbai - IITM",23-07-2026 05:00:00,19.23241,72.86895,OZONE,25,33,30
India,Maharashtra,Mumbai,"Bandra Kurla Complex, Mumbai - MPCB",23-07-2026 05:00:00,19.065931,72.862131,NO2,NA,NA,NA
India,Maharashtra,Mumbai,"Bandra Kurla Complex, Mumbai - MPCB",23-07-2026 05:00:00,19.065931,72.862131,NH3,NA,NA,NA
India,Maharashtra,Mumbai,"Bandra Kurla Complex, Mumbai - IITM",23-07-2026 05:00:00,19.053536,72.84643,SO2,2,5,4
India,Maharashtra,Ulhasnagar,"Vithalwadi, Ulhasnagar - MPCB",23-07-2026 05:00:00,19.2307571,73.155192,NO2,4,7,5
India,Maharashtra,Virar,"Bolinj, Virar - MPCB",23-07-2026 05:00:00,19.445821,72.7988231,NO2,16,24,21
India,Maharashtra,Virar,"Bolinj, Virar - MPCB",23-07-2026 05:00:00,19.445821,72.7988231,CO,3,30,15
India,Meghalaya,Byrnihat,"15th Mile-Nongthymmai, Byrnihat -Meghalaya PCB",23-07-2026 05:00:00,26.079047,91.875185,NO2,NA,NA,NA
India,Meghalaya,Shillong,"JN Stadium, Shillong - Meghalaya PCB",23-07-2026 05:00:00,25.5803419,91.8942571,SO2,15,29,26
India,Meghalaya,Shillong,"JN Stadium, Shillong - Meghalaya PCB",23-07-2026 05:00:00,25.5803419,91.8942571,CO,13,23,18
India,Odisha,Angul,"Hakimapada, Angul - OSPCB",23-07-2026 05:00:00,20.832874,85.104082,PM10,11,174,47
India,Odisha,Angul,"Hakimapada, Angul - OSPCB",23-07-2026 05:00:00,20.832874,85.104082,SO2,7,8,8
India,Odisha,Angul,"Hakimapada, Angul - OSPCB",23-07-2026 05:00:00,20.832874,85.104082,OZONE,15,15,15
India,Maharashtra,Navi Mumbai,"Tondare-Taloja, Navi Mumbai - MPCB",23-07-2026 05:00:00,19.063,73.1209,NO2,3,14,12
India,Maharashtra,Navi Mumbai,"Sector-2E Kalamboli, Navi Mumbai - MPCB",23-07-2026 05:00:00,19.02579,73.10297,CO,12,16,14
India,Maharashtra,Navi Mumbai,"Sector-2E Kalamboli, Navi Mumbai - MPCB",23-07-2026 05:00:00,19.02579,73.10297,OZONE,4,10,7
India,Maharashtra,Navi Mumbai,"Mahape, Navi Mumbai - MPCB",23-07-2026 05:00:00,19.1135051,73.008978,SO2,17,18,18
India,Maharashtra,Navi Mumbai,"Mahape, Navi Mumbai - MPCB",23-07-2026 05:00:00,19.1135051,73.008978,CO,56,57,56
India,Maharashtra,Navi Mumbai,"Sanpada, Navi Mumbai - MPCB",23-07-2026 05:00:00,19.0575752,73.0151367,PM10,20,32,27
India,Maharashtra,Navi Mumbai,"Nerul, Navi Mumbai - MPCB",23-07-2026 05:00:00,19.008751,73.01662,PM2.5,5,26,15
India,Maharashtra,Navi Mumbai,"Nerul, Navi Mumbai - MPCB",23-07-2026 05:00:00,19.008751,73.01662,OZONE,NA,NA,NA
India,Maharashtra,Parbhani,"Masoom Colony, Parbhani - MPCB",23-07-2026 05:00:00,19.265594,76.761463,NH3,3,6,4
India,Maharashtra,Mira-Bhayandar,"Bhayandar West, Mira-Bhayandar - MPCB",23-07-2026 05:00:00,19.296481,72.840923,PM2.5,14,25,20
India,Maharashtra,Mira-Bhayandar,"Bhayandar West, Mira-Bhayandar - MPCB",23-07-2026 05:00:00,19.296481,72.840923,NO2,1,3,1
India,Maharashtra,Mira-Bhayandar,"Bhayandar West, Mira-Bhayandar - MPCB",23-07-2026 05:00:00,19.296481,72.840923,NH3,4,4,4
India,Maharashtra,Mumbai,"Mindspace-Malad West, Mumbai - MPCB",23-07-2026 05:00:00,19.1878657,72.8304069,NH3,NA,NA,NA
India,Maharashtra,Mumbai,"Ghatkopar, Mumbai - BMC",23-07-2026 05:00:00,19.083694,72.920967,PM10,26,40,32
India,Maharashtra,Mumbai,"Ghatkopar, Mumbai - BMC",23-07-2026 05:00:00,19.083694,72.920967,NH3,4,8,5
India,Maharashtra,Mumbai,"Deonar, Mumbai - IITM",23-07-2026 05:00:00,19.04946,72.923,PM10,37,75,60
India,Maharashtra,Mumbai,"Deonar, Mumbai - IITM",23-07-2026 05:00:00,19.04946,72.923,NH3,9,11,10
India,Maharashtra,Mumbai,"Deonar, Mumbai - IITM",23-07-2026 05:00:00,19.04946,72.923,SO2,6,8,7
India,Maharashtra,Mumbai,"Mazgaon, Mumbai - IITM",23-07-2026 05:00:00,18.96702,72.84214,PM2.5,19,29,23
India,Maharashtra,Mumbai,"Worli, Mumbai - MPCB",23-07-2026 05:00:00,18.9936162,72.8128113,NO2,1,6,4
India,Maharashtra,Mumbai,"Worli, Mumbai - MPCB",23-07-2026 05:00:00,18.9936162,72.8128113,OZONE,8,10,9
India,Maharashtra,Mumbai,"Powai, Mumbai - MPCB",23-07-2026 05:00:00,19.1375,72.915056,OZONE,NA,NA,NA
India,Maharashtra,Mumbai,"Kurla, Mumbai - MPCB",23-07-2026 05:00:00,19.0863,72.8888,CO,25,25,25
India,Punjab,Mandi Gobindgarh,"RIMT University, Mandi Gobindgarh - PPCB",23-07-2026 05:00:00,30.649961,76.331442,PM10,81,133,123
India,Punjab,Mandi Gobindgarh,"RIMT University, Mandi Gobindgarh - PPCB",23-07-2026 05:00:00,30.649961,76.331442,NH3,5,5,5
India,Punjab,Patiala,"Model Town, Patiala - PPCB",23-07-2026 05:00:00,30.349388,76.366642,PM10,24,48,36
India,Punjab,Patiala,"Model Town, Patiala - PPCB",23-07-2026 05:00:00,30.349388,76.366642,NH3,6,7,6
India,Punjab,Patiala,"Model Town, Patiala - PPCB",23-07-2026 05:00:00,30.349388,76.366642,CO,19,24,22
India,Rajasthan,Ajmer,"Civil Lines,  Ajmer - RSPCB",23-07-2026 05:00:00,26.470859,74.646594,PM10,21,46,33
India,Rajasthan,Ajmer,"Civil Lines,  Ajmer - RSPCB",23-07-2026 05:00:00,26.470859,74.646594,NH3,6,8,6
India,Rajasthan,Ajmer,"Civil Lines,  Ajmer - RSPCB",23-07-2026 05:00:00,26.470859,74.646594,SO2,2,18,10
India,Rajasthan,Alwar,"Moti Doongri, Alwar - RSPCB",23-07-2026 05:00:00,27.554793,76.611536,PM10,80,89,84
India,Rajasthan,Banswara,"Rati Talai, Banswara - RSPCB",23-07-2026 05:00:00,23.55519,74.44001,NH3,1,6,3
India,Rajasthan,Baran,"Bamboliya, Baran - RSPCB",23-07-2026 05:00:00,25.106006,76.469948,SO2,5,11,8
India,Rajasthan,Baran,"Bamboliya, Baran - RSPCB",23-07-2026 05:00:00,25.106006,76.469948,OZONE,44,54,49
India,Rajasthan,Barmer,"Railway Colony, Barmer - RSPCB",23-07-2026 05:00:00,25.747299,71.393989,NH3,2,8,3
India,Rajasthan,Barmer,"Railway Colony, Barmer - RSPCB",23-07-2026 05:00:00,25.747299,71.393989,CO,66,72,70
India,Rajasthan,Bharatpur,"Krishna Nagar, Bharatpur - RSPCB",23-07-2026 05:00:00,27.215415,77.50873,PM10,6,64,31
India,Rajasthan,Bharatpur,"Krishna Nagar, Bharatpur - RSPCB",23-07-2026 05:00:00,27.215415,77.50873,NH3,4,14,7
India,Odisha,Cuttack,"CDA Area, Cuttack - OSPCB",23-07-2026 05:00:00,20.48891,85.84768,PM10,21,73,51
India,Odisha,Cuttack,"CDA Area, Cuttack - OSPCB",23-07-2026 05:00:00,20.48891,85.84768,CO,34,41,37
India,Odisha,Keonjhar,"Jagamohanpur, Keonjhar - OSPCB",23-07-2026 05:00:00,21.6439,85.599355,SO2,10,19,13
India,Odisha,Keonjhar,"Jagamohanpur, Keonjhar - OSPCB",23-07-2026 05:00:00,21.6439,85.599355,OZONE,6,11,8
India,Odisha,Rourkela,"Fertilizer Township, Rourkela - OSPCB",23-07-2026 05:00:00,22.18972222,84.86277778,NH3,NA,NA,NA
India,Odisha,Rourkela,"Sector-2, Rourkela - OSPCB",23-07-2026 05:00:00,22.245,84.88111111,CO,11,100,35
India,Odisha,Rourkela,"Sector-2, Rourkela - OSPCB",23-07-2026 05:00:00,22.245,84.88111111,OZONE,NA,NA,NA
India,Odisha,Suakati,"OMC Colony, Suakati - OSPCB",23-07-2026 05:00:00,21.606865,85.510538,PM10,24,56,35
India,Odisha,Suakati,"OMC Colony, Suakati - OSPCB",23-07-2026 05:00:00,21.606865,85.510538,CO,6,10,9
India,Odisha,Talcher,"Talcher Coalfields,Talcher - OSPCB",23-07-2026 05:00:00,20.9360711,85.1707021,NO2,32,84,60
India,Odisha,Talcher,"Talcher Coalfields,Talcher - OSPCB",23-07-2026 05:00:00,20.9360711,85.1707021,OZONE,15,17,16
India,Odisha,Tensa,"Barsua Iron Ore Mines, Tensa - OSPCB",23-07-2026 05:00:00,21.869985,85.167016,PM2.5,9,10,10
India,Odisha,Tensa,"Barsua Iron Ore Mines, Tensa - OSPCB",23-07-2026 05:00:00,21.869985,85.167016,NO2,NA,NA,NA
India,Rajasthan,Pratapgarh,"Pragati Nagar, Pratapgarh - RSPCB",23-07-2026 05:00:00,24.041198,74.780702,SO2,2,5,2
India,Rajasthan,Rajsamand,"Dhoinda, Rajsamand - RSPCB",23-07-2026 05:00:00,25.03636,73.883502,NH3,7,15,10
India,Rajasthan,Rajsamand,"Dhoinda, Rajsamand - RSPCB",23-07-2026 05:00:00,25.03636,73.883502,CO,27,47,31
India,Rajasthan,Rajsamand,"Dhoinda, Rajsamand - RSPCB",23-07-2026 05:00:00,25.03636,73.883502,OZONE,19,66,36
India,Rajasthan,Sawai Madhopur,"Sahu Nagar, Sawai Madhopur - RSPCB",23-07-2026 05:00:00,26.031443,76.359327,OZONE,20,58,30
India,Rajasthan,Sirohi,"Vedhaynath Colony, Sirohi - RSPCB",23-07-2026 05:00:00,24.885261,72.857549,PM10,17,82,50
India,Rajasthan,Sirohi,"Vedhaynath Colony, Sirohi - RSPCB",23-07-2026 05:00:00,24.885261,72.857549,NO2,6,24,10
India,Rajasthan,Sirohi,"Vedhaynath Colony, Sirohi - RSPCB",23-07-2026 05:00:00,24.885261,72.857549,SO2,5,8,6
India,Rajasthan,Sirohi,"Vedhaynath Colony, Sirohi - RSPCB",23-07-2026 05:00:00,24.885261,72.857549,OZONE,20,46,33
India,Rajasthan,Sri Ganganagar,"Old City, Sri Ganganagar - RSPCB",23-07-2026 05:00:00,29.931624,73.864511,NO2,13,79,36
India,Rajasthan,Sri Ganganagar,"Old City, Sri Ganganagar - RSPCB",23-07-2026 05:00:00,29.931624,73.864511,OZONE,13,62,28
India,Rajasthan,Tonk,"Shastri Nagar, Tonk - RSPCB",23-07-2026 05:00:00,26.159933,75.780517,SO2,0,3,2
India,Rajasthan,Jodhpur,"Jhalamand, Jodhpur - RSPCB",23-07-2026 05:00:00,26.215415,73.070156,NO2,4,25,12
India,Rajasthan,Jodhpur,"Jhalamand, Jodhpur - RSPCB",23-07-2026 05:00:00,26.215415,73.070156,CO,13,16,14
India,Rajasthan,Jodhpur,"Collectorate, Jodhpur - RSPCB",23-07-2026 05:00:00,26.268249,73.0193853,PM10,12,78,45
India,Rajasthan,Khairthal,"New Anaj Mandi, Khairthal - RSPCB",23-07-2026 05:00:00,27.8015617,76.6365217,NH3,3,9,5
India,Rajasthan,Khairthal,"New Anaj Mandi, Khairthal - RSPCB",23-07-2026 05:00:00,27.8015617,76.6365217,SO2,3,4,4
India,Rajasthan,Kota,"Dhanmandi, Kota - RSPCB",23-07-2026 05:00:00,25.16409,75.858137,SO2,5,9,6
India,Rajasthan,Kota,"Nayapura, Kota - RSPCB",23-07-2026 05:00:00,25.196024,75.855668,NO2,12,29,19
India,Rajasthan,Nagaur,"Karni Colony, Nagaur - RSPCB",23-07-2026 05:00:00,27.213494,73.734444,NH3,NA,NA,NA
India,Rajasthan,Nagaur,"Karni Colony, Nagaur - RSPCB",23-07-2026 05:00:00,27.213494,73.734444,OZONE,11,15,13
India,Rajasthan,Pali,"Indira Colony Vistar, Pali - RSPCB",23-07-2026 05:00:00,25.771061,73.340227,NO2,21,36,27
India,Rajasthan,Pali,"Indira Colony Vistar, Pali - RSPCB",23-07-2026 05:00:00,25.771061,73.340227,SO2,0,9,5
India,Rajasthan,Bhilwara,"Pratap Nagar, Bhilwara - RSPCB",23-07-2026 05:00:00,25.339605,74.618883,CO,12,14,13
India,Rajasthan,Bhilwara,"Pratap Nagar, Bhilwara - RSPCB",23-07-2026 05:00:00,25.339605,74.618883,OZONE,11,21,15
India,Rajasthan,Bhiwadi,"Vasundhara Nagar_UIT, Bhiwadi - RSPCB",23-07-2026 05:00:00,28.207266,76.829265,PM2.5,15,144,55
India,Rajasthan,Bhiwadi,"Vasundhara Nagar_UIT, Bhiwadi - RSPCB",23-07-2026 05:00:00,28.207266,76.829265,NO2,9,67,23
India,Rajasthan,Bhiwadi,"Vasundhara Nagar_UIT, Bhiwadi - RSPCB",23-07-2026 05:00:00,28.207266,76.829265,NH3,5,19,8
India,Rajasthan,Bikaner,"MM Ground, Bikaner - RSPCB",23-07-2026 05:00:00,28.018792,73.292658,PM10,NA,NA,NA
India,Rajasthan,Bikaner,"MM Ground, Bikaner - RSPCB",23-07-2026 05:00:00,28.018792,73.292658,NH3,4,5,4
India,Rajasthan,Bundi,"New Colony, Bundi - RSPCB",23-07-2026 05:00:00,25.435774,75.644272,NO2,17,58,31
India,Rajasthan,Chittorgarh,"Shastri Nagar, Chittorgarh - RSPCB",23-07-2026 05:00:00,24.892047,74.623527,PM2.5,NA,NA,NA
India,Rajasthan,Chittorgarh,"Shastri Nagar, Chittorgarh - RSPCB",23-07-2026 05:00:00,24.892047,74.623527,CO,1,9,4
India,Rajasthan,Churu,"Subash Chowk, Churu - RSPCB",23-07-2026 05:00:00,28.296139,74.961696,OZONE,15,24,20
India,Rajasthan,Dungarpur,"Bhoiwada, Dungarpur - RSPCB",23-07-2026 05:00:00,23.837789,73.714926,PM10,17,100,52
India,Rajasthan,Jaipur,"Shastri Nagar, Jaipur - RSPCB",23-07-2026 05:00:00,26.9502929,75.730943,CO,25,47,35
India,Rajasthan,Jaipur,"Sector-2 Murlipura, Jaipur - RSPCB",23-07-2026 05:00:00,26.960669,75.771817,CO,52,104,72
India,Rajasthan,Jaipur,"RIICO Sitapura, Jaipur - RSPCB",23-07-2026 05:00:00,26.786682,75.827928,PM2.5,3,47,23
India,Rajasthan,Jaipur,"RIICO Sitapura, Jaipur - RSPCB",23-07-2026 05:00:00,26.786682,75.827928,PM10,13,59,29
India,Rajasthan,Jaipur,"RIICO Sitapura, Jaipur - RSPCB",23-07-2026 05:00:00,26.786682,75.827928,NH3,0,2,2
India,Rajasthan,Jaipur,"RIICO Sitapura, Jaipur - RSPCB",23-07-2026 05:00:00,26.786682,75.827928,OZONE,13,45,24
India,Rajasthan,Jaipur,"Adarsh Nagar, Jaipur - RSPCB",23-07-2026 05:00:00,26.902909,75.836858,NH3,4,9,7
India,Rajasthan,Jaipur,"Adarsh Nagar, Jaipur - RSPCB",23-07-2026 05:00:00,26.902909,75.836858,SO2,14,64,33
India,Rajasthan,Jaipur,"Adarsh Nagar, Jaipur - RSPCB",23-07-2026 05:00:00,26.902909,75.836858,OZONE,24,33,29
India,Rajasthan,Jaipur,"Mansarovar Sector-12, Jaipur - RSPCB",23-07-2026 05:00:00,26.843698,75.766894,NH3,NA,NA,NA
India,Rajasthan,Jaipur,"Mansarovar Sector-12, Jaipur - RSPCB",23-07-2026 05:00:00,26.843698,75.766894,CO,5,54,23
India,Rajasthan,Jaipur,"Police Commissionerate, Jaipur - RSPCB",23-07-2026 05:00:00,26.9164092,75.7994901,SO2,4,28,12
India,Rajasthan,Jaipur,"Police Commissionerate, Jaipur - RSPCB",23-07-2026 05:00:00,26.9164092,75.7994901,OZONE,37,42,40
India,Rajasthan,Jhalawar,"Rajlaxmi Nagar, Jhalawar - RSPCB",23-07-2026 05:00:00,24.588397,76.172782,SO2,6,8,7
India,Rajasthan,Jhalawar,"Rajlaxmi Nagar, Jhalawar - RSPCB",23-07-2026 05:00:00,24.588397,76.172782,CO,27,35,30
India,Rajasthan,Jhunjhunu,"Indra Nagar, Jhunjhunu - RSPCB",23-07-2026 05:00:00,28.108988,75.386577,OZONE,12,81,41
India,Rajasthan,Jodhpur,"Digari Kalan, Jodhpur - RSPCB",23-07-2026 05:00:00,26.29581,73.082283,SO2,7,12,9
India,Rajasthan,Jodhpur,"Digari Kalan, Jodhpur - RSPCB",23-07-2026 05:00:00,26.29581,73.082283,OZONE,4,32,21
India,Rajasthan,Jodhpur,"Mandor, Jodhpur - RSPCB",23-07-2026 05:00:00,26.358805,73.047444,NO2,4,27,8
India,Rajasthan,Jodhpur,"Mandor, Jodhpur - RSPCB",23-07-2026 05:00:00,26.358805,73.047444,OZONE,36,56,45
India,Odisha,Balasore,"Kalidaspur, Balasore - OSPCB",23-07-2026 05:00:00,21.51161,86.89088,NO2,1,27,11
India,Odisha,Baripada,"Meher Colony, Baripada - OSPCB",23-07-2026 05:00:00,21.941841,86.728318,NH3,1,3,2
India,Odisha,Baripada,"Meher Colony, Baripada - OSPCB",23-07-2026 05:00:00,21.941841,86.728318,SO2,4,13,7
India,Odisha,Baripada,"Meher Colony, Baripada - OSPCB",23-07-2026 05:00:00,21.941841,86.728318,CO,5,16,11
India,Odisha,Bhubaneswar,"Patia, Bhubaneswar - OSPCB",23-07-2026 05:00:00,20.34652,85.8163,SO2,5,10,8
India,Odisha,Bileipada,"Tata Township, Bileipada - OSPCB",23-07-2026 05:00:00,22.06156703,85.47409613,SO2,7,8,8
India,Odisha,Brajrajnagar,"GM Office, Brajrajnagar - OSPCB",23-07-2026 05:00:00,21.8004996,83.8396977,NH3,5,5,5
India,Odisha,Brajrajnagar,"GM Office, Brajrajnagar - OSPCB",23-07-2026 05:00:00,21.8004996,83.8396977,OZONE,42,44,42
India,Odisha,Byasanagar,"Ferro Chrome Colony, Byasanagar - OSPCB",23-07-2026 05:00:00,20.94185,86.1151,PM10,30,61,45
India,Puducherry,Puducherry,"Jawahar Nagar, Puducherry - PPCC",23-07-2026 05:00:00,11.9309,79.8027,CO,12,20,14
India,Puducherry,Puducherry,"Jawahar Nagar, Puducherry - PPCC",23-07-2026 05:00:00,11.9309,79.8027,OZONE,20,26,23
India,Punjab,Jalandhar,"Civil Line, Jalandhar - PPCB",23-07-2026 05:00:00,31.321907,75.578914,PM2.5,15,37,28
India,Punjab,Jalandhar,"Civil Line, Jalandhar - PPCB",23-07-2026 05:00:00,31.321907,75.578914,CO,28,30,29
India,Punjab,Ludhiana,"Punjab Agricultural University, Ludhiana - PPCB",23-07-2026 05:00:00,30.9028,75.8086,PM2.5,59,88,69
India,Tamil Nadu,Cuddalore,"Kudikadu, Cuddalore - TNPCB",23-07-2026 05:00:00,11.6829898,79.7532099,CO,NA,NA,NA
India,Tamil Nadu,Cuddalore,"Semmandalam, Cuddalore - TNPCB",23-07-2026 05:00:00,11.7637683,79.7499835,PM2.5,NA,NA,NA
India,Tamil Nadu,Gummidipoondi,"Anthoni Pillai Nagar, Gummidipoondi - TNPCB",23-07-2026 05:00:00,13.4127,80.1081,NH3,0,1,1
India,Tamil Nadu,Gummidipoondi,"Anthoni Pillai Nagar, Gummidipoondi - TNPCB",23-07-2026 05:00:00,13.4127,80.1081,CO,NA,NA,NA
India,Tamil Nadu,Madurai,"Uchapatti, Madurai - TNPCB",23-07-2026 05:00:00,9.865935,78.022669,NH3,9,9,9
India,Tamil Nadu,Madurai,"Uchapatti, Madurai - TNPCB",23-07-2026 05:00:00,9.865935,78.022669,SO2,54,57,55
India,Tamil Nadu,Madurai,"Uchapatti, Madurai - TNPCB",23-07-2026 05:00:00,9.865935,78.022669,OZONE,1,1,1
India,Tamil Nadu,Ramanathapuram,"Chalai Bazaar, Ramanathapuram - TNPCB",23-07-2026 05:00:00,9.36399,78.831977,NH3,NA,NA,NA
India,Tamil Nadu,Ramanathapuram,"Chalai Bazaar, Ramanathapuram - TNPCB",23-07-2026 05:00:00,9.36399,78.831977,SO2,NA,NA,NA
India,Tamil Nadu,Ramanathapuram,"Chalai Bazaar, Ramanathapuram - TNPCB",23-07-2026 05:00:00,9.36399,78.831977,CO,NA,NA,NA
India,Tamil Nadu,Ramanathapuram,"Chalai Bazaar, Ramanathapuram - TNPCB",23-07-2026 05:00:00,9.36399,78.831977,OZONE,5,6,5
India,Tamil Nadu,Thoothukudi,"Meelavittan, Thoothukudi - TNPCB",23-07-2026 05:00:00,8.816428,78.099039,NO2,12,22,17
India,Tamil Nadu,Thoothukudi,"Meelavittan, Thoothukudi - TNPCB",23-07-2026 05:00:00,8.816428,78.099039,NH3,NA,NA,NA
India,Telangana,Hyderabad,"ICRISAT Patancheru, Hyderabad - TSPCB",23-07-2026 05:00:00,17.5184,78.278777,NH3,2,2,2
India,Telangana,Hyderabad,"ICRISAT Patancheru, Hyderabad - TSPCB",23-07-2026 05:00:00,17.5184,78.278777,CO,9,33,19
India,Telangana,Hyderabad,"Central University, Hyderabad - TSPCB",23-07-2026 05:00:00,17.460103,78.334361,SO2,1,13,8
India,Telangana,Hyderabad,"Central University, Hyderabad - TSPCB",23-07-2026 05:00:00,17.460103,78.334361,OZONE,9,11,10
India,Uttar Pradesh,Lucknow,"Kukrail Picnic Spot-1, Lucknow - UPPCB",23-07-2026 05:00:00,26.90723,80.98579,NH3,6,6,6
India,Uttar Pradesh,Lucknow,"B R Ambedkar University, Lucknow - UPPCB",23-07-2026 05:00:00,26.766433,80.927299,CO,23,26,24
India,Uttar Pradesh,Lucknow,"B R Ambedkar University, Lucknow - UPPCB",23-07-2026 05:00:00,26.766433,80.927299,OZONE,16,69,39
India,Uttar Pradesh,Lucknow,"Talkatora District Industries Center, Lucknow - CPCB",23-07-2026 05:00:00,26.83399722,80.8917361,PM2.5,24,65,43
India,Uttar Pradesh,Lucknow,"Talkatora District Industries Center, Lucknow - CPCB",23-07-2026 05:00:00,26.83399722,80.8917361,NO2,16,25,19
India,Uttar Pradesh,Lucknow,"Talkatora District Industries Center, Lucknow - CPCB",23-07-2026 05:00:00,26.83399722,80.8917361,OZONE,11,22,14
India,Uttar Pradesh,Lucknow,"Lalbagh, Lucknow - CPCB",23-07-2026 05:00:00,26.8458805,80.9365541,NO2,18,31,22
India,Uttar Pradesh,Lucknow,"Lalbagh, Lucknow - CPCB",23-07-2026 05:00:00,26.8458805,80.9365541,SO2,3,9,6
India,Uttar Pradesh,Lucknow,"Gomti Nagar, Lucknow - UPPCB",23-07-2026 05:00:00,26.86812,81.005119,PM2.5,6,61,28
India,Uttar Pradesh,Lucknow,"Gomti Nagar, Lucknow - UPPCB",23-07-2026 05:00:00,26.86812,81.005119,NO2,9,10,9
India,Uttar Pradesh,Lucknow,"Gomti Nagar, Lucknow - UPPCB",23-07-2026 05:00:00,26.86812,81.005119,NH3,NA,NA,NA
India,Uttar Pradesh,Lucknow,"Gomti Nagar, Lucknow - UPPCB",23-07-2026 05:00:00,26.86812,81.005119,OZONE,39,41,40
India,Uttar Pradesh,Mathura,"Pali Dungra, Mathura - UPPCB",23-07-2026 05:00:00,27.410954,77.550619,PM2.5,20,60,28
India,Uttar Pradesh,Mathura,"Pali Dungra, Mathura - UPPCB",23-07-2026 05:00:00,27.410954,77.550619,NH3,NA,NA,NA
India,Uttar Pradesh,Meerut,"Jai Bhim Nagar, Meerut - UPPCB",23-07-2026 05:00:00,28.9535882,77.7622941,PM2.5,2,20,9
India,Uttar Pradesh,Meerut,"Jai Bhim Nagar, Meerut - UPPCB",23-07-2026 05:00:00,28.9535882,77.7622941,SO2,4,6,5
India,Uttar Pradesh,Meerut,"Jai Bhim Nagar, Meerut - UPPCB",23-07-2026 05:00:00,28.9535882,77.7622941,OZONE,10,18,13
India,Telangana,Hyderabad,"ECIL Kapra, Hyderabad - TSPCB",23-07-2026 05:00:00,17.470431,78.566959,PM2.5,31,45,38
India,Telangana,Hyderabad,"ECIL Kapra, Hyderabad - TSPCB",23-07-2026 05:00:00,17.470431,78.566959,CO,15,20,17
India,Telangana,Hyderabad,"Sanathnagar, Hyderabad - TSPCB",23-07-2026 05:00:00,17.4559458,78.4332152,OZONE,13,19,17
India,Telangana,Hyderabad,"Somajiguda, Hyderabad - TSPCB",23-07-2026 05:00:00,17.417094,78.457437,PM2.5,20,43,30
India,Telangana,Hyderabad,"Somajiguda, Hyderabad - TSPCB",23-07-2026 05:00:00,17.417094,78.457437,NH3,2,3,3
India,Telangana,Hyderabad,"Somajiguda, Hyderabad - TSPCB",23-07-2026 05:00:00,17.417094,78.457437,OZONE,24,25,25
India,Tripura,Agartala,"Bardowali, Agartala - Tripura SPCB",23-07-2026 05:00:00,23.8175497,91.2726974,PM10,38,95,61
India,Tripura,Agartala,"Bardowali, Agartala - Tripura SPCB",23-07-2026 05:00:00,23.8175497,91.2726974,SO2,9,10,9
India,Tripura,Agartala,"Bardowali, Agartala - Tripura SPCB",23-07-2026 05:00:00,23.8175497,91.2726974,OZONE,9,10,10
India,Uttar Pradesh,Agra,"Sanjay Palace, Agra - UPPCB",23-07-2026 05:00:00,27.19865833,78.00598056,PM2.5,NA,NA,NA
India,Uttar Pradesh,Agra,"Manoharpur, Agra - UPPCB",23-07-2026 05:00:00,27.23711,78.01936,PM2.5,78,111,91
India,Uttar Pradesh,Agra,"Manoharpur, Agra - UPPCB",23-07-2026 05:00:00,27.23711,78.01936,OZONE,5,5,5
India,Uttar Pradesh,Agra,"Shahjahan Garden, Agra - UPPCB",23-07-2026 05:00:00,27.169338,78.03582,NH3,1,1,1
India,Uttar Pradesh,Meerut,"MIET College, Meerut - UPPCB",23-07-2026 05:00:00,28.972677,77.641018,NH3,6,7,7
India,Uttar Pradesh,Meerut,"MIET College, Meerut - UPPCB",23-07-2026 05:00:00,28.972677,77.641018,OZONE,4,7,5
India,Uttar Pradesh,Meerut,"Pallavpuram Phase 2, Meerut - UPPCB",23-07-2026 05:00:00,29.06351,77.709723,SO2,4,21,11
India,Uttar Pradesh,Modinagar,"SRM University, Modinagar - UPPCB",23-07-2026 05:00:00,28.798171,77.540243,PM2.5,23,50,36
India,Uttar Pradesh,Moradabad,"Eco Herbal Park, Moradabad - UPPCB",23-07-2026 05:00:00,28.840739,78.697531,PM2.5,2,50,22
India,Uttar Pradesh,Moradabad,"Kashiram Nagar, Moradabad - UPPCB",23-07-2026 05:00:00,28.849399,78.742362,CO,28,43,34
India,Uttar Pradesh,Moradabad,"Kashiram Nagar, Moradabad - UPPCB",23-07-2026 05:00:00,28.849399,78.742362,OZONE,28,47,38
India,Uttar Pradesh,Moradabad,"Employment Office, Moradabad - UPPCB",23-07-2026 05:00:00,28.88528,78.7388,CO,11,14,13
India,Uttar Pradesh,Moradabad,"Employment Office, Moradabad - UPPCB",23-07-2026 05:00:00,28.88528,78.7388,OZONE,17,52,35
India,Uttar Pradesh,Moradabad,"Buddhi Vihar, Moradabad - UPPCB",23-07-2026 05:00:00,28.83526,78.7446,PM2.5,5,35,18
India,Uttar Pradesh,Moradabad,"Buddhi Vihar, Moradabad - UPPCB",23-07-2026 05:00:00,28.83526,78.7446,NO2,28,29,29
India,Uttar Pradesh,Moradabad,"Buddhi Vihar, Moradabad - UPPCB",23-07-2026 05:00:00,28.83526,78.7446,NH3,5,5,5
India,Uttar Pradesh,Moradabad,"Buddhi Vihar, Moradabad - UPPCB",23-07-2026 05:00:00,28.83526,78.7446,SO2,25,25,25
India,Uttar Pradesh,Greater Noida,"Knowledge Park - III, Greater Noida - UPPCB",23-07-2026 05:00:00,28.47272,77.482,PM2.5,2,55,27
India,Uttar Pradesh,Greater Noida,"Knowledge Park - III, Greater Noida - UPPCB",23-07-2026 05:00:00,28.47272,77.482,SO2,4,9,6
India,Uttar Pradesh,Hapur,"Anand Vihar, Hapur - UPPCB",23-07-2026 05:00:00,28.725645,77.749675,NH3,1,1,1
India,Uttar Pradesh,Hapur,"Anand Vihar, Hapur - UPPCB",23-07-2026 05:00:00,28.725645,77.749675,SO2,14,18,17
India,Uttar Pradesh,Hapur,"Anand Vihar, Hapur - UPPCB",23-07-2026 05:00:00,28.725645,77.749675,OZONE,11,19,14
India,Uttar Pradesh,Jhansi,"Shivaji Nagar, Jhansi - UPPCB",23-07-2026 05:00:00,25.4547,78.6039,OZONE,5,6,6
India,Uttar Pradesh,Kanpur,"FTI Kidwai Nagar, Kanpur - UPPCB",23-07-2026 05:00:00,26.428282,80.327067,NO2,26,27,27
India,Uttar Pradesh,Kanpur,"FTI Kidwai Nagar, Kanpur - UPPCB",23-07-2026 05:00:00,26.428282,80.327067,OZONE,11,11,11
India,Uttar Pradesh,Kanpur,"Nehru Nagar, Kanpur - UPPCB",23-07-2026 05:00:00,26.4703136,80.3229863,NH3,NA,NA,NA
India,Uttar Pradesh,Kanpur,"Nehru Nagar, Kanpur - UPPCB",23-07-2026 05:00:00,26.4703136,80.3229863,CO,47,54,50
India,Uttar Pradesh,Kanpur,"NSI Kalyanpur, Kanpur - UPPCB",23-07-2026 05:00:00,26.509954,80.249612,NH3,2,2,2
India,Uttar Pradesh,Khora,"Prashant Garden, Khora - UPPCB",23-07-2026 05:00:00,28.61119,77.34206,CO,101,105,103
India,Uttar Pradesh,Agra,"Sector-3B Avas Vikas Colony, Agra - UPPCB",23-07-2026 05:00:00,27.19412,77.96237,PM2.5,8,56,41
India,Uttar Pradesh,Agra,"Sector-3B Avas Vikas Colony, Agra - UPPCB",23-07-2026 05:00:00,27.19412,77.96237,NH3,8,9,8
India,Uttar Pradesh,Baghpat,"Sardar Patel Inter College, Baghpat - UPPCB",23-07-2026 05:00:00,28.964949,77.278761,OZONE,21,38,27
India,Uttar Pradesh,Bareilly,"Civil Lines, Bareilly - UPPCB",23-07-2026 05:00:00,28.359581,79.414455,NH3,3,7,5
India,Uttar Pradesh,Bulandshahr,"Yamunapuram, Bulandshahr - UPPCB",23-07-2026 05:00:00,28.406963,77.849831,PM2.5,13,36,23
India,Uttar Pradesh,Bulandshahr,"Yamunapuram, Bulandshahr - UPPCB",23-07-2026 05:00:00,28.406963,77.849831,CO,26,32,28
India,Uttar Pradesh,Firozabad,"Vibhab Nagar, Firozabad - UPPCB",23-07-2026 05:00:00,27.1594,78.3953,PM2.5,13,33,22
India,Uttar Pradesh,Firozabad,"Vibhab Nagar, Firozabad - UPPCB",23-07-2026 05:00:00,27.1594,78.3953,NO2,15,15,15
India,Uttar Pradesh,Firozabad,"Nagla Bhau, Firozabad - UPPCB",23-07-2026 05:00:00,27.168897,78.37696,NH3,2,2,2
India,Uttar Pradesh,Firozabad,"Nagla Bhau, Firozabad - UPPCB",23-07-2026 05:00:00,27.168897,78.37696,OZONE,10,11,11
India,Uttar Pradesh,Ghaziabad,"Vasundhara, Ghaziabad - UPPCB",23-07-2026 05:00:00,28.6603346,77.3572563,OZONE,19,25,21
India,Tamil Nadu,Chennai,"Perungudi, Chennai - TNPCB",23-07-2026 05:00:00,12.9533,80.2357,PM10,32,363,162
India,Tamil Nadu,Chennai,"Perungudi, Chennai - TNPCB",23-07-2026 05:00:00,12.9533,80.2357,NO2,3,10,6
India,Tamil Nadu,Chennai,"Manali Village, Chennai - TNPCB",23-07-2026 05:00:00,13.1662,80.2584,PM2.5,16,42,29
India,Tamil Nadu,Chennai,"Manali Village, Chennai - TNPCB",23-07-2026 05:00:00,13.1662,80.2584,NH3,1,2,2
India,Tamil Nadu,Chennai,"Arumbakkam, Chennai - TNPCB",23-07-2026 05:00:00,13.0664,80.2112,NH3,3,7,5
India,Tamil Nadu,Chennai,"Manali, Chennai - CPCB",23-07-2026 05:00:00,13.164544,80.26285,OZONE,8,8,8
India,Tamil Nadu,Chennai,"Kodungaiyur, Chennai - TNPCB",23-07-2026 05:00:00,13.1278,80.2642,PM2.5,29,57,41
India,Tamil Nadu,Chennai,"Kodungaiyur, Chennai - TNPCB",23-07-2026 05:00:00,13.1278,80.2642,SO2,5,7,6
India,Tamil Nadu,Coimbatore,"SIDCO Kurichi, Coimbatore - TNPCB",23-07-2026 05:00:00,10.942451,76.978996,PM10,12,29,20
India,Tamil Nadu,Coimbatore,"SIDCO Kurichi, Coimbatore - TNPCB",23-07-2026 05:00:00,10.942451,76.978996,CO,10,13,11
India,Tamil Nadu,Cuddalore,"Kudikadu, Cuddalore - TNPCB",23-07-2026 05:00:00,11.6829898,79.7532099,PM10,NA,NA,NA
India,Uttar Pradesh,Ghaziabad,"Indirapuram, Ghaziabad - UPPCB",23-07-2026 05:00:00,28.646233,77.358075,NH3,2,3,3
India,Uttar Pradesh,Ghaziabad,"Indirapuram, Ghaziabad - UPPCB",23-07-2026 05:00:00,28.646233,77.358075,SO2,15,19,17
India,Uttar Pradesh,Ghaziabad,"Loni, Ghaziabad - UPPCB",23-07-2026 05:00:00,28.757294,77.278792,PM2.5,NA,NA,NA
India,Uttar Pradesh,Ghaziabad,"Govindpuram, Ghaziabad - UPPCB",23-07-2026 05:00:00,28.694528,77.494705,NO2,10,16,13
India,Uttar Pradesh,Ghaziabad,"Govindpuram, Ghaziabad - UPPCB",23-07-2026 05:00:00,28.694528,77.494705,NH3,4,5,5
India,Uttar Pradesh,Ghaziabad,"Sanjay Nagar, Ghaziabad - UPPCB",23-07-2026 05:00:00,28.685382,77.453839,PM2.5,14,97,36
India,Uttar Pradesh,Ghaziabad,"Sanjay Nagar, Ghaziabad - UPPCB",23-07-2026 05:00:00,28.685382,77.453839,PM10,21,95,48
India,Uttar Pradesh,Ghaziabad,"Sanjay Nagar, Ghaziabad - UPPCB",23-07-2026 05:00:00,28.685382,77.453839,CO,17,62,27
India,Uttar Pradesh,Ghaziabad,"Sanjay Nagar, Ghaziabad - UPPCB",23-07-2026 05:00:00,28.685382,77.453839,OZONE,11,16,13
India,Uttar Pradesh,Gorakhpur,"Madan Mohan Malaviya University of Technology, Gorakhpur - UPPCB",23-07-2026 05:00:00,26.730136,83.433859,PM10,NA,NA,NA
India,Telangana,Hyderabad,"IDA Pashamylaram, Hyderabad - TSPCB",23-07-2026 05:00:00,17.5316895,78.218939,SO2,4,17,9
India,Telangana,Hyderabad,"New Malakpet, Hyderabad - TSPCB",23-07-2026 05:00:00,17.37206,78.50864,PM10,45,49,46
India,Telangana,Hyderabad,"New Malakpet, Hyderabad - TSPCB",23-07-2026 05:00:00,17.37206,78.50864,NH3,1,3,2
India,Telangana,Hyderabad,"Ramachandrapuram, Hyderabad - TSPCB",23-07-2026 05:00:00,17.528544,78.286195,CO,22,25,24
India,Telangana,Hyderabad,"Ramachandrapuram, Hyderabad - TSPCB",23-07-2026 05:00:00,17.528544,78.286195,OZONE,18,19,19
India,Telangana,Hyderabad,"IITH Kandi, Hyderabad - TSPCB",23-07-2026 05:00:00,17.585705,78.126199,PM10,42,55,51
India,Telangana,Hyderabad,"IITH Kandi, Hyderabad - TSPCB",23-07-2026 05:00:00,17.585705,78.126199,SO2,6,12,8
India,Telangana,Hyderabad,"Zoo Park, Hyderabad - TSPCB",23-07-2026 05:00:00,17.349694,78.451437,SO2,2,2,2
India,Telangana,Hyderabad,"Zoo Park, Hyderabad - TSPCB",23-07-2026 05:00:00,17.349694,78.451437,OZONE,4,4,4
India,Uttar Pradesh,Moradabad,"Transport Nagar, Moradabad - UPPCB",23-07-2026 05:00:00,28.802625,78.753728,NO2,24,24,24
India,Uttar Pradesh,Moradabad,"Transport Nagar, Moradabad - UPPCB",23-07-2026 05:00:00,28.802625,78.753728,OZONE,32,36,34
India,Uttar Pradesh,Moradabad,"Jigar Colony, Moradabad - UPPCB",23-07-2026 05:00:00,28.856664,78.772638,NH3,6,6,6
India,Uttar Pradesh,Moradabad,"Jigar Colony, Moradabad - UPPCB",23-07-2026 05:00:00,28.856664,78.772638,SO2,25,59,35
India,Uttar Pradesh,Noida,"Sector-116, Noida - UPPCB",23-07-2026 05:00:00,28.56923,77.393848,PM2.5,9,85,45
India,Uttar Pradesh,Noida,"Sector-116, Noida - UPPCB",23-07-2026 05:00:00,28.56923,77.393848,CO,12,24,18
India,Uttar Pradesh,Noida,"Sector-116, Noida - UPPCB",23-07-2026 05:00:00,28.56923,77.393848,OZONE,30,46,37
India,Uttar Pradesh,Noida,"Sector - 125, Noida - UPPCB",23-07-2026 05:00:00,28.5447608,77.3231257,PM10,29,75,48
India,Uttar Pradesh,Noida,"Sector - 125, Noida - UPPCB",23-07-2026 05:00:00,28.5447608,77.3231257,SO2,5,10,7
India,Uttar Pradesh,Noida,"Sector-1, Noida - UPPCB",23-07-2026 05:00:00,28.5898,77.3101,NH3,8,13,11
India,Uttar Pradesh,Noida,"Sector - 62, Noida - IITM",23-07-2026 05:00:00,28.6245479,77.3577104,OZONE,25,35,31
India,Uttar Pradesh,Prayagraj,"Jhunsi, Prayagraj - UPPCB",23-07-2026 05:00:00,25.425602,81.917152,CO,5,14,10
India,Uttar Pradesh,Raebareli,"Anand Nagar, Raebareli - UPPCB",23-07-2026 05:00:00,26.219512,81.237648,PM10,41,103,65
India,Uttar Pradesh,Shamli,"New Tehsil, Shamli - UPPCB",23-07-2026 05:00:00,29.4603683,77.3410291,SO2,3,9,6
India,Uttar Pradesh,Varanasi,"Ardhali Bazar, Varanasi - UPPCB",23-07-2026 05:00:00,25.3505986,82.9083074,OZONE,21,29,25
India,Uttar Pradesh,Varanasi,"Bhelupur, Varanasi - UPPCB",23-07-2026 05:00:00,25.301778,82.996789,NH3,1,1,1
India,Uttar Pradesh,Varanasi,"Bhelupur, Varanasi - UPPCB",23-07-2026 05:00:00,25.301778,82.996789,SO2,29,32,29
India,Uttar Pradesh,Varanasi,"IESD Banaras Hindu University, Varanasi - UPPCB",23-07-2026 05:00:00,25.262326,82.995408,NH3,3,6,5
India,Uttar Pradesh,Varanasi,"Maldahiya, Varanasi - UPPCB",23-07-2026 05:00:00,25.32393,82.99687,PM2.5,7,79,23
India,Uttar Pradesh,Varanasi,"Maldahiya, Varanasi - UPPCB",23-07-2026 05:00:00,25.32393,82.99687,NO2,2,7,3
India,Uttar Pradesh,Vrindavan,"Omex Eternity, Vrindavan - UPPCB",23-07-2026 05:00:00,27.571409,77.655757,OZONE,15,16,15
India,Uttarakhand,Dehradun,"Doon University, Dehradun - UKPCB",23-07-2026 05:00:00,30.269444,78.044167,CO,1,5,4
India,Uttarakhand,Kashipur,"Govt. Girls Inter College, Kashipur - UKPCB",23-07-2026 05:00:00,29.2124114,78.9611753,PM10,NA,NA,NA
India,Uttarakhand,Kashipur,"Govt. Girls Inter College, Kashipur - UKPCB",23-07-2026 05:00:00,29.2124114,78.9611753,NH3,NA,NA,NA
India,Uttarakhand,Rishikesh,"Shivaji Nagar, Rishikesh - UKPCB",23-07-2026 05:00:00,30.075911,78.2859547,NO2,7,7,7
India,Uttarakhand,Rishikesh,"Shivaji Nagar, Rishikesh - UKPCB",23-07-2026 05:00:00,30.075911,78.2859547,OZONE,25,25,25
India,West Bengal,Asansol,"Mahabir Colliery, Asansol - WBPCB",23-07-2026 05:00:00,23.618183,87.105718,PM2.5,21,73,38
India,West Bengal,Asansol,"Mahabir Colliery, Asansol - WBPCB",23-07-2026 05:00:00,23.618183,87.105718,PM10,25,59,36
India,West Bengal,Asansol,"Trivenidevi Bhalotia College, Asansol - WBPCB",23-07-2026 05:00:00,23.616515,87.119133,PM2.5,2,47,20
India,West Bengal,Asansol,"Evelyn Lodge, Asansol - WBPCB",23-07-2026 05:00:00,23.697936,86.944395,NH3,4,5,5
India,West Bengal,Asansol,"Evelyn Lodge, Asansol - WBPCB",23-07-2026 05:00:00,23.697936,86.944395,SO2,75,76,75
India,West Bengal,Asansol,"Asansol Court Area, Asansol - WBPCB",23-07-2026 05:00:00,23.685297,86.945968,NO2,26,36,30
India,West Bengal,Barrackpore,"SVSPA Campus, Barrackpore - WBPCB",23-07-2026 05:00:00,22.7605581,88.3617589,PM2.5,16,28,22
India,West Bengal,Barrackpore,"SVSPA Campus, Barrackpore - WBPCB",23-07-2026 05:00:00,22.7605581,88.3617589,PM10,23,44,35
India,West Bengal,Durgapur,"Womens College_City Center, Durgapur - WBPCB",23-07-2026 05:00:00,23.549395,87.300496,PM10,37,68,52
India,West Bengal,Durgapur,"Womens College_City Center, Durgapur - WBPCB",23-07-2026 05:00:00,23.549395,87.300496,NH3,2,3,2
India,West Bengal,Howrah,"Ghusuri, Howrah - WBPCB",23-07-2026 05:00:00,22.611968,88.347422,NH3,2,3,3
India,West Bengal,Howrah,"Belur Math, Howrah - WBPCB",23-07-2026 05:00:00,22.629801,88.352017,NO2,14,51,32
India,West Bengal,Howrah,"Belur Math, Howrah - WBPCB",23-07-2026 05:00:00,22.629801,88.352017,SO2,6,8,7
India,West Bengal,Howrah,"Padmapukur, Howrah - WBPCB",23-07-2026 05:00:00,22.5687319,88.2797276,CO,55,56,56
India,West Bengal,Howrah,"Dasnagar, Howrah - WBPCB",23-07-2026 05:00:00,22.6025571,88.3105664,PM10,7,43,27
India,West Bengal,Howrah,"Dasnagar, Howrah - WBPCB",23-07-2026 05:00:00,22.6025571,88.3105664,OZONE,25,32,29
India,West Bengal,Howrah,"Botanical Garden, Howrah - WBPCB",23-07-2026 05:00:00,22.554954,88.292568,CO,7,14,11
India,West Bengal,Kolkata,"Fort William, Kolkata - WBPCB",23-07-2026 05:00:00,22.55664,88.342674,CO,11,21,14
India,West Bengal,Kolkata,"Jadavpur, Kolkata - WBPCB",23-07-2026 05:00:00,22.49929,88.36917,NO2,24,62,35
India,West Bengal,Kolkata,"Bidhannagar, Kolkata - WBPCB",23-07-2026 05:00:00,22.58157048,88.41002457,PM10,25,43,30
India,West Bengal,Kolkata,"Bidhannagar, Kolkata - WBPCB",23-07-2026 05:00:00,22.58157048,88.41002457,NO2,8,14,12
India,West Bengal,Kolkata,"Bidhannagar, Kolkata - WBPCB",23-07-2026 05:00:00,22.58157048,88.41002457,NH3,5,9,6
India,West Bengal,Kolkata,"Rabindra Sarobar, Kolkata - WBPCB",23-07-2026 05:00:00,22.51106,88.35142,SO2,NA,NA,NA
India,West Bengal,Kolkata,"Rabindra Sarobar, Kolkata - WBPCB",23-07-2026 05:00:00,22.51106,88.35142,OZONE,17,21,19
India,West Bengal,Kolkata,"Victoria, Kolkata - WBPCB",23-07-2026 05:00:00,22.5448082,88.3403691,SO2,5,21,14
India,West Bengal,Kolkata,"Victoria, Kolkata - WBPCB",23-07-2026 05:00:00,22.5448082,88.3403691,CO,39,56,47
India,West Bengal,Kolkata,"Ballygunge, Kolkata - WBPCB",23-07-2026 05:00:00,22.5367507,88.3638022,OZONE,12,18,15
India,West Bengal,Siliguri,"Ward-32 Bapupara, Siliguri - WBPCB",23-07-2026 05:00:00,26.6879226,88.4152495,PM2.5,13,24,17
India,West Bengal,Siliguri,"Ward-32 Bapupara, Siliguri - WBPCB",23-07-2026 05:00:00,26.6879226,88.4152495,NO2,103,133,117
India,Bihar,Gaya,"Collectorate, Gaya - BSPCB",23-07-2026 05:00:00,24.7955,84.9994,CO,11,12,11
India,Bihar,Hajipur,"Industrial Area, Hajipur - BSPCB",23-07-2026 05:00:00,25.697189,85.2459,PM2.5,10,39,29
India,Bihar,Hajipur,"Industrial Area, Hajipur - BSPCB",23-07-2026 05:00:00,25.697189,85.2459,PM10,20,53,34
India,Bihar,Hajipur,"Industrial Area, Hajipur - BSPCB",23-07-2026 05:00:00,25.697189,85.2459,SO2,2,7,4
India,Bihar,Katihar,"Mirchaibari, Katihar - BSPCB",23-07-2026 05:00:00,25.560083,87.553265,OZONE,NA,NA,NA
India,Bihar,Kishanganj,"SDM Office_Khagra, Kishanganj - BSPCB",23-07-2026 05:00:00,26.0881305,87.93840336,PM10,42,62,47
India,Bihar,Manguraha,"Forest Rest House, Manguraha - BSPCB",23-07-2026 05:00:00,27.308328,84.531742,NO2,NA,NA,NA
India,Bihar,Motihari,"Gandak Colony, Motihari - BSPCB",23-07-2026 05:00:00,26.63086,84.90051,NO2,2,3,3
India,Bihar,Motihari,"Gandak Colony, Motihari - BSPCB",23-07-2026 05:00:00,26.63086,84.90051,NH3,3,3,3
India,Bihar,Motihari,"Gandak Colony, Motihari - BSPCB",23-07-2026 05:00:00,26.63086,84.90051,SO2,3,3,3
India,Bihar,Begusarai,"Lohiyanagar, Begusarai - BSPCB",23-07-2026 05:00:00,25.42742023,86.13886079,NO2,6,13,9
India,Bihar,Begusarai,"Lohiyanagar, Begusarai - BSPCB",23-07-2026 05:00:00,25.42742023,86.13886079,SO2,10,21,17
India,Bihar,Bettiah,"Kamalnath Nagar, Bettiah - BSPCB",23-07-2026 05:00:00,26.80365,84.51954,OZONE,19,25,22
India,Bihar,Buxar,"Charitra Van, Buxar - BSPCB",23-07-2026 05:00:00,25.56752,83.966379,NH3,NA,NA,NA
India,Bihar,Buxar,"Charitra Van, Buxar - BSPCB",23-07-2026 05:00:00,25.56752,83.966379,SO2,NA,NA,NA
India,Bihar,Buxar,"Charitra Van, Buxar - BSPCB",23-07-2026 05:00:00,25.56752,83.966379,CO,24,26,25
India,Bihar,Chhapra,"Darshan Nagar, Chhapra - BSPCB",23-07-2026 05:00:00,25.7808257,84.7446768,CO,63,85,77
India,Bihar,Gaya,"Kareemganj, Gaya - BSPCB",23-07-2026 05:00:00,24.792403,84.992416,NO2,10,14,12
India,Bihar,Gaya,"Collectorate, Gaya - BSPCB",23-07-2026 05:00:00,24.7955,84.9994,PM10,NA,NA,NA
India,Bihar,Gaya,"Collectorate, Gaya - BSPCB",23-07-2026 05:00:00,24.7955,84.9994,NH3,NA,NA,NA
India,Bihar,Gaya,"Collectorate, Gaya - BSPCB",23-07-2026 05:00:00,24.7955,84.9994,SO2,NA,NA,NA
India,Assam,Guwahati,"Railway Colony, Guwahati - PCBA",23-07-2026 05:00:00,26.181742,91.78063,OZONE,15,21,18
India,Assam,Guwahati,"IITG, Guwahati - PCBA",23-07-2026 05:00:00,26.2028636,91.70046436,PM2.5,5,28,14
India,Assam,Guwahati,"IITG, Guwahati - PCBA",23-07-2026 05:00:00,26.2028636,91.70046436,NO2,1,3,2
India,Assam,Guwahati,"IITG, Guwahati - PCBA",23-07-2026 05:00:00,26.2028636,91.70046436,NH3,5,5,5
India,Assam,Guwahati,"IITG, Guwahati - PCBA",23-07-2026 05:00:00,26.2028636,91.70046436,OZONE,1,1,1
India,Assam,Nagaon,"Christianpatty, Nagaon - PCBA",23-07-2026 05:00:00,26.349082,92.68449,PM10,36,76,51
India,Assam,Nagaon,"Christianpatty, Nagaon - PCBA",23-07-2026 05:00:00,26.349082,92.68449,NO2,1,1,1
India,Assam,Nagaon,"Christianpatty, Nagaon - PCBA",23-07-2026 05:00:00,26.349082,92.68449,OZONE,7,13,11
India,Assam,Nalbari,"Bata Chowk, Nalbari - PCBA",23-07-2026 05:00:00,26.446912,91.439057,SO2,8,8,8
India,Assam,Silchar,"Tarapur, Silchar - PCBA",23-07-2026 05:00:00,24.82827,92.79525,PM2.5,27,28,27
India,Assam,Silchar,"Tarapur, Silchar - PCBA",23-07-2026 05:00:00,24.82827,92.79525,NO2,17,21,18
India,Andhra Pradesh,Vijayawada,"HB Colony, Vijayawada - APPCB",23-07-2026 05:00:00,16.536107,80.594233,PM10,52,83,62
India,Andhra Pradesh,Vijayawada,"Rajiv Gandhi Park, Vijayawada - APPCB",23-07-2026 05:00:00,16.509717,80.612222,PM10,41,72,54
India,Andhra Pradesh,Vijayawada,"Rajiv Gandhi Park, Vijayawada - APPCB",23-07-2026 05:00:00,16.509717,80.612222,NH3,3,7,5
India,Andhra Pradesh,Vijayawada,"Rajiv Gandhi Park, Vijayawada - APPCB",23-07-2026 05:00:00,16.509717,80.612222,OZONE,16,16,16
India,Andhra Pradesh,Visakhapatnam,"GVM Corporation, Visakhapatnam - APPCB",23-07-2026 05:00:00,17.72,83.3,SO2,10,53,23
India,Andhra Pradesh,Visakhapatnam,"GVM Corporation, Visakhapatnam - APPCB",23-07-2026 05:00:00,17.72,83.3,CO,3,49,16
India,Andhra Pradesh,Visakhapatnam,"GVM Corporation, Visakhapatnam - APPCB",23-07-2026 05:00:00,17.72,83.3,OZONE,5,19,13
India,Arunachal Pradesh,Naharlagun,"Naharlagun, Naharlagun - APSPCB",23-07-2026 05:00:00,27.103358,93.679645,CO,5,18,10
India,Assam,Sivasagar,"Girls College, Sivasagar - PCBA",23-07-2026 05:00:00,26.987634,94.636574,PM2.5,17,20,17
India,Assam,Sivasagar,"Girls College, Sivasagar - PCBA",23-07-2026 05:00:00,26.987634,94.636574,SO2,7,8,8
India,Assam,Sivasagar,"Girls College, Sivasagar - PCBA",23-07-2026 05:00:00,26.987634,94.636574,CO,7,27,13
India,Bihar,Araria,"Kharahiya Basti, Araria - BSPCB",23-07-2026 05:00:00,26.146529,87.454184,PM2.5,37,43,39
India,Bihar,Araria,"Kharahiya Basti, Araria - BSPCB",23-07-2026 05:00:00,26.146529,87.454184,SO2,19,22,21
India,Bihar,Arrah,"New DM Office, Arrah - BSPCB",23-07-2026 05:00:00,25.5626095,84.663264,PM2.5,2,203,21
India,Bihar,Arrah,"New DM Office, Arrah - BSPCB",23-07-2026 05:00:00,25.5626095,84.663264,NH3,2,2,2
India,Bihar,Aurangabad,"Gurdeo Nagar, Aurangabad - BSPCB",23-07-2026 05:00:00,24.75746,84.366208,NO2,7,8,8
India,Bihar,Aurangabad,"Gurdeo Nagar, Aurangabad - BSPCB",23-07-2026 05:00:00,24.75746,84.366208,SO2,0,12,7
India,Andhra Pradesh,Tirupati,"Vaikuntapuram, Tirupati - APPCB",23-07-2026 05:00:00,13.615387,79.40923,PM2.5,46,79,62
India,Andhra Pradesh,Tirupati,"Vaikuntapuram, Tirupati - APPCB",23-07-2026 05:00:00,13.615387,79.40923,PM10,60,80,71
India,Andhra Pradesh,Tirupati,"Vaikuntapuram, Tirupati - APPCB",23-07-2026 05:00:00,13.615387,79.40923,NH3,4,7,5
India,Andhra Pradesh,Tirupati,"Vaikuntapuram, Tirupati - APPCB",23-07-2026 05:00:00,13.615387,79.40923,SO2,9,22,11
India,Andhra Pradesh,Tirupati,"Vaikuntapuram, Tirupati - APPCB",23-07-2026 05:00:00,13.615387,79.40923,CO,23,27,26
India,Andhra Pradesh,Tirupati,"Vaikuntapuram, Tirupati - APPCB",23-07-2026 05:00:00,13.615387,79.40923,OZONE,38,39,38
India,Andhra Pradesh,Vijayawada,"Rajiv Nagar, Vijayawada - APPCB",23-07-2026 05:00:00,16.554731,80.64911,CO,18,20,19
India,Andhra Pradesh,Vijayawada,"Kanuru, Vijayawada - APPCB",23-07-2026 05:00:00,16.486692,80.699436,PM2.5,53,86,65
India,Andhra Pradesh,Vijayawada,"Kanuru, Vijayawada - APPCB",23-07-2026 05:00:00,16.486692,80.699436,OZONE,29,29,29
India,Assam,Byrnihat,"Central Academy for SFS, Byrnihat - PCBA",23-07-2026 05:00:00,26.071318,91.87488,OZONE,18,19,18
India,Assam,Guwahati,"Pan Bazaar, Guwahati - PCBA",23-07-2026 05:00:00,26.1875,91.744194,CO,23,43,35
India,Assam,Guwahati,"LGBI Airport, Guwahati - PCBA",23-07-2026 05:00:00,26.10887,91.589544,PM10,26,62,50
India,Assam,Guwahati,"Railway Colony, Guwahati - PCBA",23-07-2026 05:00:00,26.181742,91.78063,PM2.5,13,52,29
India,Andhra Pradesh,Chittoor,"Gangineni Cheruvu, Chittoor - APPCB",23-07-2026 05:00:00,13.20488,79.097889,CO,23,27,25
India,Andhra Pradesh,Eluru,"District Court, Eluru - APPCB",23-07-2026 05:00:00,16.711754,81.092095,CO,9,19,13
India,Andhra Pradesh,Eluru,"District Court, Eluru - APPCB",23-07-2026 05:00:00,16.711754,81.092095,OZONE,3,6,5
India,Andhra Pradesh,Kadapa,"Yerramukkapalli, Kadapa - APPCB",23-07-2026 05:00:00,14.465052,78.824187,SO2,8,17,11
India,Andhra Pradesh,Amaravati,"Secretariat, Amaravati - APPCB",23-07-2026 05:00:00,16.5150833,80.5181667,NH3,3,4,4
India,Andhra Pradesh,Amaravati,"Secretariat, Amaravati - APPCB",23-07-2026 05:00:00,16.5150833,80.5181667,CO,7,13,11
India,Andhra Pradesh,Chittoor,"Gangineni Cheruvu, Chittoor - APPCB",23-07-2026 05:00:00,13.20488,79.097889,NH3,6,8,7
India,Andhra Pradesh,Kurnool,"Sita Rama Nagar, Kurnool - APPCB",23-07-2026 05:00:00,15.83411,78.028546,SO2,10,10,10
India,Andhra Pradesh,Kurnool,"Sita Rama Nagar, Kurnool - APPCB",23-07-2026 05:00:00,15.83411,78.028546,CO,7,19,11
India,Andhra Pradesh,Tirumala,"Toll Gate, Tirumala - APPCB",23-07-2026 05:00:00,13.67,79.35,PM2.5,3,39,18
India,Chandigarh,Chandigarh,"Sector-53, Chandigarh - CPCC",23-07-2026 05:00:00,30.719859,76.738637,PM10,3,32,14
India,Chandigarh,Chandigarh,"Sector-53, Chandigarh - CPCC",23-07-2026 05:00:00,30.719859,76.738637,NH3,14,27,22
India,Chandigarh,Chandigarh,"Sector-53, Chandigarh - CPCC",23-07-2026 05:00:00,30.719859,76.738637,SO2,6,8,7
India,Chandigarh,Chandigarh,"Sector 22, Chandigarh - CPCC",23-07-2026 05:00:00,30.735567,76.775714,NH3,9,26,15
India,Chandigarh,Chandigarh,"Sector 22, Chandigarh - CPCC",23-07-2026 05:00:00,30.735567,76.775714,CO,28,50,36
India,Chhattisgarh,Bhilai,"Hathkhoj, Bhilai - CECB",23-07-2026 05:00:00,21.224231,81.40835,NO2,3,11,7
India,Chhattisgarh,Bhilai,"Hathkhoj, Bhilai - CECB",23-07-2026 05:00:00,21.224231,81.40835,NH3,4,5,4
India,Chhattisgarh,Bhilai,"Hathkhoj, Bhilai - CECB",23-07-2026 05:00:00,21.224231,81.40835,SO2,NA,NA,NA
India,Chhattisgarh,Bhilai,"Hathkhoj, Bhilai - CECB",23-07-2026 05:00:00,21.224231,81.40835,OZONE,11,13,12
India,Chhattisgarh,Bhilai,"32Bungalows, Bhilai - CECB",23-07-2026 05:00:00,21.194815,81.31477,PM2.5,NA,NA,NA
India,Chhattisgarh,Chhal,"Nawapara SECL Colony, Chhal - CECB",23-07-2026 05:00:00,22.118125,83.140608,NO2,4,8,6
India,Chhattisgarh,Korba,"Rampur, Korba - CECB",23-07-2026 05:00:00,22.368195,82.746431,PM2.5,5,6,6
India,Chhattisgarh,Korba,"Rampur, Korba - CECB",23-07-2026 05:00:00,22.368195,82.746431,CO,7,10,8
India,Chhattisgarh,Korba,"Rampur, Korba - CECB",23-07-2026 05:00:00,22.368195,82.746431,OZONE,5,11,6
India,Chhattisgarh,Korba,"Urja Nagar, Korba - CECB",23-07-2026 05:00:00,22.348441,82.549611,SO2,0,50,22
India,Bihar,Patna,"IGSC Planetarium Complex, Patna - BSPCB",23-07-2026 05:00:00,25.610369,85.132568,PM2.5,NA,NA,NA
India,Bihar,Patna,"DRM Office Danapur, Patna - BSPCB",23-07-2026 05:00:00,25.586562,85.043586,CO,29,33,31
India,Bihar,Patna,"Samanpura, Patna - BSPCB",23-07-2026 05:00:00,25.596727,85.085624,NH3,4,6,5
India,Bihar,Patna,"Samanpura, Patna - BSPCB",23-07-2026 05:00:00,25.596727,85.085624,SO2,4,5,5
India,Bihar,Patna,"Govt. High School Shikarpur, Patna - BSPCB",23-07-2026 05:00:00,25.592539,85.227158,NO2,5,6,6
India,Bihar,Patna,"Govt. High School Shikarpur, Patna - BSPCB",23-07-2026 05:00:00,25.592539,85.227158,CO,40,49,45
India,Bihar,Patna,"Rajbansi Nagar, Patna - BSPCB",23-07-2026 05:00:00,25.599486,85.113666,SO2,NA,NA,NA
India,Bihar,Purnia,"Mariam Nagar, Purnia - BSPCB",23-07-2026 05:00:00,25.366336,87.117468,PM2.5,13,32,23
India,Bihar,Purnia,"Mariam Nagar, Purnia - BSPCB",23-07-2026 05:00:00,25.366336,87.117468,NH3,0,0,0
India,Bihar,Purnia,"Mariam Nagar, Purnia - BSPCB",23-07-2026 05:00:00,25.366336,87.117468,SO2,16,17,16
India,Bihar,Rajgir,"Dangi Tola, Rajgir - BSPCB",23-07-2026 05:00:00,25.0328,85.41948,PM10,NA,NA,NA
India,Bihar,Rajgir,"Dangi Tola, Rajgir - BSPCB",23-07-2026 05:00:00,25.0328,85.41948,NO2,13,15,14
India,Chhattisgarh,Kunjemura,"OP Jindal School, Kunjemura - CECB",23-07-2026 05:00:00,22.12665,83.483212,PM10,5,13,8
India,Chhattisgarh,Kunjemura,"OP Jindal School, Kunjemura - CECB",23-07-2026 05:00:00,22.12665,83.483212,NO2,10,35,19
India,Chhattisgarh,Kunjemura,"OP Jindal School, Kunjemura - CECB",23-07-2026 05:00:00,22.12665,83.483212,SO2,7,15,11
India,Chhattisgarh,Raipur,"Siltara Phase-II, Raipur - CECB",23-07-2026 05:00:00,21.371751,81.664929,CO,23,27,25
India,Chhattisgarh,Raipur,"Bhatagaon New ISBT, Raipur - CECB",23-07-2026 05:00:00,21.219665,81.630094,OZONE,3,3,3
India,Chhattisgarh,Raipur,"AIIMS, Raipur - CECB",23-07-2026 05:00:00,21.258815,81.578979,NO2,1,3,2
India,Chhattisgarh,Tumidih,"OP Jindal Industrial Park, Tumidih - CECB",23-07-2026 05:00:00,22.06631475,83.33820077,CO,14,105,61
India,Delhi,Delhi,"Mandir Marg, Delhi - DPCC",23-07-2026 05:00:00,28.636429,77.201067,PM2.5,2,87,24
India,Delhi,Delhi,"Mandir Marg, Delhi - DPCC",23-07-2026 05:00:00,28.636429,77.201067,SO2,14,22,18
India,Delhi,Delhi,"Mandir Marg, Delhi - DPCC",23-07-2026 05:00:00,28.636429,77.201067,CO,36,56,43
India,Delhi,Delhi,"Mandir Marg, Delhi - DPCC",23-07-2026 05:00:00,28.636429,77.201067,OZONE,2,4,4
India,Bihar,Motihari,"Gandak Colony, Motihari - BSPCB",23-07-2026 05:00:00,26.63086,84.90051,OZONE,58,60,59
India,Bihar,Munger,"Town Hall, Munger - BSPCB",23-07-2026 05:00:00,25.376776,86.471523,PM2.5,NA,NA,NA
India,Bihar,Munger,"Town Hall, Munger - BSPCB",23-07-2026 05:00:00,25.376776,86.471523,PM10,NA,NA,NA
India,Bihar,Munger,"Town Hall, Munger - BSPCB",23-07-2026 05:00:00,25.376776,86.471523,CO,4,6,5
India,Bihar,Muzaffarpur,"MIT-Daudpur Kothi, Muzaffarpur - BSPCB",23-07-2026 05:00:00,26.1403345,85.3650192,PM2.5,22,45,29
India,Bihar,Muzaffarpur,"MIT-Daudpur Kothi, Muzaffarpur - BSPCB",23-07-2026 05:00:00,26.1403345,85.3650192,CO,9,11,10
India,Bihar,Muzaffarpur,"Muzaffarpur Collectorate, Muzaffarpur - BSPCB",23-07-2026 05:00:00,26.1209,85.3647,PM2.5,23,57,35
India,Bihar,Muzaffarpur,"Buddha Colony, Muzaffarpur - BSPCB",23-07-2026 05:00:00,26.11442,85.39813,PM2.5,9,36,23
India,Bihar,Patna,"Muradpur, Patna - BSPCB",23-07-2026 05:00:00,25.619651,85.147382,PM10,35,68,54
India,Bihar,Patna,"Muradpur, Patna - BSPCB",23-07-2026 05:00:00,25.619651,85.147382,NO2,5,5,5
India,Delhi,Delhi,"IMD Lodhi Road, Delhi - IITM",23-07-2026 05:00:00,28.5918245,77.2273074,PM2.5,17,70,39
India,Delhi,Delhi,"IMD Lodhi Road, Delhi - IITM",23-07-2026 05:00:00,28.5918245,77.2273074,PM10,21,142,62
India,Delhi,Delhi,"IMD Lodhi Road, Delhi - IITM",23-07-2026 05:00:00,28.5918245,77.2273074,CO,9,19,12
India,Delhi,Delhi,"Burari Crossing, Delhi - IITM",23-07-2026 05:00:00,28.7256504,77.2011573,CO,9,28,16
India,Delhi,Delhi,"JNU, Delhi - DPCC",23-07-2026 05:00:00,28.540721,77.168544,NO2,6,43,17
India,Delhi,Delhi,"Narela, Delhi - DPCC",23-07-2026 05:00:00,28.822836,77.101981,NH3,6,18,11
India,Delhi,Delhi,"Cantonment Area, Delhi - DPCC",23-07-2026 05:00:00,28.594169,77.1251,OZONE,5,7,6
India,Delhi,Delhi,"Sonia Vihar, Delhi - DPCC",23-07-2026 05:00:00,28.710508,77.249485,NO2,6,52,21
India,Delhi,Delhi,"Nehru Nagar, Delhi - DPCC",23-07-2026 05:00:00,28.56789,77.250515,NH3,6,9,8
India,Delhi,Delhi,"Nehru Nagar, Delhi - DPCC",23-07-2026 05:00:00,28.56789,77.250515,CO,3,197,53
India,Delhi,Delhi,"IHBAS, Dilshad Garden, Delhi - CPCB",23-07-2026 05:00:00,28.6811736,77.3025234,PM2.5,18,84,46
India,Delhi,Delhi,"IHBAS, Dilshad Garden, Delhi - CPCB",23-07-2026 05:00:00,28.6811736,77.3025234,NH3,6,8,6
India,Delhi,Delhi,"Okhla Phase-2, Delhi - DPCC",23-07-2026 05:00:00,28.530785,77.271255,PM10,23,101,49
India,Delhi,Delhi,"Okhla Phase-2, Delhi - DPCC",23-07-2026 05:00:00,28.530785,77.271255,NH3,6,9,7
India,Delhi,Delhi,"Okhla Phase-2, Delhi - DPCC",23-07-2026 05:00:00,28.530785,77.271255,CO,23,40,28
India,Delhi,Delhi,"Rohini, Delhi - DPCC",23-07-2026 05:00:00,28.732528,77.11992,OZONE,4,4,4
India,Delhi,Delhi,"Vivek Vihar, Delhi - DPCC",23-07-2026 05:00:00,28.672342,77.31526,PM10,38,105,63
India,Bihar,Saharsa,"Police Line, Saharsa - BSPCB",23-07-2026 05:00:00,25.892357,86.590325,CO,38,41,40
India,Bihar,Samastipur,"DM Office_Kasipur, Samastipur - BSPCB",23-07-2026 05:00:00,25.859655,85.77944,NH3,1,1,1
India,Bihar,Samastipur,"DM Office_Kasipur, Samastipur - BSPCB",23-07-2026 05:00:00,25.859655,85.77944,SO2,11,14,12
India,Bihar,Sasaram,"Dada Peer, Sasaram - BSPCB",23-07-2026 05:00:00,24.952822,84.002396,NO2,NA,NA,NA
India,Bihar,Siwan,"Chitragupta Nagar, Siwan - BSPCB",23-07-2026 05:00:00,26.2271665,84.3570427,PM2.5,NA,NA,NA
India,Bihar,Siwan,"Chitragupta Nagar, Siwan - BSPCB",23-07-2026 05:00:00,26.2271665,84.3570427,SO2,4,9,7
India,Bihar,Siwan,"Chitragupta Nagar, Siwan - BSPCB",23-07-2026 05:00:00,26.2271665,84.3570427,CO,66,81,71
India,Bihar,Siwan,"Chitragupta Nagar, Siwan - BSPCB",23-07-2026 05:00:00,26.2271665,84.3570427,OZONE,7,9,8
India,Delhi,Delhi,"Mundka, Delhi - DPCC",23-07-2026 05:00:00,28.684678,77.076574,PM10,33,185,104
India,Delhi,Delhi,"Mundka, Delhi - DPCC",23-07-2026 05:00:00,28.684678,77.076574,NO2,66,107,88
India,Delhi,Delhi,"Dr. Karni Singh Shooting Range, Delhi - DPCC",23-07-2026 05:00:00,28.498571,77.26484,PM10,13,99,38
India,Delhi,Delhi,"Dr. Karni Singh Shooting Range, Delhi - DPCC",23-07-2026 05:00:00,28.498571,77.26484,CO,17,37,23
India,Delhi,Delhi,"Anand Vihar, Delhi - DPCC",23-07-2026 05:00:00,28.647622,77.315809,PM2.5,20,210,77
India,Delhi,Delhi,"Anand Vihar, Delhi - DPCC",23-07-2026 05:00:00,28.647622,77.315809,CO,54,103,74
India,Delhi,Delhi,"Talkatora Garden, Delhi - DPCC",23-07-2026 05:00:00,28.62181,77.1944633,PM2.5,21,59,46
India,Delhi,Delhi,"CRRI Mathura Road, Delhi - IITM",23-07-2026 05:00:00,28.5512005,77.2735737,OZONE,11,13,12
India,Delhi,Delhi,"Aya Nagar, Delhi - IITM",23-07-2026 05:00:00,28.4706914,77.1099364,PM10,15,106,51
India,Delhi,Delhi,"Aya Nagar, Delhi - IITM",23-07-2026 05:00:00,28.4706914,77.1099364,SO2,NA,NA,NA
India,Delhi,Delhi,"Jahangirpuri, Delhi - DPCC",23-07-2026 05:00:00,28.73282,77.170633,NH3,9,12,11
India,Delhi,Delhi,"Jahangirpuri, Delhi - DPCC",23-07-2026 05:00:00,28.73282,77.170633,OZONE,4,7,5
India,Delhi,Delhi,"Najafgarh, Delhi - DPCC",23-07-2026 05:00:00,28.570173,76.933762,NO2,12,53,23
India,Gujarat,Gandhinagar,"GIFT City, Gandhinagar - IITM",23-07-2026 05:00:00,23.163798,72.677768,OZONE,6,8,7
India,Gujarat,Gandhinagar,"Sector-10, Gandhinagar - GPCB",23-07-2026 05:00:00,23.221714,72.654328,PM10,26,68,44
India,Gujarat,Gandhinagar,"Sector-10, Gandhinagar - GPCB",23-07-2026 05:00:00,23.221714,72.654328,SO2,5,8,6
India,Gujarat,Gandhinagar,"Sector-10, Gandhinagar - GPCB",23-07-2026 05:00:00,23.221714,72.654328,OZONE,2,5,3
India,Gujarat,Gandhinagar,"IIPHG Lekawada, Gandhinagar - IITM",23-07-2026 05:00:00,23.243639,72.68994,NO2,5,14,8
India,Gujarat,Mehsana,"Sadanand Nagar, Mehsana - Nexteng Enviro",23-07-2026 05:00:00,23.59315,72.372792,NH3,0,1,1
India,Gujarat,Rajkot,"Mavdi, Rajkot - Nexteng Enviro ",23-07-2026 05:00:00,22.248853,70.776774,SO2,10,15,12
India,Gujarat,Rajkot,"Mavdi, Rajkot - Nexteng Enviro ",23-07-2026 05:00:00,22.248853,70.776774,CO,88,93,91
India,Gujarat,Surat,"Science Center, Surat - SMC",23-07-2026 05:00:00,21.170046,72.795405,PM10,8,51,27
India,Gujarat,Surat,"Katargam, Surat - Nexteng Enviro",23-07-2026 05:00:00,21.217779,72.834787,OZONE,4,6,5
India,Gujarat,Vadodara,"Bapunagar, Vadodara - Nexteng Enviro",23-07-2026 05:00:00,22.320153,73.216285,PM10,11,76,51
India,Gujarat,Vadodara,"Bapunagar, Vadodara - Nexteng Enviro",23-07-2026 05:00:00,22.320153,73.216285,CO,101,103,102
India,Gujarat,Vapi,"Phase-1 GIDC, Vapi - GPCB",23-07-2026 05:00:00,20.362421,72.918013,PM2.5,NA,NA,NA
India,Delhi,Delhi,"Talkatora Garden, Delhi - DPCC",23-07-2026 05:00:00,28.62181,77.1944633,NH3,4,11,7
India,Delhi,Delhi,"Talkatora Garden, Delhi - DPCC",23-07-2026 05:00:00,28.62181,77.1944633,OZONE,5,9,7
India,Delhi,Delhi,"Ashok Vihar, Delhi - DPCC",23-07-2026 05:00:00,28.695381,77.181665,PM10,64,139,91
India,Delhi,Delhi,"Ashok Vihar, Delhi - DPCC",23-07-2026 05:00:00,28.695381,77.181665,NH3,9,14,11
India,Delhi,Delhi,"Dwarka-Sector 8, Delhi - DPCC ",23-07-2026 05:00:00,28.5710274,77.0719006,PM10,20,131,68
India,Delhi,Delhi,"Dwarka-Sector 8, Delhi - DPCC ",23-07-2026 05:00:00,28.5710274,77.0719006,CO,21,71,37
India,Delhi,Delhi,"Dwarka-Sector 8, Delhi - DPCC ",23-07-2026 05:00:00,28.5710274,77.0719006,OZONE,7,13,10
India,Delhi,Delhi,"DTU, Delhi - CPCB",23-07-2026 05:00:00,28.7500499,77.1112615,PM2.5,25,74,45
India,Delhi,Delhi,"DTU, Delhi - CPCB",23-07-2026 05:00:00,28.7500499,77.1112615,PM10,42,109,69
India,Delhi,Delhi,"DTU, Delhi - CPCB",23-07-2026 05:00:00,28.7500499,77.1112615,CO,10,20,16
India,Delhi,Delhi,"IGNOU_Maidan Garhi, Delhi - DPCC",23-07-2026 05:00:00,28.493624,77.201159,NO2,4,171,60
India,Delhi,Delhi,"Punjabi Bagh, Delhi - DPCC",23-07-2026 05:00:00,28.674045,77.131023,CO,35,77,48
India,Delhi,Delhi,"Shadipur, Delhi - CPCB",23-07-2026 05:00:00,28.6514781,77.1473105,NO2,24,38,30
India,Delhi,Delhi,"Shadipur, Delhi - CPCB",23-07-2026 05:00:00,28.6514781,77.1473105,CO,28,60,48
India,Delhi,Delhi,"Shadipur, Delhi - CPCB",23-07-2026 05:00:00,28.6514781,77.1473105,OZONE,6,17,11
India,Delhi,Delhi,"ITO, Delhi - CPCB",23-07-2026 05:00:00,28.628624,77.24106,PM10,41,94,66
India,Delhi,Delhi,"ITO, Delhi - CPCB",23-07-2026 05:00:00,28.628624,77.24106,SO2,10,25,19
India,Delhi,Delhi,"ITO, Delhi - CPCB",23-07-2026 05:00:00,28.628624,77.24106,OZONE,14,19,17
India,Delhi,Delhi,"R K Puram, Delhi - DPCC",23-07-2026 05:00:00,28.563262,77.186937,PM10,26,99,55
India,Delhi,Delhi,"Sirifort, Delhi - CPCB",23-07-2026 05:00:00,28.5504249,77.2159377,CO,14,43,29
India,Delhi,Delhi,"Chandni Chowk, Delhi - IITM",23-07-2026 05:00:00,28.656756,77.227234,NH3,6,7,6
India,Delhi,Delhi,"Pusa, Delhi - DPCC",23-07-2026 05:00:00,28.639652,77.146275,CO,NA,NA,NA
India,Gujarat,Ahmedabad,"SAC ISRO Bopal, Ahmedabad - IITM",23-07-2026 05:00:00,23.041137,72.456691,PM10,20,85,54
India,Gujarat,Ahmedabad,"SAC ISRO Bopal, Ahmedabad - IITM",23-07-2026 05:00:00,23.041137,72.456691,NO2,2,5,3
India,Gujarat,Ahmedabad,"SAC ISRO Bopal, Ahmedabad - IITM",23-07-2026 05:00:00,23.041137,72.456691,SO2,0,1,1
India,Gujarat,Ahmedabad,"SAC ISRO Bopal, Ahmedabad - IITM",23-07-2026 05:00:00,23.041137,72.456691,CO,1,2,1
India,Gujarat,Ahmedabad,"Raikhad, Ahmedabad - IITM",23-07-2026 05:00:00,23.020509,72.579261,NH3,1,28,8
India,Gujarat,Ahmedabad,"Raikhad, Ahmedabad - IITM",23-07-2026 05:00:00,23.020509,72.579261,CO,15,39,22
India,Gujarat,Ahmedabad,"SAC ISRO Satellite, Ahmedabad - IITM",23-07-2026 05:00:00,23.023389,72.515201,PM2.5,21,83,52
India,Gujarat,Ahmedabad,"Gyaspur, Ahmedabad - IITM",23-07-2026 05:00:00,22.977134,72.553024,PM10,47,118,77
India,Gujarat,Ahmedabad,"Gyaspur, Ahmedabad - IITM",23-07-2026 05:00:00,22.977134,72.553024,NH3,4,7,6
India,Haryana,Bhiwani,"H.B. Colony, Bhiwani - HSPCB",23-07-2026 05:00:00,28.806223,76.141105,NO2,7,10,8
India,Haryana,Charkhi Dadri,"Mini Secretariat, Charkhi Dadri - HSPCB",23-07-2026 05:00:00,28.593883,76.270653,NO2,9,23,15
India,Haryana,Charkhi Dadri,"Mini Secretariat, Charkhi Dadri - HSPCB",23-07-2026 05:00:00,28.593883,76.270653,NH3,5,8,6
India,Haryana,Charkhi Dadri,"Mini Secretariat, Charkhi Dadri - HSPCB",23-07-2026 05:00:00,28.593883,76.270653,CO,13,25,16
India,Haryana,Dharuhera,"Municipal Corporation Office, Dharuhera -  HSPCB",23-07-2026 05:00:00,28.2068,76.7997,PM10,46,100,75
India,Haryana,Dharuhera,"Municipal Corporation Office, Dharuhera -  HSPCB",23-07-2026 05:00:00,28.2068,76.7997,NH3,7,14,10
India,Haryana,Faridabad,"Sector 30, Faridabad - HSPCB",23-07-2026 05:00:00,28.4417,77.3217,PM2.5,48,58,51
India,Haryana,Faridabad,"Sector 30, Faridabad - HSPCB",23-07-2026 05:00:00,28.4417,77.3217,CO,24,28,26
India,Gujarat,Ahmedabad,"Rakhial, Ahmedabad - IITM",23-07-2026 05:00:00,23.016834,72.625775,PM10,40,107,83
India,Gujarat,Ahmedabad,"Rakhial, Ahmedabad - IITM",23-07-2026 05:00:00,23.016834,72.625775,NH3,4,12,5
