country,state,city,station,last_update,latitude,longitude,pollutant_id,min_value,max_value,avg_value
India,Bihar,Patna,"Govt. High School Shikarpur, Patna - BSPCB",21-01-2026 21:00:00,25.592539,85.227158,NO2,14,19,16
India,Bihar,Patna,"Govt. High School Shikarpur, Patna - BSPCB",21-01-2026 21:00:00,25.592539,85.227158,SO2,14,16,15
India,Bihar,Patna,"Govt. High School Shikarpur, Patna - BSPCB",21-01-2026 21:00:00,25.592539,85.227158,CO,60,130,73
India,Bihar,Patna,"IGSC Planetarium Complex, Patna - BSPCB",21-01-2026 21:00:00,25.610369,85.132568,PM2.5,30,189,104
India,Bihar,Patna,"Rajbansi Nagar, Patna - BSPCB",21-01-2026 21:00:00,25.599486,85.113666,PM2.5,50,127,90
India,Bihar,Patna,"Rajbansi Nagar, Patna - BSPCB",21-01-2026 21:00:00,25.599486,85.113666,SO2,5,7,6
India,Bihar,Patna,"Rajbansi Nagar, Patna - BSPCB",21-01-2026 21:00:00,25.599486,85.113666,OZONE,19,29,24
India,Bihar,Patna,"Samanpura, Patna - BSPCB",21-01-2026 21:00:00,25.596727,85.085624,PM2.5,54,255,169
India,Bihar,Patna,"Samanpura, Patna - BSPCB",21-01-2026 21:00:00,25.596727,85.085624,SO2,2,2,2
India,Bihar,Patna,"Samanpura, Patna - BSPCB",21-01-2026 21:00:00,25.596727,85.085624,CO,2,126,35
India,Bihar,Purnia,"Mariam Nagar, Purnia - BSPCB",21-01-2026 21:00:00,25.366336,87.117468,PM2.5,75,177,120
India,Arunachal_Pradesh,Naharlagun,"Naharlagun, Naharlagun - APSPCB",21-01-2026 21:00:00,27.103358,93.679645,SO2,9,10,9
India,Arunachal_Pradesh,Naharlagun,"Naharlagun, Naharlagun - APSPCB",21-01-2026 21:00:00,27.103358,93.679645,OZONE,5,6,6
India,Assam,Byrnihat,"Central Academy for SFS, Byrnihat - PCBA",21-01-2026 21:00:00,26.071318,91.87488,PM2.5,91,354,182
India,Assam,Guwahati,"LGBI Airport, Guwahati - PCBA",21-01-2026 21:00:00,26.10887,91.589544,NH3,5,6,5
India,Assam,Guwahati,"LGBI Airport, Guwahati - PCBA",21-01-2026 21:00:00,26.10887,91.589544,SO2,9,15,12
India,Assam,Guwahati,"Pan Bazaar, Guwahati - PCBA",21-01-2026 21:00:00,26.187500,91.744194,SO2,24,46,34
India,Assam,Guwahati,"Pan Bazaar, Guwahati - PCBA",21-01-2026 21:00:00,26.187500,91.744194,OZONE,17,18,18
India,Assam,Guwahati,"Railway Colony, Guwahati - PCBA",21-01-2026 21:00:00,26.181742,91.78063,SO2,35,37,36
India,Assam,Nagaon,"Christianpatty, Nagaon - PCBA",21-01-2026 21:00:00,26.349082,92.68449,PM10,NA,NA,NA
India,Bihar,Bhagalpur,"Mayaganj, Bhagalpur - BSPCB",21-01-2026 21:00:00,25.265194,87.012947,NH3,10,13,12
India,Bihar,Bihar Sharif,"D M Colony, Bihar Sharif - BSPCB",21-01-2026 21:00:00,25.204762,85.514960,PM10,24,143,91
India,Bihar,Bihar Sharif,"D M Colony, Bihar Sharif - BSPCB",21-01-2026 21:00:00,25.204762,85.514960,CO,45,92,55
India,Bihar,Buxar,"Charitra Van, Buxar - BSPCB",21-01-2026 21:00:00,25.567520,83.966379,NO2,9,10,9
India,Bihar,Chhapra,"Darshan Nagar, Chhapra - BSPCB",21-01-2026 21:00:00,25.7808257,84.7446768,CO,28,64,48
India,Bihar,Gaya,"Collectorate, Gaya - BSPCB",21-01-2026 21:00:00,24.7955,84.9994,NO2,9,9,9
India,Bihar,Gaya,"Kareemganj, Gaya - BSPCB",21-01-2026 21:00:00,24.792403,84.992416,PM10,93,344,178
India,Bihar,Gaya,"Kareemganj, Gaya - BSPCB",21-01-2026 21:00:00,24.792403,84.992416,SO2,15,17,16
India,Bihar,Gaya,"Kareemganj, Gaya - BSPCB",21-01-2026 21:00:00,24.792403,84.992416,CO,36,42,40
India,Andhra_Pradesh,Tirupati,"Vaikuntapuram, Tirupati - APPCB",21-01-2026 21:00:00,13.615387,79.409230,CO,23,35,30
India,Andhra_Pradesh,Vijayawada,"HB Colony, Vijayawada - APPCB",21-01-2026 21:00:00,16.536107,80.594233,NO2,21,28,23
India,Andhra_Pradesh,Vijayawada,"Kanuru, Vijayawada - APPCB",21-01-2026 21:00:00,16.486692,80.699436,PM10,58,98,70
India,Andhra_Pradesh,Vijayawada,"Rajiv Gandhi Park, Vijayawada - APPCB",21-01-2026 21:00:00,16.509717,80.612222,CO,30,40,35
India,Andhra_Pradesh,Vijayawada,"Rajiv Nagar, Vijayawada - APPCB",21-01-2026 21:00:00,16.554731,80.649110,NH3,4,6,5
India,Andhra_Pradesh,Vijayawada,"Rajiv Nagar, Vijayawada - APPCB",21-01-2026 21:00:00,16.554731,80.649110,OZONE,25,30,26
India,Andhra_Pradesh,Visakhapatnam,"GVM Corporation, Visakhapatnam - APPCB",21-01-2026 21:00:00,17.72,83.3,PM2.5,57,332,189
India,Andhra_Pradesh,Visakhapatnam,"GVM Corporation, Visakhapatnam - APPCB",21-01-2026 21:00:00,17.72,83.3,NO2,20,186,90
India,Andhra_Pradesh,Anantapur,"Gulzarpet, Anantapur - APPCB",21-01-2026 21:00:00,14.675886,77.593027,PM2.5,68,170,85
India,Andhra_Pradesh,Anantapur,"Gulzarpet, Anantapur - APPCB",21-01-2026 21:00:00,14.675886,77.593027,PM10,70,118,82
India,Andhra_Pradesh,Chittoor,"Gangineni Cheruvu, Chittoor - APPCB",21-01-2026 21:00:00,13.204880,79.097889,PM10,45,106,76
India,Andhra_Pradesh,Chittoor,"Gangineni Cheruvu, Chittoor - APPCB",21-01-2026 21:00:00,13.204880,79.097889,SO2,12,39,24
India,Andhra_Pradesh,Chittoor,"Gangineni Cheruvu, Chittoor - APPCB",21-01-2026 21:00:00,13.204880,79.097889,OZONE,49,68,64
India,Andhra_Pradesh,Kadapa,"Yerramukkapalli, Kadapa - APPCB",21-01-2026 21:00:00,14.465052,78.824187,PM2.5,39,202,129
India,Andhra_Pradesh,Rajamahendravaram,"Anand Kala Kshetram, Rajamahendravaram - APPCB",21-01-2026 21:00:00,16.9872867,81.7363176,PM2.5,67,306,154
India,Andhra_Pradesh,Rajamahendravaram,"Anand Kala Kshetram, Rajamahendravaram - APPCB",21-01-2026 21:00:00,16.9872867,81.7363176,CO,23,62,39
India,Bihar,Hajipur,"Industrial Area, Hajipur - BSPCB",21-01-2026 21:00:00,25.697189,85.245900,PM2.5,77,242,133
India,Bihar,Hajipur,"Industrial Area, Hajipur - BSPCB",21-01-2026 21:00:00,25.697189,85.245900,PM10,84,137,102
India,Bihar,Kishanganj,"SDM Office_Khagra, Kishanganj - BSPCB",21-01-2026 21:00:00,26.0881305,87.93840336,CO,16,24,22
India,Bihar,Manguraha,"Forest Rest House, Manguraha - BSPCB",21-01-2026 21:00:00,27.308328,84.531742,NO2,4,13,6
India,Bihar,Manguraha,"Forest Rest House, Manguraha - BSPCB",21-01-2026 21:00:00,27.308328,84.531742,SO2,16,17,17
India,Bihar,Motihari,"Gandak Colony, Motihari - BSPCB",21-01-2026 21:00:00,26.63086,84.90051,PM10,65,271,118
India,Bihar,Motihari,"Gandak Colony, Motihari - BSPCB",21-01-2026 21:00:00,26.63086,84.90051,NO2,4,7,5
India,Bihar,Munger,"Town Hall, Munger - BSPCB",21-01-2026 21:00:00,25.376776,86.471523,PM2.5,50,98,69
India,Bihar,Munger,"Town Hall, Munger - BSPCB",21-01-2026 21:00:00,25.376776,86.471523,PM10,39,78,54
India,Bihar,Muzaffarpur,"Buddha Colony, Muzaffarpur - BSPCB",21-01-2026 21:00:00,26.11442,85.39813,OZONE,20,85,64
India,Bihar,Muzaffarpur,"MIT-Daudpur Kothi, Muzaffarpur - BSPCB",21-01-2026 21:00:00,26.1403345,85.3650192,OZONE,12,66,62
India,Bihar,Patna,"DRM Office Danapur, Patna - BSPCB",21-01-2026 21:00:00,25.586562,85.043586,PM10,80,225,131
India,Bihar,Patna,"DRM Office Danapur, Patna - BSPCB",21-01-2026 21:00:00,25.586562,85.043586,SO2,5,8,6
India,Bihar,Aurangabad,"Gurdeo Nagar, Aurangabad - BSPCB",21-01-2026 21:00:00,24.75746,84.366208,SO2,2,17,10
India,Bihar,Begusarai,"Lohiyanagar, Begusarai - BSPCB",21-01-2026 21:00:00,25.42742023,86.13886079,SO2,21,32,29
India,Bihar,Bettiah,"Kamalnath Nagar, Bettiah - BSPCB",21-01-2026 21:00:00,26.80365,84.51954,CO,64,104,79
India,Bihar,Bhagalpur,"DM Office_Kachari Chowk, Bhagalpur - BSPCB",21-01-2026 21:00:00,25.251013,86.989001,NH3,1,1,1
India,Assam,Nagaon,"Christianpatty, Nagaon - PCBA",21-01-2026 21:00:00,26.349082,92.68449,NH3,4,4,4
India,Assam,Silchar,"Tarapur, Silchar - PCBA",21-01-2026 21:00:00,24.82827,92.79525,NO2,19,30,23
India,Assam,Silchar,"Tarapur, Silchar - PCBA",21-01-2026 21:00:00,24.82827,92.79525,NH3,1,1,1
India,Assam,Silchar,"Tarapur, Silchar - PCBA",21-01-2026 21:00:00,24.82827,92.79525,SO2,4,6,5
India,Assam,Sivasagar,"Girls College, Sivasagar - PCBA",21-01-2026 21:00:00,26.987634,94.636574,NO2,32,56,42
India,Assam,Sivasagar,"Girls College, Sivasagar - PCBA",21-01-2026 21:00:00,26.987634,94.636574,SO2,12,16,13
India,Andaman and Nicobar,Sri Vijaya Puram,"Police Line, Sri Vijaya Puram - ANPCC",21-01-2026 21:00:00,11.654054,92.734055,CO,21,21,21
India,Andhra_Pradesh,Amaravati,"Secretariat, Amaravati - APPCB",21-01-2026 21:00:00,16.5150833,80.5181667,NO2,21,77,41
India,Chhattisgarh,Chhal,"Nawapara SECL Colony, Chhal - CECB",21-01-2026 21:00:00,22.118125,83.140608,CO,22,56,32
India,Chhattisgarh,Korba,"Rampur, Korba - CECB",21-01-2026 21:00:00,22.368195,82.746431,PM2.5,53,153,82
India,Chhattisgarh,Korba,"Rampur, Korba - CECB",21-01-2026 21:00:00,22.368195,82.746431,NH3,1,1,1
India,Chhattisgarh,Korba,"Urja Nagar, Korba - CECB",21-01-2026 21:00:00,22.348441,82.549611,PM2.5,2,358,116
India,Chhattisgarh,Korba,"Urja Nagar, Korba - CECB",21-01-2026 21:00:00,22.348441,82.549611,CO,20,42,25
India,Chhattisgarh,Kunjemura,"OP Jindal School, Kunjemura - CECB",21-01-2026 21:00:00,22.126650,83.483212,PM10,70,346,149
India,Chhattisgarh,Kunjemura,"OP Jindal School, Kunjemura - CECB",21-01-2026 21:00:00,22.126650,83.483212,CO,22,90,25
India,Chhattisgarh,Milupara,"Govt. Higher Secondary School, Milupara - CECB",21-01-2026 21:00:00,22.1910172,83.5197009,SO2,13,20,15
India,Chhattisgarh,Milupara,"Govt. Higher Secondary School, Milupara - CECB",21-01-2026 21:00:00,22.1910172,83.5197009,CO,18,52,28
India,Chhattisgarh,Milupara,"Govt. Higher Secondary School, Milupara - CECB",21-01-2026 21:00:00,22.1910172,83.5197009,OZONE,7,128,82
India,Chhattisgarh,Raipur,"AIIMS, Raipur - CECB",21-01-2026 21:00:00,21.258815,81.578979,PM2.5,31,99,76
India,Chhattisgarh,Raipur,"AIIMS, Raipur - CECB",21-01-2026 21:00:00,21.258815,81.578979,PM10,43,139,98
India,Chhattisgarh,Raipur,"AIIMS, Raipur - CECB",21-01-2026 21:00:00,21.258815,81.578979,NO2,51,61,54
India,Chhattisgarh,Raipur,"AIIMS, Raipur - CECB",21-01-2026 21:00:00,21.258815,81.578979,CO,38,103,49
India,Chhattisgarh,Raipur,"Bhatagaon New ISBT, Raipur - CECB",21-01-2026 21:00:00,21.219665,81.630094,PM10,46,148,89
India,Chhattisgarh,Raipur,"Bhatagaon New ISBT, Raipur - CECB",21-01-2026 21:00:00,21.219665,81.630094,NO2,7,65,36
India,Chhattisgarh,Raipur,"Krishak Nagar, Raipur - CECB",21-01-2026 21:00:00,21.237755,81.705301,NO2,23,34,27
India,Chhattisgarh,Raipur,"Krishak Nagar, Raipur - CECB",21-01-2026 21:00:00,21.237755,81.705301,SO2,3,16,7
India,Chhattisgarh,Raipur,"Siltara Phase-II, Raipur - CECB",21-01-2026 21:00:00,21.371751,81.664929,NO2,53,65,59
India,Chhattisgarh,Raipur,"Siltara Phase-II, Raipur - CECB",21-01-2026 21:00:00,21.371751,81.664929,SO2,1,7,4
India,Chhattisgarh,Tumidih,"OP Jindal Industrial Park, Tumidih - CECB",21-01-2026 21:00:00,22.06631475,83.33820077,NO2,27,95,61
India,Chhattisgarh,Tumidih,"OP Jindal Industrial Park, Tumidih - CECB",21-01-2026 21:00:00,22.06631475,83.33820077,NH3,1,2,2
India,Chhattisgarh,Tumidih,"OP Jindal Industrial Park, Tumidih - CECB",21-01-2026 21:00:00,22.06631475,83.33820077,SO2,5,18,7
India,Delhi,Delhi,"Alipur, Delhi - DPCC",21-01-2026 21:00:00,28.815329,77.153010,PM10,97,467,273
India,Delhi,Delhi,"Chandni Chowk, Delhi - IITM",21-01-2026 21:00:00,28.656756,77.227234,NH3,12,25,16
India,Delhi,Delhi,"DTU, Delhi - CPCB",21-01-2026 21:00:00,28.7500499,77.1112615,PM10,98,331,199
India,Delhi,Delhi,"DTU, Delhi - CPCB",21-01-2026 21:00:00,28.7500499,77.1112615,SO2,34,43,40
India,Delhi,Delhi,"DTU, Delhi - CPCB",21-01-2026 21:00:00,28.7500499,77.1112615,CO,16,64,24
India,Delhi,Delhi,"Dr. Karni Singh Shooting Range, Delhi - DPCC",21-01-2026 21:00:00,28.498571,77.264840,PM10,135,423,267
India,Delhi,Delhi,"Dwarka-Sector 8, Delhi - DPCC ",21-01-2026 21:00:00,28.5710274,77.0719006,PM2.5,147,477,356
India,Delhi,Delhi,"IHBAS, Dilshad Garden, Delhi - CPCB",21-01-2026 21:00:00,28.6811736,77.3025234,SO2,1,20,6
India,Delhi,Delhi,"IIT Delhi, Delhi - IITM",21-01-2026 21:00:00,28.542460,77.191651,PM2.5,118,347,281
India,Delhi,Delhi,"IIT Delhi, Delhi - IITM",21-01-2026 21:00:00,28.542460,77.191651,CO,31,109,56
India,Delhi,Delhi,"ITO, Delhi - CPCB",21-01-2026 21:00:00,28.628624,77.241060,PM10,111,345,202
India,Delhi,Delhi,"ITO, Delhi - CPCB",21-01-2026 21:00:00,28.628624,77.241060,NH3,1,4,3
India,Delhi,Delhi,"Jahangirpuri, Delhi - DPCC",21-01-2026 21:00:00,28.732820,77.170633,OZONE,5,89,47
India,Delhi,Delhi,"Lodhi Road, Delhi - IMD",21-01-2026 21:00:00,28.5918245,77.2273074,PM10,99,182,145
India,Delhi,Delhi,"Lodhi Road, Delhi - IMD",21-01-2026 21:00:00,28.5918245,77.2273074,OZONE,7,56,35
India,Delhi,Delhi,"Major Dhyan Chand National Stadium, Delhi - DPCC",21-01-2026 21:00:00,28.611281,77.237738,NO2,40,152,81
India,Delhi,Delhi,"Major Dhyan Chand National Stadium, Delhi - DPCC",21-01-2026 21:00:00,28.611281,77.237738,NH3,17,22,20
India,Delhi,Delhi,"Major Dhyan Chand National Stadium, Delhi - DPCC",21-01-2026 21:00:00,28.611281,77.237738,CO,7,132,60
India,Bihar,Rajgir,"Dangi Tola, Rajgir - BSPCB",21-01-2026 21:00:00,25.03280,85.41948,NO2,7,10,9
India,Bihar,Saharsa,"Police Line, Saharsa - BSPCB",21-01-2026 21:00:00,25.892357,86.590325,NO2,5,10,7
India,Bihar,Saharsa,"Police Line, Saharsa - BSPCB",21-01-2026 21:00:00,25.892357,86.590325,NH3,4,4,4
India,Bihar,Saharsa,"Police Line, Saharsa - BSPCB",21-01-2026 21:00:00,25.892357,86.590325,OZONE,9,10,10
India,Bihar,Samastipur,"DM Office_Kasipur, Samastipur - BSPCB",21-01-2026 21:00:00,25.859655,85.77944,PM2.5,45,306,119
India,Bihar,Sasaram,"Dada Peer, Sasaram - BSPCB",21-01-2026 21:00:00,24.952822,84.002396,NO2,2,3,2
India,Bihar,Sasaram,"Dada Peer, Sasaram - BSPCB",21-01-2026 21:00:00,24.952822,84.002396,SO2,4,5,4
India,Bihar,Siwan,"Chitragupta Nagar, Siwan - BSPCB",21-01-2026 21:00:00,26.2271665,84.3570427,PM10,101,165,133
India,Chandigarh,Chandigarh,"Sector 22, Chandigarh - CPCC",21-01-2026 21:00:00,30.735567,76.775714,NH3,4,22,13
India,Chandigarh,Chandigarh,"Sector 22, Chandigarh - CPCC",21-01-2026 21:00:00,30.735567,76.775714,SO2,3,80,13
India,Chandigarh,Chandigarh,"Sector-25, Chandigarh - CPCC",21-01-2026 21:00:00,30.751462,76.762879,NH3,8,9,9
India,Chandigarh,Chandigarh,"Sector-25, Chandigarh - CPCC",21-01-2026 21:00:00,30.751462,76.762879,OZONE,1,58,35
India,Chhattisgarh,Bhilai,"32Bungalows, Bhilai - CECB",21-01-2026 21:00:00,21.194815,81.314770,PM10,42,116,75
India,Chhattisgarh,Bhilai,"32Bungalows, Bhilai - CECB",21-01-2026 21:00:00,21.194815,81.314770,CO,30,80,36
India,Chhattisgarh,Bhilai,"Hathkhoj, Bhilai - CECB",21-01-2026 21:00:00,21.224231,81.408350,CO,14,110,41
India,Delhi,Delhi,"NSIT Dwarka, Delhi - CPCB",21-01-2026 21:00:00,28.60909,77.0325413,PM2.5,71,380,120
India,Delhi,Delhi,"NSIT Dwarka, Delhi - CPCB",21-01-2026 21:00:00,28.60909,77.0325413,SO2,10,22,15
India,Delhi,Delhi,"NSIT Dwarka, Delhi - CPCB",21-01-2026 21:00:00,28.60909,77.0325413,OZONE,22,40,31
India,Delhi,Delhi,"Najafgarh, Delhi - DPCC",21-01-2026 21:00:00,28.570173,76.933762,NO2,24,162,112
India,Delhi,Delhi,"Najafgarh, Delhi - DPCC",21-01-2026 21:00:00,28.570173,76.933762,SO2,12,33,18
India,Delhi,Delhi,"Najafgarh, Delhi - DPCC",21-01-2026 21:00:00,28.570173,76.933762,CO,22,114,28
India,Delhi,Delhi,"Narela, Delhi - DPCC",21-01-2026 21:00:00,28.822836,77.101981,SO2,1,18,7
India,Delhi,Delhi,"CRRI Mathura Road, Delhi - IMD",21-01-2026 21:00:00,28.5512005,77.2735737,NO2,32,133,54
India,Delhi,Delhi,"Chandni Chowk, Delhi - IITM",21-01-2026 21:00:00,28.656756,77.227234,PM10,149,500,311
India,Delhi,Delhi,"Mundka, Delhi - DPCC",21-01-2026 21:00:00,28.684678,77.076574,PM10,145,453,306
India,Gujarat,Gandhinagar,"GIFT City, Gandhinagar - IITM",21-01-2026 21:00:00,23.163798,72.677768,CO,18,64,45
India,Gujarat,Gandhinagar,"IIPHG Lekawada, Gandhinagar - IITM",21-01-2026 21:00:00,23.243639,72.68994,PM2.5,64,142,99
India,Gujarat,Gandhinagar,"Sector-10, Gandhinagar - GPCB",21-01-2026 21:00:00,23.221714,72.654328,PM2.5,NA,NA,NA
India,Gujarat,Surat,"Science Center, Surat - SMC",21-01-2026 21:00:00,21.170046,72.795405,PM2.5,63,147,89
India,Gujarat,Surat,"Science Center, Surat - SMC",21-01-2026 21:00:00,21.170046,72.795405,PM10,52,115,75
India,Gujarat,Surat,"Science Center, Surat - SMC",21-01-2026 21:00:00,21.170046,72.795405,NO2,11,183,42
India,Gujarat,Vapi,"Phase-1 GIDC, Vapi - GPCB",21-01-2026 21:00:00,20.362421,72.918013,PM2.5,NA,NA,NA
India,Gujarat,Vapi,"Phase-1 GIDC, Vapi - GPCB",21-01-2026 21:00:00,20.362421,72.918013,NO2,NA,NA,NA
India,Gujarat,Vapi,"Phase-1 GIDC, Vapi - GPCB",21-01-2026 21:00:00,20.362421,72.918013,NH3,NA,NA,NA
India,Gujarat,Vatva,"Phase-4 GIDC, Vatva - GPCB",21-01-2026 21:00:00,22.969611,72.643500,CO,13,17,16
India,Gujarat,Vatva,"Phase-4 GIDC, Vatva - GPCB",21-01-2026 21:00:00,22.969611,72.643500,OZONE,20,40,36
India,Haryana,Ambala,"Patti Mehar, Ambala - HSPCB",21-01-2026 21:00:00,30.379589,76.778328,PM2.5,63,127,93
India,Delhi,Delhi,"Nehru Nagar, Delhi - DPCC",21-01-2026 21:00:00,28.567890,77.250515,NO2,31,102,59
India,Delhi,Delhi,"Okhla Phase-2, Delhi - DPCC",21-01-2026 21:00:00,28.530785,77.271255,SO2,15,72,22
India,Delhi,Delhi,"Okhla Phase-2, Delhi - DPCC",21-01-2026 21:00:00,28.530785,77.271255,CO,14,139,65
India,Delhi,Delhi,"Patparganj, Delhi - DPCC",21-01-2026 21:00:00,28.623763,77.287209,PM10,130,401,244
India,Delhi,Delhi,"Patparganj, Delhi - DPCC",21-01-2026 21:00:00,28.623763,77.287209,NO2,38,154,96
India,Delhi,Delhi,"Punjabi Bagh, Delhi - DPCC",21-01-2026 21:00:00,28.674045,77.131023,PM2.5,130,450,342
India,Delhi,Delhi,"Punjabi Bagh, Delhi - DPCC",21-01-2026 21:00:00,28.674045,77.131023,NO2,26,76,52
India,Delhi,Delhi,"Punjabi Bagh, Delhi - DPCC",21-01-2026 21:00:00,28.674045,77.131023,NH3,6,8,7
India,Delhi,Delhi,"Punjabi Bagh, Delhi - DPCC",21-01-2026 21:00:00,28.674045,77.131023,SO2,5,15,9
India,Delhi,Delhi,"Pusa, Delhi - DPCC",21-01-2026 21:00:00,28.639652,77.146275,PM2.5,230,414,353
India,Gujarat,Ahmedabad,"Rakhial, Ahmedabad - IITM",21-01-2026 21:00:00,23.016834,72.625775,NO2,13,101,42
India,Gujarat,Ahmedabad,"Rakhial, Ahmedabad - IITM",21-01-2026 21:00:00,23.016834,72.625775,NH3,5,11,7
India,Gujarat,Ahmedabad,"Rakhial, Ahmedabad - IITM",21-01-2026 21:00:00,23.016834,72.625775,SO2,23,60,35
India,Gujarat,Ahmedabad,"SAC ISRO Bopal, Ahmedabad - IITM",21-01-2026 21:00:00,23.041137,72.456691,SO2,2,33,7
India,Gujarat,Ahmedabad,"SAC ISRO Bopal, Ahmedabad - IITM",21-01-2026 21:00:00,23.041137,72.456691,OZONE,1,82,47
India,Gujarat,Ahmedabad,"SAC ISRO Satellite, Ahmedabad - IITM",21-01-2026 21:00:00,23.023389,72.515201,PM10,72,112,91
India,Gujarat,Ahmedabad,"SVPI Airport Hansol, Ahmedabad - IITM",21-01-2026 21:00:00,23.076793,72.627874,OZONE,2,70,47
India,Gujarat,Ankleshwar,"GIDC, Ankleshwar - GPCB",21-01-2026 21:00:00,21.613267,73.010555,NH3,7,9,7
India,Gujarat,Ankleshwar,"GIDC, Ankleshwar - GPCB",21-01-2026 21:00:00,21.613267,73.010555,CO,30,92,49
India,Haryana,Faridabad,"New Industrial Town, Faridabad - HSPCB",21-01-2026 21:00:00,28.39072,77.30059,PM2.5,206,224,213
India,Haryana,Faridabad,"New Industrial Town, Faridabad - HSPCB",21-01-2026 21:00:00,28.39072,77.30059,NO2,24,27,25
India,Haryana,Faridabad,"New Industrial Town, Faridabad - HSPCB",21-01-2026 21:00:00,28.39072,77.30059,NH3,11,12,11
India,Haryana,Faridabad,"New Industrial Town, Faridabad - HSPCB",21-01-2026 21:00:00,28.39072,77.30059,OZONE,26,35,30
India,Haryana,Fatehabad,"Huda Sector, Fatehabad - HSPCB",21-01-2026 21:00:00,29.503664,75.467934,PM10,110,236,172
India,Haryana,Fatehabad,"Huda Sector, Fatehabad - HSPCB",21-01-2026 21:00:00,29.503664,75.467934,NH3,13,15,14
India,Haryana,Gurugram,"Sector-51, Gurugram - HSPCB",21-01-2026 21:00:00,28.4227,77.0667,PM2.5,237,483,379
India,Haryana,Gurugram,"Sector-51, Gurugram - HSPCB",21-01-2026 21:00:00,28.4227,77.0667,NO2,1,1,1
India,Haryana,Gurugram,"Sector-51, Gurugram - HSPCB",21-01-2026 21:00:00,28.4227,77.0667,NH3,7,8,8
India,Delhi,Delhi,"Sonia Vihar, Delhi - DPCC",21-01-2026 21:00:00,28.710508,77.249485,PM2.5,98,420,318
India,Delhi,Delhi,"Sonia Vihar, Delhi - DPCC",21-01-2026 21:00:00,28.710508,77.249485,PM10,112,409,262
India,Delhi,Delhi,"Sonia Vihar, Delhi - DPCC",21-01-2026 21:00:00,28.710508,77.249485,OZONE,6,117,79
India,Delhi,Delhi,"Sri Aurobindo Marg, Delhi - DPCC",21-01-2026 21:00:00,28.531346,77.190156,NH3,NA,NA,NA
India,Delhi,Delhi,"Vivek Vihar, Delhi - DPCC",21-01-2026 21:00:00,28.672342,77.315260,PM10,152,451,273
India,Delhi,Delhi,"Wazirpur, Delhi - DPCC",21-01-2026 21:00:00,28.699793,77.165453,PM10,149,500,318
India,Delhi,Delhi,"Wazirpur, Delhi - DPCC",21-01-2026 21:00:00,28.699793,77.165453,OZONE,45,66,56
India,Haryana,Ambala,"Patti Mehar, Ambala - HSPCB",21-01-2026 21:00:00,30.379589,76.778328,OZONE,10,18,15
India,Haryana,Ballabgarh,"Nathu Colony, Ballabgarh - HSPCB",21-01-2026 21:00:00,28.3419248,77.319699,PM2.5,NA,NA,NA
India,Haryana,Ballabgarh,"Nathu Colony, Ballabgarh - HSPCB",21-01-2026 21:00:00,28.3419248,77.319699,OZONE,14,15,15
India,Haryana,Bhiwani,"H.B. Colony, Bhiwani - HSPCB",21-01-2026 21:00:00,28.806223,76.141105,CO,12,14,12
India,Haryana,Dharuhera,"Municipal Corporation Office, Dharuhera -  HSPCB",21-01-2026 21:00:00,28.206800,76.799700,PM2.5,276,421,345
India,Delhi,Delhi,"R K Puram, Delhi - DPCC",21-01-2026 21:00:00,28.563262,77.186937,SO2,4,88,27
India,Delhi,Delhi,"Rohini, Delhi - DPCC",21-01-2026 21:00:00,28.732528,77.119920,SO2,4,14,8
India,Delhi,Delhi,"Shadipur, Delhi - CPCB",21-01-2026 21:00:00,28.6514781,77.1473105,NH3,15,20,18
India,Delhi,Delhi,"Shadipur, Delhi - CPCB",21-01-2026 21:00:00,28.6514781,77.1473105,SO2,6,19,14
India,Delhi,Delhi,"Sirifort, Delhi - CPCB",21-01-2026 21:00:00,28.5504249,77.2159377,PM10,154,500,317
India,Delhi,Delhi,"Sirifort, Delhi - CPCB",21-01-2026 21:00:00,28.5504249,77.2159377,NH3,3,9,5
India,Gujarat,Ahmedabad,"Chandkheda, Ahmedabad - IITM",21-01-2026 21:00:00,23.107969,72.574648,PM10,100,199,135
India,Gujarat,Ahmedabad,"Chandkheda, Ahmedabad - IITM",21-01-2026 21:00:00,23.107969,72.574648,NH3,4,9,5
India,Gujarat,Ahmedabad,"Chandkheda, Ahmedabad - IITM",21-01-2026 21:00:00,23.107969,72.574648,OZONE,1,53,39
India,Gujarat,Ahmedabad,"Gyaspur, Ahmedabad - IITM",21-01-2026 21:00:00,22.977134,72.553024,NH3,5,31,15
India,Gujarat,Ahmedabad,"Raikhad, Ahmedabad - IITM",21-01-2026 21:00:00,23.020509,72.579261,PM2.5,81,151,111
India,Gujarat,Ahmedabad,"Raikhad, Ahmedabad - IITM",21-01-2026 21:00:00,23.020509,72.579261,NH3,13,32,19
India,Haryana,Gurugram,"Sector-51, Gurugram - HSPCB",21-01-2026 21:00:00,28.4227,77.0667,CO,18,104,25
India,Haryana,Gurugram,"Vikas Sadan, Gurugram - HSPCB",21-01-2026 21:00:00,28.4501238,77.0263051,NO2,9,46,26
India,Haryana,Jind,"Police Lines, Jind - HSPCB",21-01-2026 21:00:00,29.307814,76.337619,PM10,123,162,136
India,Haryana,Jind,"Police Lines, Jind - HSPCB",21-01-2026 21:00:00,29.307814,76.337619,NH3,2,2,2
India,Haryana,Jind,"Police Lines, Jind - HSPCB",21-01-2026 21:00:00,29.307814,76.337619,SO2,2,5,3
India,Haryana,Panchgaon,"Amity University, Panchgaon - IITM",21-01-2026 21:00:00,28.3153,76.9143,PM2.5,23,384,112
India,Haryana,Panchgaon,"Amity University, Panchgaon - IITM",21-01-2026 21:00:00,28.3153,76.9143,PM10,31,304,100
India,Haryana,Panchgaon,"Amity University, Panchgaon - IITM",21-01-2026 21:00:00,28.3153,76.9143,NO2,8,75,35
India,Haryana,Panchgaon,"Amity University, Panchgaon - IITM",21-01-2026 21:00:00,28.3153,76.9143,NH3,3,20,11
India,Haryana,Panchgaon,"Amity University, Panchgaon - IITM",21-01-2026 21:00:00,28.3153,76.9143,CO,NA,NA,NA
India,Haryana,Panchkula,"Sector-6, Panchkula - HSPCB ",21-01-2026 21:00:00,30.7057778,76.8531805555555,SO2,15,15,15
India,Haryana,Panipat,"Sector-18, Panipat - HSPCB",21-01-2026 21:00:00,29.432304,76.972765,PM2.5,86,290,182
India,Haryana,Panipat,"Sector-18, Panipat - HSPCB",21-01-2026 21:00:00,29.432304,76.972765,NO2,31,32,31
India,Haryana,Panipat,"Sector-18, Panipat - HSPCB",21-01-2026 21:00:00,29.432304,76.972765,SO2,18,19,19
India,Haryana,Sirsa,"F-Block, Sirsa - HSPCB",21-01-2026 21:00:00,29.536400,75.015800,NO2,10,27,19
India,Karnataka,Hubballi,"Lingaraj Nagar, Hubballi - KSPCB",21-01-2026 21:00:00,15.3714823,75.1160168,OZONE,12,30,23
India,Karnataka,Kalaburagi,"Mahatma Basaveswar Colony, Kalaburgi - KSPCB",21-01-2026 21:00:00,17.336318,76.847397,PM10,15,77,50
India,Karnataka,Kalaburagi,"Mahatma Basaveswar Colony, Kalaburgi - KSPCB",21-01-2026 21:00:00,17.336318,76.847397,NO2,12,21,18
India,Karnataka,Kalaburagi,"Mahatma Basaveswar Colony, Kalaburgi - KSPCB",21-01-2026 21:00:00,17.336318,76.847397,OZONE,13,19,18
India,Karnataka,Mysuru,"Hebbal 1st Stage, Mysuru - KSPCB",21-01-2026 21:00:00,12.21041,76.37376,PM10,54,98,72
India,Karnataka,Mysuru,"Hebbal 1st Stage, Mysuru - KSPCB",21-01-2026 21:00:00,12.21041,76.37376,NH3,2,6,4
India,Karnataka,Ramanagara,"Vijay Nagar, Ramanagara - KSPCB",21-01-2026 21:00:00,12.733409,77.298051,OZONE,27,67,57
India,Karnataka,Shivamogga,"Vinoba Nagara, Shivamogga - KSPCB",21-01-2026 21:00:00,13.940000,75.555917,NH3,2,3,2
India,Karnataka,Bagalkot,"Vidayagiri, Bagalkot - KSPCB",21-01-2026 21:00:00,16.172806,75.659694,PM2.5,35,36,35
India,Karnataka,Bagalkot,"Vidayagiri, Bagalkot - KSPCB",21-01-2026 21:00:00,16.172806,75.659694,NO2,11,12,12
India,Karnataka,Bagalkot,"Vidayagiri, Bagalkot - KSPCB",21-01-2026 21:00:00,16.172806,75.659694,NH3,1,2,1
India,Karnataka,Bagalkot,"Vidayagiri, Bagalkot - KSPCB",21-01-2026 21:00:00,16.172806,75.659694,SO2,7,7,7
India,Karnataka,Belgaum,"Ramteerth Nagar, Belgaum - KSPCB",21-01-2026 21:00:00,15.888653,74.541751,PM2.5,26,94,58
India,Karnataka,Belgaum,"Ramteerth Nagar, Belgaum - KSPCB",21-01-2026 21:00:00,15.888653,74.541751,NO2,27,132,61
India,Karnataka,Belgaum,"Ramteerth Nagar, Belgaum - KSPCB",21-01-2026 21:00:00,15.888653,74.541751,NH3,8,10,9
India,Karnataka,Bengaluru,"BTM Layout, Bengaluru - CPCB",21-01-2026 21:00:00,12.9135218,77.5950804,PM2.5,NA,NA,NA
India,Karnataka,Bengaluru,"Bapuji Nagar, Bengaluru - KSPCB",21-01-2026 21:00:00,12.951913,77.539784,CO,2,38,16
India,Karnataka,Bengaluru,"RVCE-Mailasandra, Bengaluru - KSPCB",21-01-2026 21:00:00,12.921418,77.502466,PM10,74,179,125
India,Karnataka,Bengaluru,"RVCE-Mailasandra, Bengaluru - KSPCB",21-01-2026 21:00:00,12.921418,77.502466,NH3,2,3,3
India,Karnataka,Bengaluru,"RVCE-Mailasandra, Bengaluru - KSPCB",21-01-2026 21:00:00,12.921418,77.502466,CO,5,28,20
India,Karnataka,Bengaluru,"Shivapura_Peenya, Bengaluru - KSPCB",21-01-2026 21:00:00,13.0246342,77.5080115,PM2.5,18,53,31
India,Karnataka,Bengaluru,"Shivapura_Peenya, Bengaluru - KSPCB",21-01-2026 21:00:00,13.0246342,77.5080115,NH3,7,8,7
India,Karnataka,Chamarajanagar,"Urban, Chamarajanagar - KSPCB",21-01-2026 21:00:00,11.55358,76.55521,NO2,15,36,26
India,Karnataka,Chamarajanagar,"Urban, Chamarajanagar - KSPCB",21-01-2026 21:00:00,11.55358,76.55521,CO,19,120,23
India,Karnataka,Chikkaballapur,"Chikkaballapur Rural, Chikkaballapur - KSPCB",21-01-2026 21:00:00,13.428828,77.731418,SO2,NA,NA,NA
India,Karnataka,Chikkamagaluru,"Kalyana Nagara, Chikkamagaluru - KSPCB",21-01-2026 21:00:00,13.328028,75.797056,PM10,32,51,44
India,Karnataka,Chikkamagaluru,"Kalyana Nagara, Chikkamagaluru - KSPCB",21-01-2026 21:00:00,13.328028,75.797056,CO,6,12,10
India,Karnataka,Dharwad,"Kalabhavan, Dharwad - KSPCB",21-01-2026 21:00:00,15.459706,75.008381,PM10,NA,NA,NA
India,Karnataka,Dharwad,"Kalabhavan, Dharwad - KSPCB",21-01-2026 21:00:00,15.459706,75.008381,NO2,NA,NA,NA
India,Karnataka,Hubballi,"Lingaraj Nagar, Hubballi - KSPCB",21-01-2026 21:00:00,15.3714823,75.1160168,NO2,7,13,8
India,Haryana,Sonipat,"Murthal, Sonipat - HSPCB",21-01-2026 21:00:00,29.027200,77.062100,SO2,5,11,8
India,Haryana,Yamuna Nagar,"Gobind Pura, Yamuna Nagar - HSPCB",21-01-2026 21:00:00,30.1480566,77.2893471,PM10,20,222,113
India,Himachal Pradesh,Baddi,"HIMUDA Complex Phase-1, Baddi - HPPCB",21-01-2026 21:00:00,30.943887,76.801991,PM2.5,38,416,143
India,Himachal Pradesh,Baddi,"HIMUDA Complex Phase-1, Baddi - HPPCB",21-01-2026 21:00:00,30.943887,76.801991,PM10,76,417,175
India,Himachal Pradesh,Baddi,"HIMUDA Complex Phase-1, Baddi - HPPCB",21-01-2026 21:00:00,30.943887,76.801991,NH3,1,3,2
India,Haryana,Karnal,"Sector-12, Karnal - HSPCB",21-01-2026 21:00:00,29.695300,77.002700,CO,30,36,32
India,Haryana,Mandikhera,"General Hospital, Mandikhera(Nuh) - HSPCB",21-01-2026 21:00:00,27.9002,76.9938,NO2,19,24,21
India,Haryana,Mandikhera,"General Hospital, Mandikhera(Nuh) - HSPCB",21-01-2026 21:00:00,27.9002,76.9938,SO2,31,36,33
India,Haryana,Manesar,"Sector-2 IMT, Manesar - HSPCB",21-01-2026 21:00:00,28.360699,76.936090,SO2,4,13,8
India,Haryana,Narnaul,"Shastri Nagar, Narnaul - HSPCB",21-01-2026 21:00:00,28.060249,76.113115,NH3,14,28,21
India,Karnataka,Bengaluru,"Jayanagar 5th Block, Bengaluru - KSPCB",21-01-2026 21:00:00,12.920984,77.584908,SO2,6,21,11
India,Karnataka,Bengaluru,"Jigani, Bengaluru - KSPCB",21-01-2026 21:00:00,12.7816279,77.6299145,SO2,18,19,18
India,Karnataka,Bengaluru,"Jigani, Bengaluru - KSPCB",21-01-2026 21:00:00,12.7816279,77.6299145,OZONE,22,24,23
India,Karnataka,Bengaluru,"Kasturi Nagar, Bengaluru - KSPCB",21-01-2026 21:00:00,13.003872,77.664217,PM10,NA,NA,NA
India,Karnataka,Bengaluru,"Kasturi Nagar, Bengaluru - KSPCB",21-01-2026 21:00:00,13.003872,77.664217,NO2,NA,NA,NA
India,Karnataka,Bengaluru,"Kasturi Nagar, Bengaluru - KSPCB",21-01-2026 21:00:00,13.003872,77.664217,SO2,NA,NA,NA
India,Jammu_and_Kashmir,Srinagar,"Rajbagh, Srinagar - JKPCC",21-01-2026 21:00:00,34.066206,74.819820,SO2,3,4,3
India,Jharkhand,Dhanbad,"Sardar Patel Nagar, Dhanbad - JSPCB",21-01-2026 21:00:00,23.80569,86.44268,PM2.5,16,304,113
India,Jharkhand,Dhanbad,"Sardar Patel Nagar, Dhanbad - JSPCB",21-01-2026 21:00:00,23.80569,86.44268,SO2,22,30,27
India,Madhya Pradesh,Katni,"Gole Bazar, Katni - MPPCB",21-01-2026 21:00:00,23.50016,80.23284,NO2,18,51,33
India,Madhya Pradesh,Mandideep,"Sector-D Industrial Area, Mandideep - MPPCB",21-01-2026 21:00:00,23.108440,77.511428,SO2,18,52,32
India,Madhya Pradesh,Pithampur,"Sector-2 Industrial Area, Pithampur - MPPCB",21-01-2026 21:00:00,22.624758,75.675238,PM2.5,110,324,204
India,Madhya Pradesh,Pithampur,"Sector-2 Industrial Area, Pithampur - MPPCB",21-01-2026 21:00:00,22.624758,75.675238,PM10,88,175,119
India,Madhya Pradesh,Pithampur,"Sector-2 Industrial Area, Pithampur - MPPCB",21-01-2026 21:00:00,22.624758,75.675238,NO2,17,26,21
India,Madhya Pradesh,Pithampur,"Sector-2 Industrial Area, Pithampur - MPPCB",21-01-2026 21:00:00,22.624758,75.675238,SO2,1,37,11
India,Madhya Pradesh,Ratlam,"Shasthri Nagar, Ratlam - IPCA Lab",21-01-2026 21:00:00,23.331731,75.045981,SO2,32,34,33
India,Madhya Pradesh,Sagar,"Civil Lines, Sagar - MPPCB",21-01-2026 21:00:00,23.838586,78.759431,NO2,13,64,29
India,Madhya Pradesh,Sagar,"Civil Lines, Sagar - MPPCB",21-01-2026 21:00:00,23.838586,78.759431,NH3,1,4,2
India,Madhya Pradesh,Sagar,"Deen Dayal Nagar, Sagar - MPPCB",21-01-2026 21:00:00,23.8640158,78.80289321,PM10,37,150,92
India,Madhya Pradesh,Gwalior,"Maharaj Bada, Gwalior - MPPCB",21-01-2026 21:00:00,26.200388,78.147714,CO,9,162,100
India,Madhya Pradesh,Gwalior,"Maharaj Bada, Gwalior - MPPCB",21-01-2026 21:00:00,26.200388,78.147714,OZONE,12,67,57
India,Madhya Pradesh,Indore,"Airport Area, Indore - IMC",21-01-2026 21:00:00,22.7289,75.8076,PM10,68,151,92
India,Madhya Pradesh,Indore,"Chhoti Gwaltoli, Indore - MPPCB",21-01-2026 21:00:00,22.4310,75.5213,NH3,1,7,5
India,Madhya Pradesh,Indore,"Maguda Nagar, Indore - IMC",21-01-2026 21:00:00,22.7524,75.8872,NO2,16,63,46
India,Madhya Pradesh,Indore,"Maguda Nagar, Indore - IMC",21-01-2026 21:00:00,22.7524,75.8872,NH3,3,26,8
India,Madhya Pradesh,Indore,"Maguda Nagar, Indore - IMC",21-01-2026 21:00:00,22.7524,75.8872,SO2,1,38,6
India,Madhya Pradesh,Indore,"Maguda Nagar, Indore - IMC",21-01-2026 21:00:00,22.7524,75.8872,CO,12,45,28
India,Madhya Pradesh,Indore,"Regional Park, Indore - IMC",21-01-2026 21:00:00,22.6780,75.8559,NH3,1,9,2
India,Madhya Pradesh,Indore,"Residency Area, Indore - IMC",21-01-2026 21:00:00,22.7084,75.8815,PM2.5,41,84,54
India,Kerala,Thiruvananthapuram,"Kariavattom, Thiruvananthapuram - Kerala PCB",21-01-2026 21:00:00,8.563700,76.886500,SO2,1,13,6
India,Kerala,Thiruvananthapuram,"Plammoodu, Thiruvananthapuram - Kerala PCB",21-01-2026 21:00:00,8.5149093,76.9435879,PM10,68,101,84
India,Kerala,Thrissur,"Corporation Ground, Thrissur - Kerala PCB",21-01-2026 21:00:00,10.532400,76.215900,SO2,1,1,1
India,Kerala,Thrissur,"Corporation Ground, Thrissur - Kerala PCB",21-01-2026 21:00:00,10.532400,76.215900,OZONE,29,30,30
India,Madhya Pradesh,Bhopal,"Idgah Hills, Bhopal - MPPCB",21-01-2026 21:00:00,23.264759,77.381568,PM10,88,135,112
India,Madhya Pradesh,Bhopal,"Idgah Hills, Bhopal - MPPCB",21-01-2026 21:00:00,23.264759,77.381568,SO2,11,16,13
India,Madhya Pradesh,Bhopal,"Paryavaran Parisar, Bhopal - MPPCB",21-01-2026 21:00:00,23.210494,77.425409,NO2,37,102,62
India,Madhya Pradesh,Indore,"Residency Area, Indore - IMC",21-01-2026 21:00:00,22.7084,75.8815,OZONE,6,106,13
India,Madhya Pradesh,Jabalpur,"Govindh Bhavan Colony, Jabalpur - JMC",21-01-2026 21:00:00,23.163174,79.973061,PM2.5,45,107,68
India,Madhya Pradesh,Jabalpur,"Govindh Bhavan Colony, Jabalpur - JMC",21-01-2026 21:00:00,23.163174,79.973061,NH3,1,1,1
India,Madhya Pradesh,Jabalpur,"Govindh Bhavan Colony, Jabalpur - JMC",21-01-2026 21:00:00,23.163174,79.973061,SO2,3,7,6
India,Madhya Pradesh,Jabalpur,"Marhatal, Jabalpur - MPPCB",21-01-2026 21:00:00,23.168606,79.932247,NO2,24,79,38
India,Madhya Pradesh,Jabalpur,"Marhatal, Jabalpur - MPPCB",21-01-2026 21:00:00,23.168606,79.932247,CO,2,126,41
India,Madhya Pradesh,Jabalpur,"Suhagi, Jabalpur - JMC",21-01-2026 21:00:00,23.218135,79.957770,PM10,55,169,102
India,Madhya Pradesh,Jabalpur,"Suhagi, Jabalpur - JMC",21-01-2026 21:00:00,23.218135,79.957770,NO2,25,124,54
India,Madhya Pradesh,Bhopal,"T T Nagar, Bhopal - MPPCB",21-01-2026 21:00:00,23.233584,77.400574,OZONE,38,157,102
India,Madhya Pradesh,Damoh,"Shrivastav Colony, Damoh - MPPCB",21-01-2026 21:00:00,23.81748678,79.446246,SO2,42,60,51
India,Madhya Pradesh,Damoh,"Shrivastav Colony, Damoh - MPPCB",21-01-2026 21:00:00,23.81748678,79.446246,CO,14,18,15
India,Madhya Pradesh,Gwalior,"City Center, Gwalior - MPPCB",21-01-2026 21:00:00,26.203442,78.193251,PM2.5,NA,NA,NA
India,Madhya Pradesh,Gwalior,"Maharaj Bada, Gwalior - MPPCB",21-01-2026 21:00:00,26.200388,78.147714,PM2.5,85,358,221
India,Madhya Pradesh,Gwalior,"Maharaj Bada, Gwalior - MPPCB",21-01-2026 21:00:00,26.200388,78.147714,PM10,89,267,167
India,Madhya Pradesh,Gwalior,"Maharaj Bada, Gwalior - MPPCB",21-01-2026 21:00:00,26.200388,78.147714,NO2,37,143,70
India,Maharashtra,Amravati,"Shivneri Colony, Amravati - MPCB",21-01-2026 21:00:00,20.9402359,77.7895248,PM10,72,110,91
India,Maharashtra,Amravati,"Shivneri Colony, Amravati - MPCB",21-01-2026 21:00:00,20.9402359,77.7895248,NH3,2,3,3
India,Maharashtra,Amravati,"Shivneri Colony, Amravati - MPCB",21-01-2026 21:00:00,20.9402359,77.7895248,OZONE,7,76,51
India,Maharashtra,Aurangabad,"MIDC Chilkalthana, Aurangabad - MPCB",21-01-2026 21:00:00,19.875620,75.387310,PM2.5,67,152,99
India,Maharashtra,Aurangabad,"MIDC Chilkalthana, Aurangabad - MPCB",21-01-2026 21:00:00,19.875620,75.387310,NH3,1,3,2
India,Maharashtra,Aurangabad,"MIDC Chilkalthana, Aurangabad - MPCB",21-01-2026 21:00:00,19.875620,75.387310,SO2,1,3,1
India,Maharashtra,Aurangabad,"More Chowk Waluj, Aurangabad - MPCB",21-01-2026 21:00:00,19.8389439,75.244448,OZONE,9,92,65
India,Karnataka,Tumakuru,"Thimmalapura, Tumakuru - KSPCB",21-01-2026 21:00:00,13.377516,77.099072,PM2.5,86,319,130
India,Karnataka,Vijayapura,"Ibrahimpur, Vijayapura - KSPCB",21-01-2026 21:00:00,16.802639,75.722694,PM10,61,62,62
India,Karnataka,Vijayapura,"Ibrahimpur, Vijayapura - KSPCB",21-01-2026 21:00:00,16.802639,75.722694,OZONE,16,16,16
India,Karnataka,Yadgir,"Collector Office, Yadgir - KSPCB",21-01-2026 21:00:00,16.7602,77.1428,CO,3,23,7
India,Kerala,Eloor,"Udyogamandal, Eloor - Kerala PCB",21-01-2026 21:00:00,10.073232,76.302765,CO,10,84,56
India,Madhya Pradesh,Ujjain,"Mahashweta Nagar, Ujjain - MPPCB",21-01-2026 21:00:00,23.1633321,75.800225,OZONE,26,119,75
India,Maharashtra,Ahmednagar,"Tarakpur, Ahmednagar - MPCB",21-01-2026 21:00:00,19.10122,74.73339,PM2.5,NA,NA,NA
India,Maharashtra,Ahmednagar,"Tarakpur, Ahmednagar - MPCB",21-01-2026 21:00:00,19.10122,74.73339,NH3,NA,NA,NA
India,Maharashtra,Ahmednagar,"Tarakpur, Ahmednagar - MPCB",21-01-2026 21:00:00,19.10122,74.73339,CO,NA,NA,NA
India,Maharashtra,Akola,"Ramdaspeth, Akola - MPCB",21-01-2026 21:00:00,20.719516,77.000253,PM2.5,41,150,76
India,Kerala,Thiruvananthapuram,"Kariavattom, Thiruvananthapuram - Kerala PCB",21-01-2026 21:00:00,8.563700,76.886500,PM2.5,55,243,165
India,Maharashtra,Chandrapur,"Chauhan Colony, Chandrapur - MPCB",21-01-2026 21:00:00,19.962900,79.298714,PM10,86,267,140
India,Maharashtra,Chandrapur,"Chauhan Colony, Chandrapur - MPCB",21-01-2026 21:00:00,19.962900,79.298714,NO2,31,33,32
India,Maharashtra,Chandrapur,"Chauhan Colony, Chandrapur - MPCB",21-01-2026 21:00:00,19.962900,79.298714,SO2,37,37,37
India,Maharashtra,Chandrapur,"MIDC Khutala, Chandrapur - MPCB",21-01-2026 21:00:00,19.9775302,79.2337086,OZONE,17,19,18
India,Maharashtra,Dhule,"Deopur, Dhule - MPCB",21-01-2026 21:00:00,20.918946,74.776388,NO2,10,78,26
India,Maharashtra,Jalgaon,"Prabhat Colony, Jalgaon - MPCB",21-01-2026 21:00:00,21.001264,75.565602,PM2.5,18,165,80
India,Maharashtra,Jalgaon,"Prabhat Colony, Jalgaon - MPCB",21-01-2026 21:00:00,21.001264,75.565602,PM10,27,136,90
India,Maharashtra,Jalgaon,"Prabhat Colony, Jalgaon - MPCB",21-01-2026 21:00:00,21.001264,75.565602,NH3,2,3,3
India,Maharashtra,Jalgaon,"Prabhat Colony, Jalgaon - MPCB",21-01-2026 21:00:00,21.001264,75.565602,SO2,3,20,7
India,Maharashtra,Jalgaon,"Prabhat Colony, Jalgaon - MPCB",21-01-2026 21:00:00,21.001264,75.565602,OZONE,3,75,44
India,Maharashtra,Jalna,"Old MIDC, Jalna - MPCB",21-01-2026 21:00:00,19.854616,75.905894,NH3,2,5,4
India,Maharashtra,Jalna,"Old MIDC, Jalna - MPCB",21-01-2026 21:00:00,19.854616,75.905894,OZONE,23,63,54
India,Maharashtra,Kalyan,"Khadakpada, Kalyan - MPCB",21-01-2026 21:00:00,19.25292,73.142019,PM2.5,69,312,157
India,Maharashtra,Kalyan,"Pimpleshwar Mandir, Kalyan - MPCB",21-01-2026 21:00:00,19.192056,72.9585188,PM10,NA,NA,NA
India,Maharashtra,Kalyan,"Pimpleshwar Mandir, Kalyan - MPCB",21-01-2026 21:00:00,19.192056,72.9585188,OZONE,4,113,62
India,Maharashtra,Kolhapur,"Shivaji University, Kolhapur - MPCB",21-01-2026 21:00:00,16.6870449,74.2505872,NH3,3,4,4
India,Maharashtra,Kolhapur,"Shivaji University, Kolhapur - MPCB",21-01-2026 21:00:00,16.6870449,74.2505872,SO2,3,4,4
India,Maharashtra,Kolhapur,"Shivaji University, Kolhapur - MPCB",21-01-2026 21:00:00,16.6870449,74.2505872,OZONE,2,55,38
India,Maharashtra,Kolhapur,"Sinchan Bhavan, Kolhapur - MPCB",21-01-2026 21:00:00,16.7143745,74.2426398,OZONE,6,39,31
India,Maharashtra,Latur,"Sawe Wadi, Latur - MPCB",21-01-2026 21:00:00,18.39963,76.57452,NO2,15,59,29
India,Maharashtra,Aurangabad,"Rachnakar Colony, Aurangabad - MPCB",21-01-2026 21:00:00,19.863756,75.321188,PM10,NA,NA,NA
India,Maharashtra,Belapur,"CBD Belapur, Belapur - MPCB",21-01-2026 21:00:00,19.0243902,73.0406721,NO2,18,62,41
India,Maharashtra,Belapur,"CBD Belapur, Belapur - MPCB",21-01-2026 21:00:00,19.0243902,73.0406721,NH3,2,2,2
India,Maharashtra,Belapur,"CBD Belapur, Belapur - MPCB",21-01-2026 21:00:00,19.0243902,73.0406721,SO2,17,34,23
India,Maharashtra,Belapur,"CBD Belapur, Belapur - MPCB",21-01-2026 21:00:00,19.0243902,73.0406721,OZONE,1,71,47
India,Maharashtra,Bhiwandi,"Gokul Nagar, Bhiwandi - MPCB",21-01-2026 21:00:00,19.309073,73.057223,NH3,4,9,6
India,Maharashtra,Boisar,"Khaira, Boisar - MPCB",21-01-2026 21:00:00,19.786089,72.757971,PM10,69,104,84
India,Maharashtra,Boisar,"Khaira, Boisar - MPCB",21-01-2026 21:00:00,19.786089,72.757971,OZONE,10,267,82
India,Maharashtra,Mumbai,"Bandra Kurla Complex, Mumbai - MPCB",21-01-2026 21:00:00,19.065931,72.862131,NO2,45,108,77
India,Maharashtra,Mumbai,"Borivali East, Mumbai - IITM",21-01-2026 21:00:00,19.23241,72.86895,CO,34,86,52
India,Maharashtra,Mumbai,"Byculla, Mumbai - BMC",21-01-2026 21:00:00,18.9767,72.8380,NO2,51,139,90
India,Maharashtra,Mumbai,"Byculla, Mumbai - BMC",21-01-2026 21:00:00,18.9767,72.8380,NH3,10,38,22
India,Maharashtra,Mumbai,"Byculla, Mumbai - BMC",21-01-2026 21:00:00,18.9767,72.8380,SO2,1,6,3
India,Maharashtra,Mumbai,"Byculla, Mumbai - BMC",21-01-2026 21:00:00,18.9767,72.8380,CO,42,105,52
India,Maharashtra,Mumbai,"Byculla, Mumbai - BMC",21-01-2026 21:00:00,18.9767,72.8380,OZONE,1,48,37
India,Maharashtra,Mumbai,"Mindspace-Malad West, Mumbai - MPCB",21-01-2026 21:00:00,19.1878657,72.8304069,CO,22,101,34
India,Maharashtra,Mumbai,"Mindspace-Malad West, Mumbai - MPCB",21-01-2026 21:00:00,19.1878657,72.8304069,OZONE,4,79,47
India,Maharashtra,Mumbai,"Mulund West, Mumbai - MPCB",21-01-2026 21:00:00,19.1750,72.9419,PM2.5,88,186,129
India,Maharashtra,Mumbai,"Mulund West, Mumbai - MPCB",21-01-2026 21:00:00,19.1750,72.9419,NO2,16,20,17
India,Maharashtra,Mumbai,"Mulund West, Mumbai - MPCB",21-01-2026 21:00:00,19.1750,72.9419,SO2,NA,NA,NA
India,Maharashtra,Mumbai,"Navy Nagar-Colaba, Mumbai - IITM",21-01-2026 21:00:00,18.897756,72.813320,OZONE,4,76,68
India,Maharashtra,Mumbai,"Kandivali East, Mumbai - MPCB",21-01-2026 21:00:00,19.205800,72.868200,NH3,3,3,3
India,Maharashtra,Mumbai,"Kherwadi_Bandra East, Mumbai - MPCB",21-01-2026 21:00:00,19.0632143,72.8456324,PM10,99,201,144
India,Maharashtra,Mumbai,"Kherwadi_Bandra East, Mumbai - MPCB",21-01-2026 21:00:00,19.0632143,72.8456324,NH3,15,27,21
India,Maharashtra,Mumbai,"Khindipada-Bhandup West, Mumbai - IITM",21-01-2026 21:00:00,19.1653323,72.922099,CO,6,32,10
India,Maharashtra,Mira-Bhayandar,"Bhayandar West, Mira-Bhayandar - MPCB",21-01-2026 21:00:00,19.296481,72.840923,PM10,90,192,112
India,Maharashtra,Mumbai,"Bandra Kurla Complex, Mumbai - IITM",21-01-2026 21:00:00,19.053536,72.84643,NO2,NA,NA,NA
India,Maharashtra,Mumbai,"Bandra Kurla Complex, Mumbai - IITM",21-01-2026 21:00:00,19.053536,72.84643,SO2,12,38,20
India,Maharashtra,Mumbai,"Bandra Kurla Complex, Mumbai - IITM",21-01-2026 21:00:00,19.053536,72.84643,OZONE,2,83,56
India,Maharashtra,Mumbai,"Colaba, Mumbai - MPCB",21-01-2026 21:00:00,18.910000,72.820000,CO,64,70,66
India,Maharashtra,Mumbai,"Deonar, Mumbai - IITM",21-01-2026 21:00:00,19.04946,72.9230,OZONE,1,23,14
India,Maharashtra,Mumbai,"Kandivali East, Mumbai - MPCB",21-01-2026 21:00:00,19.205800,72.868200,PM2.5,9,25,16
India,Maharashtra,Latur,"Sawe Wadi, Latur - MPCB",21-01-2026 21:00:00,18.39963,76.57452,CO,14,42,28
India,Maharashtra,Mahad,"Kamble Tarf Birwadi, Mahad - MPCB",21-01-2026 21:00:00,18.1023399,73.4783687,PM2.5,62,104,82
India,Maharashtra,Mumbai,"Powai, Mumbai - MPCB",21-01-2026 21:00:00,19.137500,72.915056,PM10,40,81,61
India,Maharashtra,Mumbai,"Powai, Mumbai - MPCB",21-01-2026 21:00:00,19.137500,72.915056,NH3,1,2,2
India,Maharashtra,Mumbai,"Sewri, Mumbai - BMC",21-01-2026 21:00:00,19.000084,72.856730,PM2.5,79,223,127
India,Maharashtra,Mumbai,"Sewri, Mumbai - BMC",21-01-2026 21:00:00,19.000084,72.856730,NH3,5,46,20
India,Maharashtra,Mumbai,"Shivaji Nagar, Mumbai - BMC",21-01-2026 21:00:00,19.060498,72.923356,NO2,53,110,77
India,Maharashtra,Mumbai,"Siddharth Nagar-Worli, Mumbai - IITM",21-01-2026 21:00:00,19.000083,72.813993,PM2.5,NA,NA,NA
India,Maharashtra,Mumbai,"Sion, Mumbai - MPCB",21-01-2026 21:00:00,19.047000,72.874600,NO2,35,39,37
India,Maharashtra,Mumbai,"Sion, Mumbai - MPCB",21-01-2026 21:00:00,19.047000,72.874600,SO2,4,14,9
India,Maharashtra,Mumbai,"Vile Parle West, Mumbai - MPCB",21-01-2026 21:00:00,19.10861,72.83622,PM10,92,137,113
India,Maharashtra,Mumbai,"Vile Parle West, Mumbai - MPCB",21-01-2026 21:00:00,19.10861,72.83622,NO2,11,11,11
India,Maharashtra,Pimpri-Chinchwad,"Thergaon, Pimpri Chinchwad - MPCB",21-01-2026 21:00:00,18.616318,73.765797,CO,23,103,44
India,Maharashtra,Pune,"Bhosari, Pune - IITM",21-01-2026 21:00:00,18.640051,73.848956,NO2,11,14,13
India,Maharashtra,Pune,"Bhosari, Pune - IITM",21-01-2026 21:00:00,18.640051,73.848956,OZONE,5,97,82
India,Maharashtra,Pune,"Bhumkar Nagar, Pune - IITM",21-01-2026 21:00:00,18.605770,73.749976,PM2.5,130,318,265
India,Maharashtra,Pune,"Dhankawadi, Pune - IITM",21-01-2026 21:00:00,18.459883,73.852193,PM2.5,NA,NA,NA
India,Maharashtra,Pune,"Dhankawadi, Pune - IITM",21-01-2026 21:00:00,18.459883,73.852193,CO,6,60,34
India,Maharashtra,Pune,"Hadapsar, Pune - IITM",21-01-2026 21:00:00,18.501793,73.927532,PM10,124,239,180
India,Maharashtra,Pune,"Katraj Dairy, Pune - MPCB",21-01-2026 21:00:00,18.454450,73.854155,PM2.5,45,55,49
India,Maharashtra,Pune,"Katraj Dairy, Pune - MPCB",21-01-2026 21:00:00,18.454450,73.854155,SO2,3,5,4
India,Maharashtra,Pune,"Mhada Colony, Pune - IITM",21-01-2026 21:00:00,18.573040,73.927715,CO,2,2,2
India,Maharashtra,Pune,"Panchawati_Pashan, Pune - IITM",21-01-2026 21:00:00,18.536457,73.805454,PM10,73,145,97
India,Maharashtra,Pune,"Panchawati_Pashan, Pune - IITM",21-01-2026 21:00:00,18.536457,73.805454,OZONE,1,32,25
India,Maharashtra,Pune,"Revenue Colony-Shivajinagar, Pune - IITM",21-01-2026 21:00:00,18.530085,73.849598,PM2.5,NA,NA,NA
India,Maharashtra,Pune,"Revenue Colony-Shivajinagar, Pune - IITM",21-01-2026 21:00:00,18.530085,73.849598,CO,48,110,88
India,Maharashtra,Pune,"Savitribai Phule Pune University, Pune - MPCB",21-01-2026 21:00:00,18.547056,73.826908,PM2.5,46,136,85
India,Maharashtra,Pune,"Transport Nagar-Nigdi, Pune - IITM",21-01-2026 21:00:00,18.664282,73.763966,CO,39,66,47
India,Maharashtra,Solapur,"Dnyaneshwar Nagar, Solapur - MPCB",21-01-2026 21:00:00,17.6336264,75.9132495,NH3,7,35,14
India,Maharashtra,Solapur,"Dnyaneshwar Nagar, Solapur - MPCB",21-01-2026 21:00:00,17.6336264,75.9132495,CO,8,77,20
India,Maharashtra,Solapur,"Ratandeep Housing Society, Solapur - MPCB",21-01-2026 21:00:00,17.65439,75.90649,PM2.5,69,186,100
India,Maharashtra,Solapur,"Ratandeep Housing Society, Solapur - MPCB",21-01-2026 21:00:00,17.65439,75.90649,CO,17,121,30
India,Maharashtra,Thane,"Upvan Fort, Thane - MPCB",21-01-2026 21:00:00,19.222279,72.957979,PM10,84,148,108
India,Maharashtra,Thane,"Upvan Fort, Thane - MPCB",21-01-2026 21:00:00,19.222279,72.957979,NO2,45,52,49
India,Maharashtra,Thane,"Upvan Fort, Thane - MPCB",21-01-2026 21:00:00,19.222279,72.957979,NH3,4,6,5
India,Maharashtra,Navi Mumbai,"Kopripada-Vashi, Navi Mumbai - MPCB",21-01-2026 21:00:00,19.090337,73.014232,PM10,NA,NA,NA
India,Maharashtra,Navi Mumbai,"Kopripada-Vashi, Navi Mumbai - MPCB",21-01-2026 21:00:00,19.090337,73.014232,SO2,NA,NA,NA
India,Maharashtra,Navi Mumbai,"Nerul, Navi Mumbai - MPCB",21-01-2026 21:00:00,19.008751,73.016620,PM10,NA,NA,NA
India,Maharashtra,Navi Mumbai,"Sanpada, Navi Mumbai - MPCB",21-01-2026 21:00:00,19.0575752,73.0151367,NH3,13,13,13
India,Maharashtra,Navi Mumbai,"Sector-2E Kalamboli, Navi Mumbai - MPCB",21-01-2026 21:00:00,19.02579,73.10297,PM10,46,148,93
India,Maharashtra,Navi Mumbai,"Sector-2E Kalamboli, Navi Mumbai - MPCB",21-01-2026 21:00:00,19.02579,73.10297,NO2,17,78,43
India,Maharashtra,Parbhani,"Masoom Colony, Parbhani - MPCB",21-01-2026 21:00:00,19.265594,76.761463,PM2.5,59,117,83
India,Maharashtra,Parbhani,"Masoom Colony, Parbhani - MPCB",21-01-2026 21:00:00,19.265594,76.761463,NO2,NA,NA,NA
India,Maharashtra,Pimpri-Chinchwad,"Park Street Wakad, Pimpri Chinchwad - MPCB",21-01-2026 21:00:00,18.59051,73.77946,SO2,2,9,5
India,Maharashtra,Nashik,"Hirawadi, Nashik - MPCB",21-01-2026 21:00:00,20.021503,73.813844,NH3,2,9,4
India,Maharashtra,Nashik,"MIDC Ambad, Nashik - MPCB",21-01-2026 21:00:00,19.950220,73.731480,NO2,18,78,43
India,Maharashtra,Nashik,"MIDC Ambad, Nashik - MPCB",21-01-2026 21:00:00,19.950220,73.731480,SO2,14,46,20
India,Maharashtra,Nashik,"MIDC Ambad, Nashik - MPCB",21-01-2026 21:00:00,19.950220,73.731480,CO,15,24,17
India,Maharashtra,Nashik,"Gangapur Road, Nashik - MPCB",21-01-2026 21:00:00,20.0073285,73.7762427,NH3,3,3,3
India,Maharashtra,Nashik,"Gangapur Road, Nashik - MPCB",21-01-2026 21:00:00,20.0073285,73.7762427,SO2,1,5,2
India,Maharashtra,Nashik,"Gangapur Road, Nashik - MPCB",21-01-2026 21:00:00,20.0073285,73.7762427,OZONE,9,47,20
India,Maharashtra,Nagpur,"Ram Nagar, Nagpur - MPCB",21-01-2026 21:00:00,21.143383,79.048912,NO2,10,78,29
India,Maharashtra,Nagpur,"Ram Nagar, Nagpur - MPCB",21-01-2026 21:00:00,21.143383,79.048912,CO,34,103,52
India,Rajasthan,Barmer,"Railway Colony, Barmer - RSPCB",21-01-2026 21:00:00,25.747299,71.393989,SO2,3,9,6
India,Rajasthan,Bharatpur,"Krishna Nagar, Bharatpur - RSPCB",21-01-2026 21:00:00,27.215415,77.50873,PM2.5,75,305,137
India,Rajasthan,Bharatpur,"Krishna Nagar, Bharatpur - RSPCB",21-01-2026 21:00:00,27.215415,77.50873,NO2,17,96,48
India,Rajasthan,Bhilwara,"Pratap Nagar, Bhilwara - RSPCB",21-01-2026 21:00:00,25.339605,74.618883,PM2.5,73,399,144
India,Rajasthan,Bhilwara,"Pratap Nagar, Bhilwara - RSPCB",21-01-2026 21:00:00,25.339605,74.618883,SO2,3,20,11
India,Rajasthan,Bhiwadi,"RIICO Ind. Area III, Bhiwadi - RSPCB",21-01-2026 21:00:00,28.194909,76.862296,PM10,131,424,271
India,Rajasthan,Bhiwadi,"RIICO Ind. Area III, Bhiwadi - RSPCB",21-01-2026 21:00:00,28.194909,76.862296,SO2,5,21,9
India,Rajasthan,Bhiwadi,"RIICO Ind. Area III, Bhiwadi - RSPCB",21-01-2026 21:00:00,28.194909,76.862296,OZONE,6,44,22
India,Rajasthan,Bhiwadi,"Vasundhara Nagar_UIT, Bhiwadi - RSPCB",21-01-2026 21:00:00,28.207266,76.829265,PM2.5,103,444,285
India,Rajasthan,Bhiwadi,"Vasundhara Nagar_UIT, Bhiwadi - RSPCB",21-01-2026 21:00:00,28.207266,76.829265,OZONE,3,97,54
India,Maharashtra,Virar,"Bolinj, Virar - MPCB",21-01-2026 21:00:00,19.4458210,72.7988231,NH3,1,4,2
India,Maharashtra,Virar,"Bolinj, Virar - MPCB",21-01-2026 21:00:00,19.4458210,72.7988231,SO2,4,23,11
India,Meghalaya,Shillong,"Lumpyngngad, Shillong - Meghalaya PCB",21-01-2026 21:00:00,25.5586,91.8985,PM2.5,2,87,12
India,Mizoram,Aizawl,"Sikulpuikawn, Aizawl - Mizoram PCB",21-01-2026 21:00:00,23.7176342,92.7192841,PM10,51,55,52
India,Mizoram,Aizawl,"Sikulpuikawn, Aizawl - Mizoram PCB",21-01-2026 21:00:00,23.7176342,92.7192841,CO,3,4,4
India,Mizoram,Aizawl,"Sikulpuikawn, Aizawl - Mizoram PCB",21-01-2026 21:00:00,23.7176342,92.7192841,OZONE,3,10,8
India,Nagaland,Kohima,"PWD Junction, Kohima - NPCB",21-01-2026 21:00:00,25.6635413,94.0989878,OZONE,1,13,8
India,Odisha,Angul,"Hakimapada, Angul - OSPCB",21-01-2026 21:00:00,20.832874,85.104082,PM10,101,260,157
India,Odisha,Angul,"Hakimapada, Angul - OSPCB",21-01-2026 21:00:00,20.832874,85.104082,OZONE,3,309,134
India,Odisha,Nayagarh,"Dabuna, Nayagarh - OSPCB",21-01-2026 21:00:00,21.847279,85.416905,PM10,NA,NA,NA
India,Odisha,Nayagarh,"Dabuna, Nayagarh - OSPCB",21-01-2026 21:00:00,21.847279,85.416905,SO2,NA,NA,NA
India,Odisha,Rairangpur,"Divisional Forest Office, Rairangpur - OSPCB",21-01-2026 21:00:00,22.265816,86.174829,NH3,1,1,1
India,Odisha,Rairangpur,"Divisional Forest Office, Rairangpur - OSPCB",21-01-2026 21:00:00,22.265816,86.174829,OZONE,7,82,48
India,Odisha,Rourkela,"Fertilizer Township, Rourkela - OSPCB",21-01-2026 21:00:00,22.18972222,84.86277778,SO2,9,10,9
India,Odisha,Rourkela,"Raghunathpali, Rourkela - OSPCB",21-01-2026 21:00:00,22.220833,84.809444,PM2.5,125,317,217
India,Odisha,Rourkela,"Raghunathpali, Rourkela - OSPCB",21-01-2026 21:00:00,22.220833,84.809444,NO2,15,30,17
India,Odisha,Rourkela,"Sector-2, Rourkela - OSPCB",21-01-2026 21:00:00,22.24500000,84.88111111,PM10,98,144,117
India,Odisha,Balasore,"Kalidaspur, Balasore - OSPCB",21-01-2026 21:00:00,21.51161,86.89088,PM2.5,127,341,257
India,Odisha,Balasore,"Kalidaspur, Balasore - OSPCB",21-01-2026 21:00:00,21.51161,86.89088,CO,24,104,54
India,Odisha,Balasore,"Kalidaspur, Balasore - OSPCB",21-01-2026 21:00:00,21.51161,86.89088,OZONE,16,142,120
India,Odisha,Barbil,"Forest Office, Barbil - OSPCB",21-01-2026 21:00:00,22.1166054,85.3945546,PM10,106,390,188
India,Odisha,Barbil,"Forest Office, Barbil - OSPCB",21-01-2026 21:00:00,22.1166054,85.3945546,SO2,12,111,26
India,Odisha,Baripada,"Meher Colony, Baripada - OSPCB",21-01-2026 21:00:00,21.941841,86.728318,CO,21,107,61
India,Odisha,Baripada,"Meher Colony, Baripada - OSPCB",21-01-2026 21:00:00,21.941841,86.728318,OZONE,1,109,56
India,Odisha,Bhubaneswar,"Patia, Bhubaneswar - OSPCB",21-01-2026 21:00:00,20.34652,85.81630,OZONE,3,206,121
India,Punjab,Khanna,"Kalal Majra, Khanna - PPCB",21-01-2026 21:00:00,30.736056 ,76.209694,PM10,72,128,102
India,Punjab,Khanna,"Kalal Majra, Khanna - PPCB",21-01-2026 21:00:00,30.736056 ,76.209694,OZONE,19,41,36
India,Punjab,Ludhiana,"Punjab Agricultural University, Ludhiana - PPCB",21-01-2026 21:00:00,30.9028,75.8086,PM2.5,78,219,114
India,Punjab,Ludhiana,"Punjab Agricultural University, Ludhiana - PPCB",21-01-2026 21:00:00,30.9028,75.8086,OZONE,13,36,19
India,Punjab,Mandi Gobindgarh,"RIMT University, Mandi Gobindgarh - PPCB",21-01-2026 21:00:00,30.649961,76.331442,PM2.5,40,336,147
India,Punjab,Mandi Gobindgarh,"RIMT University, Mandi Gobindgarh - PPCB",21-01-2026 21:00:00,30.649961,76.331442,NO2,23,24,24
India,Punjab,Mandi Gobindgarh,"RIMT University, Mandi Gobindgarh - PPCB",21-01-2026 21:00:00,30.649961,76.331442,CO,2,127,54
India,Rajasthan,Bikaner,"MM Ground, Bikaner - RSPCB",21-01-2026 21:00:00,28.018792,73.292658,PM2.5,47,354,247
India,Rajasthan,Bikaner,"MM Ground, Bikaner - RSPCB",21-01-2026 21:00:00,28.018792,73.292658,OZONE,6,102,52
India,Rajasthan,Bundi,"New Colony, Bundi - RSPCB",21-01-2026 21:00:00,25.435774,75.644272,CO,23,104,49
India,Rajasthan,Chittorgarh,"Shastri Nagar, Chittorgarh - RSPCB",21-01-2026 21:00:00,24.892047,74.623527,PM10,78,257,149
India,Rajasthan,Chittorgarh,"Shastri Nagar, Chittorgarh - RSPCB",21-01-2026 21:00:00,24.892047,74.623527,CO,14,69,26
India,Rajasthan,Churu,"Subash Chowk, Churu - RSPCB",21-01-2026 21:00:00,28.296139,74.961696,NO2,15,55,30
India,Odisha,Byasanagar,"Ferro Chrome Colony, Byasanagar - OSPCB",21-01-2026 21:00:00,20.94185,86.11510,PM2.5,57,253,162
India,Odisha,Byasanagar,"Ferro Chrome Colony, Byasanagar - OSPCB",21-01-2026 21:00:00,20.94185,86.11510,NH3,2,3,3
India,Odisha,Byasanagar,"Ferro Chrome Colony, Byasanagar - OSPCB",21-01-2026 21:00:00,20.94185,86.11510,CO,15,113,67
India,Odisha,Cuttack,"CDA Area, Cuttack - OSPCB",21-01-2026 21:00:00,20.48891     ,85.84768     ,NO2,21,168,68
India,Odisha,Cuttack,"CDA Area, Cuttack - OSPCB",21-01-2026 21:00:00,20.48891     ,85.84768     ,SO2,1,30,8
India,Odisha,Suakati,"OMC Colony, Suakati - OSPCB",21-01-2026 21:00:00,21.606865,85.510538,OZONE,8,139,94
India,Odisha,Talcher,"Talcher Coalfields,Talcher - OSPCB",21-01-2026 21:00:00,20.9360711,85.1707021,PM10,55,330,163
India,Odisha,Talcher,"Talcher Coalfields,Talcher - OSPCB",21-01-2026 21:00:00,20.9360711,85.1707021,CO,17,118,93
India,Punjab,Bathinda,"Hardev Nagar, Bathinda - PPCB",21-01-2026 21:00:00,30.233011,74.907758,PM2.5,50,109,81
India,Punjab,Patiala,"Model Town, Patiala - PPCB",21-01-2026 21:00:00,30.349388,76.366642,OZONE,14,42,31
India,Rajasthan,Alwar,"Moti Doongri, Alwar - RSPCB",21-01-2026 21:00:00,27.554793,76.611536,NO2,39,49,42
India,Rajasthan,Alwar,"Moti Doongri, Alwar - RSPCB",21-01-2026 21:00:00,27.554793,76.611536,OZONE,6,183,62
India,Rajasthan,Baran,"Bamboliya, Baran - RSPCB",21-01-2026 21:00:00,25.106006,76.469948,SO2,8,14,10
India,Rajasthan,Dausa,"Khatikan Mohalla, Dausa - RSPCB",21-01-2026 21:00:00,26.895552,76.334753,NO2,14,116,56
India,Rajasthan,Dausa,"Khatikan Mohalla, Dausa - RSPCB",21-01-2026 21:00:00,26.895552,76.334753,NH3,8,11,10
India,Rajasthan,Dholpur,"Raja Ganj, Dholpur - RSPCB",21-01-2026 21:00:00,26.699557,77.898881,PM2.5,68,345,203
India,Rajasthan,Dholpur,"Raja Ganj, Dholpur - RSPCB",21-01-2026 21:00:00,26.699557,77.898881,NO2,51,127,80
India,Rajasthan,Dholpur,"Raja Ganj, Dholpur - RSPCB",21-01-2026 21:00:00,26.699557,77.898881,SO2,2,21,9
India,Rajasthan,Dholpur,"Raja Ganj, Dholpur - RSPCB",21-01-2026 21:00:00,26.699557,77.898881,OZONE,1,55,36
India,Rajasthan,Dungarpur,"Bhoiwada, Dungarpur - RSPCB",21-01-2026 21:00:00,23.837789,73.714926,PM2.5,62,309,104
India,Rajasthan,Dungarpur,"Bhoiwada, Dungarpur - RSPCB",21-01-2026 21:00:00,23.837789,73.714926,NO2,11,85,29
India,Rajasthan,Dungarpur,"Bhoiwada, Dungarpur - RSPCB",21-01-2026 21:00:00,23.837789,73.714926,NH3,4,19,8
India,Rajasthan,Dungarpur,"Bhoiwada, Dungarpur - RSPCB",21-01-2026 21:00:00,23.837789,73.714926,CO,2,103,39
India,Rajasthan,Jaisalmer,"Sadar Bazar, Jaisalmer - RSPCB",21-01-2026 21:00:00,26.912329,70.909168,PM10,58,154,99
India,Rajasthan,Jhalawar,"Rajlaxmi Nagar, Jhalawar - RSPCB",21-01-2026 21:00:00,24.588397,76.172782,PM2.5,57,320,148
India,Rajasthan,Jhalawar,"Rajlaxmi Nagar, Jhalawar - RSPCB",21-01-2026 21:00:00,24.588397,76.172782,NO2,61,115,91
India,Rajasthan,Jhalawar,"Rajlaxmi Nagar, Jhalawar - RSPCB",21-01-2026 21:00:00,24.588397,76.172782,CO,24,116,49
India,Rajasthan,Jhalawar,"Rajlaxmi Nagar, Jhalawar - RSPCB",21-01-2026 21:00:00,24.588397,76.172782,OZONE,5,108,71
India,Rajasthan,Jhunjhunu,"Indra Nagar, Jhunjhunu - RSPCB",21-01-2026 21:00:00,28.108988,75.386577,PM10,120,317,190
India,Rajasthan,Jhunjhunu,"Indra Nagar, Jhunjhunu - RSPCB",21-01-2026 21:00:00,28.108988,75.386577,NH3,6,16,11
India,Rajasthan,Jodhpur,"Collectorate, Jodhpur - RSPCB",21-01-2026 21:00:00,26.268249,73.0193853,PM2.5,28,76,48
India,Rajasthan,Jodhpur,"Digari Kalan, Jodhpur - RSPCB",21-01-2026 21:00:00,26.295810,73.082283,PM10,43,103,71
India,Rajasthan,Jodhpur,"Digari Kalan, Jodhpur - RSPCB",21-01-2026 21:00:00,26.295810,73.082283,NO2,19,118,45
India,Rajasthan,Jodhpur,"Digari Kalan, Jodhpur - RSPCB",21-01-2026 21:00:00,26.295810,73.082283,OZONE,2,110,65
India,Rajasthan,Jodhpur,"Jhalamand, Jodhpur - RSPCB",21-01-2026 21:00:00,26.215415,73.070156,PM10,56,466,136
India,Rajasthan,Jodhpur,"Mandor, Jodhpur - RSPCB",21-01-2026 21:00:00,26.358805,73.047444,SO2,3,11,6
India,Rajasthan,Jodhpur,"Mandor, Jodhpur - RSPCB",21-01-2026 21:00:00,26.358805,73.047444,OZONE,19,109,80
India,Rajasthan,Jodhpur,"Samrat Ashok Udhyan, Jodhpur - RSPCB",21-01-2026 21:00:00,26.253384,72.976571,PM2.5,40,401,88
India,Rajasthan,Jodhpur,"Samrat Ashok Udhyan, Jodhpur - RSPCB",21-01-2026 21:00:00,26.253384,72.976571,NH3,2,6,4
India,Rajasthan,Jodhpur,"Samrat Ashok Udhyan, Jodhpur - RSPCB",21-01-2026 21:00:00,26.253384,72.976571,SO2,3,16,8
India,Sikkim,Gangtok,"Zero Point GICI, Gangtok - SSPCB",21-01-2026 21:00:00,27.338530,88.614099,PM2.5,NA,NA,NA
India,Sikkim,Gangtok,"Zero Point GICI, Gangtok - SSPCB",21-01-2026 21:00:00,27.338530,88.614099,CO,8,32,13
India,TamilNadu,Chennai,"Arumbakkam, Chennai - TNPCB",21-01-2026 21:00:00,13.0664,80.2112 ,PM10,77,181,125
India,TamilNadu,Chennai,"Kodungaiyur, Chennai - TNPCB",21-01-2026 21:00:00,13.1278,80.2642,OZONE,27,37,31
India,TamilNadu,Chennai,"Manali Village, Chennai - TNPCB",21-01-2026 21:00:00,13.1662,80.2584,NH3,1,2,2
India,TamilNadu,Chennai,"Manali Village, Chennai - TNPCB",21-01-2026 21:00:00,13.1662,80.2584,OZONE,15,41,16
India,TamilNadu,Chennai,"Perungudi, Chennai - TNPCB",21-01-2026 21:00:00,12.9533,80.2357,PM2.5,48,263,120
India,Rajasthan,Kota,"Dhanmandi, Kota - RSPCB",21-01-2026 21:00:00,25.164090,75.858137,PM2.5,70,391,223
India,Rajasthan,Kota,"Dhanmandi, Kota - RSPCB",21-01-2026 21:00:00,25.164090,75.858137,PM10,103,342,189
India,Rajasthan,Kota,"Nayapura, Kota - RSPCB",21-01-2026 21:00:00,25.196024,75.855668,NO2,15,110,50
India,Rajasthan,Kota,"Shrinath Puram, Kota - RSPCB",21-01-2026 21:00:00,25.14389,75.821256,PM10,97,153,123
India,Rajasthan,Kota,"Shrinath Puram, Kota - RSPCB",21-01-2026 21:00:00,25.14389,75.821256,SO2,2,36,12
India,Rajasthan,Nagaur,"Karni Colony, Nagaur - RSPCB",21-01-2026 21:00:00,27.213494,73.734444,NO2,16,33,22
India,Rajasthan,Nagaur,"Karni Colony, Nagaur - RSPCB",21-01-2026 21:00:00,27.213494,73.734444,NH3,7,12,9
India,Rajasthan,Sikar,"Radhakishan Pura, Sikar - RSPCB",21-01-2026 21:00:00,27.608912,75.153302,PM10,103,381,185
India,Rajasthan,Sirohi,"Vedhaynath Colony, Sirohi - RSPCB",21-01-2026 21:00:00,24.885261,72.857549,CO,12,38,18
India,Rajasthan,Sri Ganganagar,"Old City, Sri Ganganagar - RSPCB",21-01-2026 21:00:00,29.931624,73.864511,NH3,4,45,19
India,Rajasthan,Tonk,"Shastri Nagar, Tonk - RSPCB",21-01-2026 21:00:00,26.159933,75.780517,SO2,1,4,3
India,Rajasthan,Udaipur,"Ashok Nagar, Udaipur - RSPCB",21-01-2026 21:00:00,24.5886166,73.6321397,NO2,11,56,31
India,Rajasthan,Jaipur,"Mansarovar Sector-12, Jaipur - RSPCB",21-01-2026 21:00:00,26.843698,75.766894,OZONE,2,173,101
India,Rajasthan,Jaipur,"RIICO Sitapura, Jaipur - RSPCB",21-01-2026 21:00:00,26.786682,75.827928,NO2,18,171,76
India,Rajasthan,Jaipur,"Sector-2 Murlipura, Jaipur - RSPCB",21-01-2026 21:00:00,26.960669,75.771817,NH3,7,11,9
India,Rajasthan,Jaipur,"Sector-2 Murlipura, Jaipur - RSPCB",21-01-2026 21:00:00,26.960669,75.771817,OZONE,1,80,42
India,Rajasthan,Jaipur,"Shastri Nagar, Jaipur - RSPCB",21-01-2026 21:00:00,26.9502929,75.730943,PM2.5,92,337,235
India,Rajasthan,Jaipur,"Shastri Nagar, Jaipur - RSPCB",21-01-2026 21:00:00,26.9502929,75.730943,SO2,11,53,25
India,Rajasthan,Pali,"Indira Colony Vistar, Pali - RSPCB",21-01-2026 21:00:00,25.771061, 73.340227,SO2,6,16,10
India,Rajasthan,Pratapgarh,"Pragati Nagar, Pratapgarh - RSPCB",21-01-2026 21:00:00,24.041198,74.780702,PM10,89,127,107
India,Rajasthan,Rajsamand,"Dhoinda, Rajsamand - RSPCB",21-01-2026 21:00:00,25.036360,73.883502,CO,26,90,44
India,TamilNadu,Chennai,"Royapuram, Chennai - TNPCB",21-01-2026 21:00:00,13.1036,80.2909,NO2,1,12,1
India,TamilNadu,Chennai,"Royapuram, Chennai - TNPCB",21-01-2026 21:00:00,13.1036,80.2909,SO2,4,8,6
India,TamilNadu,Chennai,"Royapuram, Chennai - TNPCB",21-01-2026 21:00:00,13.1036,80.2909,CO,46,62,53
India,TamilNadu,Chennai,"Velachery Res. Area, Chennai - CPCB",21-01-2026 21:00:00,13.0052189,80.2398125,PM2.5,54,262,103
India,TamilNadu,Ramanathapuram,"Chalai Bazaar, Ramanathapuram - TNPCB",21-01-2026 21:00:00,9.36399,78.831977,CO,14,22,18
India,TamilNadu,Thanjavur,"Parisutham Nagar, Thanjavur - TNPCB",21-01-2026 21:00:00,10.7654824,79.1389968,PM2.5,38,79,60
India,TamilNadu,Thanjavur,"Parisutham Nagar, Thanjavur - TNPCB",21-01-2026 21:00:00,10.7654824,79.1389968,SO2,15,17,16
India,TamilNadu,Thoothukudi,"Meelavittan, Thoothukudi - TNPCB",21-01-2026 21:00:00,8.816428 ,78.099039,PM10,59,202,85
India,TamilNadu,Thoothukudi,"Meelavittan, Thoothukudi - TNPCB",21-01-2026 21:00:00,8.816428 ,78.099039,NO2,5,19,15
India,TamilNadu,Thoothukudi,"Meelavittan, Thoothukudi - TNPCB",21-01-2026 21:00:00,8.816428 ,78.099039,SO2,2,16,12
India,TamilNadu,Thoothukudi,"Meelavittan, Thoothukudi - TNPCB",21-01-2026 21:00:00,8.816428 ,78.099039,OZONE,24,35,29
India,Telangana,Hyderabad,"Bollaram Industrial Area, Hyderabad - TSPCB",21-01-2026 21:00:00,17.540891,78.358528,OZONE,38,59,52
India,Telangana,Hyderabad,"Central University, Hyderabad - TSPCB",21-01-2026 21:00:00,17.460103,78.334361,NH3,3,5,4
India,Telangana,Hyderabad,"Central University, Hyderabad - TSPCB",21-01-2026 21:00:00,17.460103,78.334361,SO2,7,12,9
India,Telangana,Hyderabad,"Central University, Hyderabad - TSPCB",21-01-2026 21:00:00,17.460103,78.334361,CO,24,40,28
India,Telangana,Hyderabad,"ECIL Kapra, Hyderabad - TSPCB",21-01-2026 21:00:00,17.470431,78.566959,PM2.5,NA,NA,NA
India,Telangana,Hyderabad,"ECIL Kapra, Hyderabad - TSPCB",21-01-2026 21:00:00,17.470431,78.566959,PM10,NA,NA,NA
India,Telangana,Hyderabad,"ECIL Kapra, Hyderabad - TSPCB",21-01-2026 21:00:00,17.470431,78.566959,OZONE,24,56,56
India,Telangana,Hyderabad,"ICRISAT Patancheru, Hyderabad - TSPCB",21-01-2026 21:00:00,17.518400,78.278777,PM2.5,51,109,73
India,TamilNadu,Dindigul,"Mendonsa Colony, Dindigul - TNPCB",21-01-2026 21:00:00,10.358535,77.984321,PM10,36,94,58
India,TamilNadu,Dindigul,"Mendonsa Colony, Dindigul - TNPCB",21-01-2026 21:00:00,10.358535,77.984321,NO2,23,82,54
India,TamilNadu,Dindigul,"Mendonsa Colony, Dindigul - TNPCB",21-01-2026 21:00:00,10.358535,77.984321,CO,24,30,27
India,TamilNadu,Gummidipoondi,"Anthoni Pillai Nagar, Gummidipoondi - TNPCB",21-01-2026 21:00:00,13.4127,80.1081,NH3,1,1,1
India,TamilNadu,Ooty,"Bombay Castel, Ooty - TNPCB",21-01-2026 21:00:00,11.4068288,76.7138973,PM10,NA,NA,NA
India,TamilNadu,Perundurai,"SIPCOT Industrial Park, Perundurai - TNPCB",21-01-2026 21:00:00,11.258242,77.552761,NH3,2,3,2
India,TamilNadu,Perundurai,"SIPCOT Industrial Park, Perundurai - TNPCB",21-01-2026 21:00:00,11.258242,77.552761,SO2,12,14,13
India,TamilNadu,Perundurai,"SIPCOT Industrial Park, Perundurai - TNPCB",21-01-2026 21:00:00,11.258242,77.552761,CO,21,29,23
India,TamilNadu,Pudukottai,"SIPCOT Nathampannai, Pudukottai - TNPCB",21-01-2026 21:00:00,10.423417,78.784889,NO2,4,17,7
India,Uttar_Pradesh,Agra,"Shastripuram, Agra - UPPCB",21-01-2026 21:00:00,27.19862,77.92066,NO2,43,44,44
India,Uttar_Pradesh,Baghpat,"Sardar Patel Inter College, Baghpat - UPPCB",21-01-2026 21:00:00,28.964949,77.278761,SO2,2,18,8
India,Uttar_Pradesh,Baghpat,"Sardar Patel Inter College, Baghpat - UPPCB",21-01-2026 21:00:00,28.964949,77.278761,CO,2,24,11
India,Uttar_Pradesh,Bareilly,"Civil Lines, Bareilly - UPPCB",21-01-2026 21:00:00,28.359581,79.414455,SO2,33,48,40
India,Uttar_Pradesh,Bareilly,"Rajendra Nagar, Bareilly - UPPCB",21-01-2026 21:00:00,28.38910936,79.42963708,SO2,38,40,39
India,Uttar_Pradesh,Bulandshahr,"Yamunapuram, Bulandshahr - UPPCB",21-01-2026 21:00:00,28.406963,77.849831,NH3,14,18,15
India,Uttar_Pradesh,Bulandshahr,"Yamunapuram, Bulandshahr - UPPCB",21-01-2026 21:00:00,28.406963,77.849831,SO2,9,57,21
India,Uttar_Pradesh,Firozabad,"Nagla Bhau, Firozabad - UPPCB",21-01-2026 21:00:00,27.168897,78.376960,PM10,51,116,85
India,Telangana,Hyderabad,"IDA Pashamylaram, Hyderabad - TSPCB",21-01-2026 21:00:00,17.5316895,78.218939,NH3,NA,NA,NA
India,Telangana,Hyderabad,"IITH Kandi, Hyderabad - TSPCB",21-01-2026 21:00:00,17.585705,78.126199,NO2,16,17,17
India,Telangana,Hyderabad,"IITH Kandi, Hyderabad - TSPCB",21-01-2026 21:00:00,17.585705,78.126199,NH3,4,5,5
India,Telangana,Hyderabad,"Kokapet, Hyderabad - TSPCB",21-01-2026 21:00:00,17.393559,78.339194,PM10,90,107,95
India,Telangana,Hyderabad,"Kokapet, Hyderabad - TSPCB",21-01-2026 21:00:00,17.393559,78.339194,OZONE,19,34,28
India,Telangana,Hyderabad,"Kompally Municipal Office, Hyderabad - TSPCB",21-01-2026 21:00:00,17.544899,78.486949,PM10,60,99,74
India,Telangana,Hyderabad,"Kompally Municipal Office, Hyderabad - TSPCB",21-01-2026 21:00:00,17.544899,78.486949,NH3,3,7,4
India,Telangana,Hyderabad,"Kompally Municipal Office, Hyderabad - TSPCB",21-01-2026 21:00:00,17.544899,78.486949,SO2,10,17,13
India,Telangana,Hyderabad,"Nacharam_TSIIC IALA, Hyderabad - TSPCB",21-01-2026 21:00:00,17.429398,78.569354,PM10,80,97,85
India,Uttar_Pradesh,Firozabad,"Nagla Bhau, Firozabad - UPPCB",21-01-2026 21:00:00,27.168897,78.376960,SO2,6,65,46
India,Uttar_Pradesh,Firozabad,"Nagla Bhau, Firozabad - UPPCB",21-01-2026 21:00:00,27.168897,78.376960,OZONE,13,15,14
India,Uttar_Pradesh,Firozabad,"Vibhab Nagar, Firozabad - UPPCB",21-01-2026 21:00:00,27.1594,78.3953,PM2.5,54,129,90
India,Uttar_Pradesh,Firozabad,"Vibhab Nagar, Firozabad - UPPCB",21-01-2026 21:00:00,27.1594,78.3953,PM10,48,101,77
India,Uttar_Pradesh,Ghaziabad,"Indirapuram, Ghaziabad - UPPCB",21-01-2026 21:00:00,28.646233,77.358075,CO,24,146,67
India,Uttar_Pradesh,Ghaziabad,"Loni, Ghaziabad - UPPCB",21-01-2026 21:00:00,28.757294,77.278792,CO,39,126,91
India,Uttar_Pradesh,Ghaziabad,"Sanjay Nagar, Ghaziabad - UPPCB",21-01-2026 21:00:00,28.685382,77.453839,OZONE,7,53,29
India,TamilNadu,Coimbatore,"PSG College of Arts and Science, Coimbatore - TNPCB",21-01-2026 21:00:00,11.0328,77.0349,PM10,71,113,95
India,TamilNadu,Coimbatore,"PSG College of Arts and Science, Coimbatore - TNPCB",21-01-2026 21:00:00,11.0328,77.0349,NH3,1,1,1
India,TamilNadu,Coimbatore,"PSG College of Arts and Science, Coimbatore - TNPCB",21-01-2026 21:00:00,11.0328,77.0349,SO2,3,4,3
India,TamilNadu,Coimbatore,"SIDCO Kurichi, Coimbatore - TNPCB",21-01-2026 21:00:00,10.942451,76.978996,PM2.5,49,96,71
India,TamilNadu,Cuddalore,"Kudikadu, Cuddalore - TNPCB",21-01-2026 21:00:00,11.6829898,79.7532099,PM2.5,33,108,68
India,Uttar_Pradesh,Greater Noida,"Knowledge Park - III, Greater Noida - UPPCB",21-01-2026 21:00:00,28.47272,77.482000,NO2,2,52,24
India,Uttar_Pradesh,Greater Noida,"Knowledge Park - III, Greater Noida - UPPCB",21-01-2026 21:00:00,28.47272,77.482000,NH3,3,23,6
India,Uttar_Pradesh,Greater Noida,"Knowledge Park - V, Greater Noida - UPPCB",21-01-2026 21:00:00,28.557054,77.453663,PM2.5,119,429,338
India,Uttar_Pradesh,Greater Noida,"Knowledge Park - V, Greater Noida - UPPCB",21-01-2026 21:00:00,28.557054,77.453663,PM10,177,500,314
India,Uttar_Pradesh,Hapur,"Anand Vihar, Hapur - UPPCB",21-01-2026 21:00:00,28.725645,77.749675,NO2,3,18,12
India,Tripura,Agartala,"Bardowali, Agartala - Tripura SPCB",21-01-2026 21:00:00,23.8175497,91.2726974,PM2.5,21,73,38
India,Tripura,Agartala,"Bardowali, Agartala - Tripura SPCB",21-01-2026 21:00:00,23.8175497,91.2726974,NH3,7,9,8
India,Uttar_Pradesh,Agra,"Rohta, Agra - UPPCB",21-01-2026 21:00:00,27.106972,78.000111,NH3,5,5,5
India,Uttar_Pradesh,Agra,"Sector-3B Avas Vikas Colony, Agra - UPPCB",21-01-2026 21:00:00,27.19412,77.96237,NH3,7,14,10
India,Telangana,Hyderabad,"New Malakpet, Hyderabad - TSPCB",21-01-2026 21:00:00,17.37206,78.50864,PM10,79,93,85
India,Telangana,Hyderabad,"Ramachandrapuram, Hyderabad - TSPCB",21-01-2026 21:00:00,17.528544,78.286195,PM10,65,89,82
India,Telangana,Hyderabad,"Ramachandrapuram, Hyderabad - TSPCB",21-01-2026 21:00:00,17.528544,78.286195,OZONE,24,34,27
India,Telangana,Hyderabad,"Sanathnagar, Hyderabad - TSPCB",21-01-2026 21:00:00,17.4559458,78.4332152,SO2,5,14,10
India,Uttar_Pradesh,Lucknow,"Gomti Nagar, Lucknow - UPPCB",21-01-2026 21:00:00,26.868120,81.005119,OZONE,25,37,34
India,Uttar_Pradesh,Lucknow,"Kendriya Vidyalaya, Lucknow - CPCB",21-01-2026 21:00:00,26.906111,80.948222,PM2.5,54,297,160
India,Uttar_Pradesh,Lucknow,"Kendriya Vidyalaya, Lucknow - CPCB",21-01-2026 21:00:00,26.906111,80.948222,NO2,40,52,47
India,Uttar_Pradesh,Lucknow,"Kendriya Vidyalaya, Lucknow - CPCB",21-01-2026 21:00:00,26.906111,80.948222,NH3,12,17,15
India,Uttar_Pradesh,Lucknow,"Kukrail Picnic Spot-1, Lucknow - UPPCB",21-01-2026 21:00:00,26.90723,80.98579,SO2,42,45,43
India,Uttar_Pradesh,Lucknow,"Kukrail Picnic Spot-1, Lucknow - UPPCB",21-01-2026 21:00:00,26.90723,80.98579,CO,10,15,11
India,Uttar_Pradesh,Lucknow,"Lalbagh, Lucknow - CPCB",21-01-2026 21:00:00,26.8458805,80.9365541,PM10,23,398,181
India,Uttar_Pradesh,Lucknow,"Talkatora District Industries Center, Lucknow - CPCB",21-01-2026 21:00:00,26.83399722,80.8917361,PM2.5,88,314,184
India,Uttar_Pradesh,Meerut,"Ganga Nagar, Meerut - UPPCB",21-01-2026 21:00:00,28.999264,77.7590354,NO2,26,76,54
India,Uttar_Pradesh,Meerut,"Ganga Nagar, Meerut - UPPCB",21-01-2026 21:00:00,28.999264,77.7590354,CO,28,78,43
India,Uttar_Pradesh,Moradabad,"Jigar Colony, Moradabad - UPPCB",21-01-2026 21:00:00,28.856664,78.772638,OZONE,16,27,22
India,Uttar_Pradesh,Moradabad,"Kashiram Nagar, Moradabad - UPPCB",21-01-2026 21:00:00,28.849399,78.742362,NO2,25,25,25
India,Uttar_Pradesh,Moradabad,"Kashiram Nagar, Moradabad - UPPCB",21-01-2026 21:00:00,28.849399,78.742362,SO2,2,114,50
India,Uttar_Pradesh,Moradabad,"Kashiram Nagar, Moradabad - UPPCB",21-01-2026 21:00:00,28.849399,78.742362,CO,23,54,30
India,Uttar_Pradesh,Moradabad,"Kashiram Nagar, Moradabad - UPPCB",21-01-2026 21:00:00,28.849399,78.742362,OZONE,10,23,17
India,Uttar_Pradesh,Moradabad,"Transport Nagar, Moradabad - UPPCB",21-01-2026 21:00:00,28.802625,78.753728,PM2.5,22,96,59
India,Uttar_Pradesh,Moradabad,"Transport Nagar, Moradabad - UPPCB",21-01-2026 21:00:00,28.802625,78.753728,NH3,5,6,5
India,Uttar_Pradesh,Moradabad,"Transport Nagar, Moradabad - UPPCB",21-01-2026 21:00:00,28.802625,78.753728,CO,18,76,55
India,Uttar_Pradesh,Noida,"Sector - 125, Noida - UPPCB",21-01-2026 21:00:00,28.5447608,77.3231257,SO2,6,15,10
India,Uttar_Pradesh,Noida,"Sector - 125, Noida - UPPCB",21-01-2026 21:00:00,28.5447608,77.3231257,OZONE,10,90,54
India,Uttarakhand,Kashipur,"Govt. Girls Inter College, Kashipur - UKPCB",21-01-2026 21:00:00,29.2124114,78.9611753,NO2,9,20,13
India,West_Bengal,Asansol,"Asansol Court Area, Asansol - WBPCB",21-01-2026 21:00:00,23.685297,86.945968,PM2.5,88,327,227
India,West_Bengal,Asansol,"Asansol Court Area, Asansol - WBPCB",21-01-2026 21:00:00,23.685297,86.945968,PM10,74,252,157
India,West_Bengal,Asansol,"Asansol Court Area, Asansol - WBPCB",21-01-2026 21:00:00,23.685297,86.945968,NH3,3,9,5
India,West_Bengal,Asansol,"Asansol Court Area, Asansol - WBPCB",21-01-2026 21:00:00,23.685297,86.945968,SO2,20,42,29
India,West_Bengal,Asansol,"Asansol Court Area, Asansol - WBPCB",21-01-2026 21:00:00,23.685297,86.945968,CO,26,128,38
India,West_Bengal,Asansol,"Asansol Court Area, Asansol - WBPCB",21-01-2026 21:00:00,23.685297,86.945968,OZONE,10,52,36
India,West_Bengal,Asansol,"Evelyn Lodge, Asansol - WBPCB",21-01-2026 21:00:00,23.6979360,86.9443950,PM10,75,193,144
India,West_Bengal,Asansol,"Evelyn Lodge, Asansol - WBPCB",21-01-2026 21:00:00,23.6979360,86.9443950,NH3,7,8,7
India,West_Bengal,Asansol,"Mahabir Colliery, Asansol - WBPCB",21-01-2026 21:00:00,23.6181830,87.1057180,CO,7,137,39
India,West_Bengal,Asansol,"Trivenidevi Bhalotia College, Asansol - WBPCB",21-01-2026 21:00:00,23.616515,87.119133,OZONE,5,28,12
India,West_Bengal,Durgapur,"Mahishkapur Road_B-Zone, Durgapur - WBPCB",21-01-2026 21:00:00,23.567923,87.306843,PM10,83,146,121
India,West_Bengal,Durgapur,"Mahishkapur Road_B-Zone, Durgapur - WBPCB",21-01-2026 21:00:00,23.567923,87.306843,NH3,3,3,3
India,West_Bengal,Durgapur,"PCBL Residential Complex, Durgapur - WBPCB",21-01-2026 21:00:00,23.5087640,87.3544400,NO2,39,72,52
India,West_Bengal,Durgapur,"Womens College_City Center, Durgapur - WBPCB",21-01-2026 21:00:00,23.549395,87.300496,PM2.5,84,223,153
India,West_Bengal,Durgapur,"Womens College_City Center, Durgapur - WBPCB",21-01-2026 21:00:00,23.549395,87.300496,NO2,28,38,33
India,Uttar_Pradesh,Varanasi,"Bhelupur, Varanasi - UPPCB",21-01-2026 21:00:00,25.301778,82.996789,NH3,1,1,1
India,Uttar_Pradesh,Varanasi,"Bhelupur, Varanasi - UPPCB",21-01-2026 21:00:00,25.301778,82.996789,CO,2,103,15
India,Uttar_Pradesh,Varanasi,"Bhelupur, Varanasi - UPPCB",21-01-2026 21:00:00,25.301778,82.996789,OZONE,1,33,13
India,Uttar_Pradesh,Varanasi,"IESD Banaras Hindu University, Varanasi - UPPCB",21-01-2026 21:00:00,25.262326,82.995408,PM2.5,7,196,78
India,Uttar_Pradesh,Varanasi,"IESD Banaras Hindu University, Varanasi - UPPCB",21-01-2026 21:00:00,25.262326,82.995408,NO2,2,2,2
India,Uttar_Pradesh,Varanasi,"Maldahiya, Varanasi - UPPCB",21-01-2026 21:00:00,25.32393,82.99687,NO2,2,3,2
India,Uttar_Pradesh,Vrindavan,"Omex Eternity, Vrindavan - UPPCB",21-01-2026 21:00:00,27.5714090,77.6557570,NO2,27,27,27
India,Uttar_Pradesh,Noida,"Sector-1, Noida - UPPCB",21-01-2026 21:00:00,28.5898,77.3101,PM2.5,139,449,343
India,Uttar_Pradesh,Noida,"Sector-1, Noida - UPPCB",21-01-2026 21:00:00,28.5898,77.3101,PM10,126,415,244
India,Uttar_Pradesh,Noida,"Sector-1, Noida - UPPCB",21-01-2026 21:00:00,28.5898,77.3101,NO2,16,22,18
India,Uttar_Pradesh,Noida,"Sector-1, Noida - UPPCB",21-01-2026 21:00:00,28.5898,77.3101,NH3,7,8,7
India,Uttar_Pradesh,Noida,"Sector-116, Noida - UPPCB",21-01-2026 21:00:00,28.569230,77.393848,CO,2,140,79
India,Uttar_Pradesh,Prayagraj,"Jhunsi, Prayagraj - UPPCB",21-01-2026 21:00:00,25.425602,81.917152,PM2.5,53,171,102
India,Uttar_Pradesh,Prayagraj,"Jhunsi, Prayagraj - UPPCB",21-01-2026 21:00:00,25.425602,81.917152,NH3,5,5,5
India,Uttar_Pradesh,Kanpur,"Nehru Nagar, Kanpur - UPPCB",21-01-2026 21:00:00,26.4703136,80.3229863,SO2,2,17,12
India,Uttar_Pradesh,Kanpur,"Nehru Nagar, Kanpur - UPPCB",21-01-2026 21:00:00,26.4703136,80.3229863,OZONE,6,23,22
India,Uttar_Pradesh,Khurja,"Kalindi Kunj, Khurja - UPPCB",21-01-2026 21:00:00,28.2348927,77.8683002,SO2,14,24,18
India,Uttar_Pradesh,Khurja,"Kalindi Kunj, Khurja - UPPCB",21-01-2026 21:00:00,28.2348927,77.8683002,OZONE,10,23,15
India,Uttar_Pradesh,Lucknow,"B R Ambedkar University, Lucknow - UPPCB",21-01-2026 21:00:00,26.766433,80.927299,CO,10,24,16
India,Uttar_Pradesh,Lucknow,"B R Ambedkar University, Lucknow - UPPCB",21-01-2026 21:00:00,26.766433,80.927299,OZONE,17,72,51
India,Uttar_Pradesh,Moradabad,"Eco Herbal Park, Moradabad - UPPCB",21-01-2026 21:00:00,28.840739,78.697531,NO2,18,59,34
India,Uttar_Pradesh,Moradabad,"Eco Herbal Park, Moradabad - UPPCB",21-01-2026 21:00:00,28.840739,78.697531,NH3,5,9,7
India,Uttar_Pradesh,Moradabad,"Employment Office, Moradabad - UPPCB",21-01-2026 21:00:00,28.88528,78.73880,NO2,16,16,16
India,Uttar_Pradesh,Moradabad,"Employment Office, Moradabad - UPPCB",21-01-2026 21:00:00,28.88528,78.73880,NH3,4,4,4
India,Uttar_Pradesh,Moradabad,"Jigar Colony, Moradabad - UPPCB",21-01-2026 21:00:00,28.856664,78.772638,PM2.5,46,244,117
India,Uttar_Pradesh,Meerut,"Jai Bhim Nagar, Meerut - UPPCB",21-01-2026 21:00:00,28.9535882,77.7622941,PM2.5,70,345,251
India,Uttar_Pradesh,Meerut,"Pallavpuram Phase 2, Meerut - UPPCB",21-01-2026 21:00:00,29.063510,77.709723,NO2,9,36,19
India,Uttar_Pradesh,Meerut,"Pallavpuram Phase 2, Meerut - UPPCB",21-01-2026 21:00:00,29.063510,77.709723,OZONE,2,114,74
India,West_Bengal,Howrah,"Belur Math, Howrah - WBPCB",21-01-2026 21:00:00,22.629801,88.352017,OZONE,24,58,40
India,West_Bengal,Howrah,"Botanical Garden, Howrah - WBPCB",21-01-2026 21:00:00,22.554954,88.292568,PM2.5,78,325,212
India,West_Bengal,Howrah,"Botanical Garden, Howrah - WBPCB",21-01-2026 21:00:00,22.554954,88.292568,SO2,6,21,11
India,West_Bengal,Howrah,"Dasnagar, Howrah - WBPCB",21-01-2026 21:00:00,22.6025571,88.3105664,PM10,86,239,158
India,West_Bengal,Howrah,"Dasnagar, Howrah - WBPCB",21-01-2026 21:00:00,22.6025571,88.3105664,SO2,15,101,38
India,West_Bengal,Howrah,"Ghusuri, Howrah - WBPCB",21-01-2026 21:00:00,22.611968,88.347422,PM2.5,157,438,302
India,West_Bengal,Howrah,"Ghusuri, Howrah - WBPCB",21-01-2026 21:00:00,22.611968,88.347422,PM10,124,447,230
India,West_Bengal,Howrah,"Ghusuri, Howrah - WBPCB",21-01-2026 21:00:00,22.611968,88.347422,NO2,5,32,20
India,West_Bengal,Howrah,"Padmapukur, Howrah - WBPCB",21-01-2026 21:00:00,22.5687319,88.2797276,PM10,157,439,300
India,West_Bengal,Howrah,"Padmapukur, Howrah - WBPCB",21-01-2026 21:00:00,22.5687319,88.2797276,SO2,1,19,8
India,West_Bengal,Kolkata,"Ballygunge, Kolkata - WBPCB",21-01-2026 21:00:00,22.5367507,88.3638022,NH3,7,32,15
India,West_Bengal,Kolkata,"Ballygunge, Kolkata - WBPCB",21-01-2026 21:00:00,22.5367507,88.3638022,SO2,10,46,27
India,West_Bengal,Kolkata,"Bidhannagar, Kolkata - WBPCB",21-01-2026 21:00:00,22.58157048,88.41002457,PM10,66,186,122
India,West_Bengal,Kolkata,"Bidhannagar, Kolkata - WBPCB",21-01-2026 21:00:00,22.58157048,88.41002457,SO2,2,49,11
India,West_Bengal,Kolkata,"Fort William, Kolkata - WBPCB",21-01-2026 21:00:00,22.556640,88.342674,NO2,16,22,18
India,West_Bengal,Kolkata,"Fort William, Kolkata - WBPCB",21-01-2026 21:00:00,22.556640,88.342674,SO2,7,33,15
India,West_Bengal,Kolkata,"Fort William, Kolkata - WBPCB",21-01-2026 21:00:00,22.556640,88.342674,OZONE,24,85,61
India,West_Bengal,Kolkata,"Jadavpur, Kolkata - WBPCB",21-01-2026 21:00:00,22.49929,88.36917,SO2,12,15,14
India,West_Bengal,Kolkata,"Jadavpur, Kolkata - WBPCB",21-01-2026 21:00:00,22.49929,88.36917,CO,12,124,39
India,West_Bengal,Kolkata,"Jadavpur, Kolkata - WBPCB",21-01-2026 21:00:00,22.49929,88.36917,OZONE,9,33,15
India,West_Bengal,Kolkata,"Rabindra Bharati University, Kolkata - WBPCB",21-01-2026 21:00:00,22.627847,88.380669,OZONE,7,56,32
India,West_Bengal,Kolkata,"Victoria, Kolkata - WBPCB",21-01-2026 21:00:00,22.5448082,88.3403691,PM10,128,190,161
India,West_Bengal,Siliguri,"Ward-32 Bapupara, Siliguri - WBPCB",21-01-2026 21:00:00,26.6879226,88.4152495,PM2.5,82,306,128
India,West_Bengal,Siliguri,"Ward-32 Bapupara, Siliguri - WBPCB",21-01-2026 21:00:00,26.6879226,88.4152495,NO2,NA,NA,NA
India,Andhra_Pradesh,Anantapur,"Gulzarpet, Anantapur - APPCB",21-01-2026 21:00:00,14.675886,77.593027,NO2,13,20,14
India,Andhra_Pradesh,Anantapur,"Gulzarpet, Anantapur - APPCB",21-01-2026 21:00:00,14.675886,77.593027,SO2,8,16,11
India,Andhra_Pradesh,Anantapur,"Gulzarpet, Anantapur - APPCB",21-01-2026 21:00:00,14.675886,77.593027,OZONE,6,25,22
India,Andhra_Pradesh,Chittoor,"Gangineni Cheruvu, Chittoor - APPCB",21-01-2026 21:00:00,13.204880,79.097889,NO2,41,49,44
India,Andhra_Pradesh,Kadapa,"Yerramukkapalli, Kadapa - APPCB",21-01-2026 21:00:00,14.465052,78.824187,PM10,31,130,99
India,Andhra_Pradesh,Kadapa,"Yerramukkapalli, Kadapa - APPCB",21-01-2026 21:00:00,14.465052,78.824187,OZONE,24,27,26
India,Andhra_Pradesh,Tirumala,"Toll Gate, Tirumala - APPCB",21-01-2026 21:00:00,13.67,79.35,PM2.5,78,169,119
India,Andhra_Pradesh,Tirumala,"Toll Gate, Tirumala - APPCB",21-01-2026 21:00:00,13.67,79.35,NO2,25,45,36
India,Andhra_Pradesh,Tirupati,"Vaikuntapuram, Tirupati - APPCB",21-01-2026 21:00:00,13.615387,79.409230,PM2.5,56,77,69
India,Andhra_Pradesh,Tirupati,"Vaikuntapuram, Tirupati - APPCB",21-01-2026 21:00:00,13.615387,79.409230,PM10,68,99,87
India,Andhra_Pradesh,Vijayawada,"HB Colony, Vijayawada - APPCB",21-01-2026 21:00:00,16.536107,80.594233,PM2.5,53,119,78
India,Andhra_Pradesh,Vijayawada,"HB Colony, Vijayawada - APPCB",21-01-2026 21:00:00,16.536107,80.594233,NH3,4,5,4
India,Andhra_Pradesh,Vijayawada,"HB Colony, Vijayawada - APPCB",21-01-2026 21:00:00,16.536107,80.594233,SO2,11,17,12
India,Andhra_Pradesh,Vijayawada,"Kanuru, Vijayawada - APPCB",21-01-2026 21:00:00,16.486692,80.699436,NO2,27,38,28
India,Andhra_Pradesh,Vijayawada,"Kanuru, Vijayawada - APPCB",21-01-2026 21:00:00,16.486692,80.699436,OZONE,25,36,34
India,Andhra_Pradesh,Vijayawada,"Rajiv Gandhi Park, Vijayawada - APPCB",21-01-2026 21:00:00,16.509717,80.612222,PM2.5,67,146,94
India,Andhra_Pradesh,Vijayawada,"Rajiv Gandhi Park, Vijayawada - APPCB",21-01-2026 21:00:00,16.509717,80.612222,NO2,43,83,59
India,Andhra_Pradesh,Vijayawada,"Rajiv Gandhi Park, Vijayawada - APPCB",21-01-2026 21:00:00,16.509717,80.612222,SO2,13,20,15
India,Andhra_Pradesh,Vijayawada,"Rajiv Nagar, Vijayawada - APPCB",21-01-2026 21:00:00,16.554731,80.649110,CO,6,44,9
India,Bihar,Bhagalpur,"Mayaganj, Bhagalpur - BSPCB",21-01-2026 21:00:00,25.265194,87.012947,PM2.5,35,150,91
India,Bihar,Buxar,"Charitra Van, Buxar - BSPCB",21-01-2026 21:00:00,25.567520,83.966379,SO2,NA,NA,NA
India,Bihar,Chhapra,"Darshan Nagar, Chhapra - BSPCB",21-01-2026 21:00:00,25.7808257,84.7446768,PM10,47,195,151
India,Bihar,Gaya,"Collectorate, Gaya - BSPCB",21-01-2026 21:00:00,24.7955,84.9994,PM2.5,45,263,142
India,Bihar,Gaya,"Kareemganj, Gaya - BSPCB",21-01-2026 21:00:00,24.792403,84.992416,PM2.5,30,217,103
India,Bihar,Gaya,"Kareemganj, Gaya - BSPCB",21-01-2026 21:00:00,24.792403,84.992416,NO2,2,7,4
India,Bihar,Gaya,"Kareemganj, Gaya - BSPCB",21-01-2026 21:00:00,24.792403,84.992416,OZONE,1,25,12
India,Bihar,Hajipur,"Industrial Area, Hajipur - BSPCB",21-01-2026 21:00:00,25.697189,85.245900,NO2,33,62,44
India,Bihar,Hajipur,"Industrial Area, Hajipur - BSPCB",21-01-2026 21:00:00,25.697189,85.245900,CO,45,101,62
India,Bihar,Katihar,"Mirchaibari, Katihar - BSPCB",21-01-2026 21:00:00,25.560083,87.553265,NH3,1,1,1
India,Bihar,Kishanganj,"SDM Office_Khagra, Kishanganj - BSPCB",21-01-2026 21:00:00,26.0881305,87.93840336,OZONE,16,18,16
India,Bihar,Manguraha,"Forest Rest House, Manguraha - BSPCB",21-01-2026 21:00:00,27.308328,84.531742,OZONE,9,10,10
India,Bihar,Motihari,"Gandak Colony, Motihari - BSPCB",21-01-2026 21:00:00,26.63086,84.90051,PM2.5,58,341,134
India,Bihar,Arrah,"New DM Office, Arrah - BSPCB",21-01-2026 21:00:00,25.5626095,84.663264,SO2,10,10,10
India,Bihar,Arrah,"New DM Office, Arrah - BSPCB",21-01-2026 21:00:00,25.5626095,84.663264,CO,39,66,59
India,Bihar,Arrah,"New DM Office, Arrah - BSPCB",21-01-2026 21:00:00,25.5626095,84.663264,OZONE,7,8,8
India,Bihar,Aurangabad,"Gurdeo Nagar, Aurangabad - BSPCB",21-01-2026 21:00:00,24.75746,84.366208,PM10,99,166,127
India,Bihar,Aurangabad,"Gurdeo Nagar, Aurangabad - BSPCB",21-01-2026 21:00:00,24.75746,84.366208,OZONE,3,52,31
India,Bihar,Begusarai,"Lohiyanagar, Begusarai - BSPCB",21-01-2026 21:00:00,25.42742023,86.13886079,PM10,87,186,132
India,Bihar,Bettiah,"Kamalnath Nagar, Bettiah - BSPCB",21-01-2026 21:00:00,26.80365,84.51954,OZONE,22,23,23
India,Bihar,Patna,"DRM Office Danapur, Patna - BSPCB",21-01-2026 21:00:00,25.586562,85.043586,CO,5,66,33
India,Bihar,Patna,"IGSC Planetarium Complex, Patna - BSPCB",21-01-2026 21:00:00,25.610369,85.132568,OZONE,28,29,28
India,Bihar,Patna,"Muradpur, Patna - BSPCB",21-01-2026 21:00:00,25.619651,85.147382,PM10,103,121,114
India,Bihar,Patna,"Rajbansi Nagar, Patna - BSPCB",21-01-2026 21:00:00,25.599486,85.113666,PM10,54,151,101
India,Bihar,Patna,"Rajbansi Nagar, Patna - BSPCB",21-01-2026 21:00:00,25.599486,85.113666,CO,7,90,35
India,Bihar,Patna,"Samanpura, Patna - BSPCB",21-01-2026 21:00:00,25.596727,85.085624,PM10,135,284,165
India,Bihar,Patna,"Samanpura, Patna - BSPCB",21-01-2026 21:00:00,25.596727,85.085624,OZONE,16,127,80
India,Assam,Nalbari,"Bata Chowk, Nalbari - PCBA",21-01-2026 21:00:00,26.446912,91.439057,NO2,14,15,15
India,Assam,Silchar,"Tarapur, Silchar - PCBA",21-01-2026 21:00:00,24.82827,92.79525,CO,35,51,46
India,Assam,Sivasagar,"Girls College, Sivasagar - PCBA",21-01-2026 21:00:00,26.987634,94.636574,PM10,36,81,59
India,Assam,Sivasagar,"Girls College, Sivasagar - PCBA",21-01-2026 21:00:00,26.987634,94.636574,OZONE,3,91,50
India,Bihar,Araria,"Kharahiya Basti, Araria - BSPCB",21-01-2026 21:00:00,26.146529,87.454184,PM2.5,25,293,136
India,Bihar,Araria,"Kharahiya Basti, Araria - BSPCB",21-01-2026 21:00:00,26.146529,87.454184,PM10,22,150,93
India,Andhra_Pradesh,Visakhapatnam,"GVM Corporation, Visakhapatnam - APPCB",21-01-2026 21:00:00,17.72,83.3,OZONE,4,73,60
India,Arunachal_Pradesh,Naharlagun,"Naharlagun, Naharlagun - APSPCB",21-01-2026 21:00:00,27.103358,93.679645,NO2,6,7,7
India,Assam,Byrnihat,"Central Academy for SFS, Byrnihat - PCBA",21-01-2026 21:00:00,26.071318,91.87488,OZONE,13,47,27
India,Assam,Guwahati,"LGBI Airport, Guwahati - PCBA",21-01-2026 21:00:00,26.10887,91.589544,PM2.5,34,129,78
India,Assam,Guwahati,"LGBI Airport, Guwahati - PCBA",21-01-2026 21:00:00,26.10887,91.589544,NO2,11,20,15
India,Bihar,Motihari,"Gandak Colony, Motihari - BSPCB",21-01-2026 21:00:00,26.63086,84.90051,SO2,3,3,3
India,Bihar,Motihari,"Gandak Colony, Motihari - BSPCB",21-01-2026 21:00:00,26.63086,84.90051,OZONE,2,9,7
India,Bihar,Munger,"Town Hall, Munger - BSPCB",21-01-2026 21:00:00,25.376776,86.471523,NO2,4,5,5
India,Bihar,Muzaffarpur,"MIT-Daudpur Kothi, Muzaffarpur - BSPCB",21-01-2026 21:00:00,26.1403345,85.3650192,NH3,2,2,2
India,Bihar,Muzaffarpur,"MIT-Daudpur Kothi, Muzaffarpur - BSPCB",21-01-2026 21:00:00,26.1403345,85.3650192,CO,45,62,62
India,Bihar,Patna,"DRM Office Danapur, Patna - BSPCB",21-01-2026 21:00:00,25.586562,85.043586,NH3,6,15,9
India,Andhra_Pradesh,Amaravati,"Secretariat, Amaravati - APPCB",21-01-2026 21:00:00,16.5150833,80.5181667,PM2.5,69,285,180
India,Andhra_Pradesh,Amaravati,"Secretariat, Amaravati - APPCB",21-01-2026 21:00:00,16.5150833,80.5181667,NH3,5,8,6
India,Delhi,Delhi,"Alipur, Delhi - DPCC",21-01-2026 21:00:00,28.815329,77.153010,NH3,16,23,20
India,Delhi,Delhi,"Alipur, Delhi - DPCC",21-01-2026 21:00:00,28.815329,77.153010,OZONE,4,41,29
India,Delhi,Delhi,"Anand Vihar, Delhi - DPCC",21-01-2026 21:00:00,28.647622,77.3158090,PM2.5,217,479,365
India,Delhi,Delhi,"Anand Vihar, Delhi - DPCC",21-01-2026 21:00:00,28.647622,77.3158090,NO2,47,114,81
India,Delhi,Delhi,"Ashok Vihar, Delhi - DPCC",21-01-2026 21:00:00,28.695381,77.181665,NH3,7,9,8
India,Delhi,Delhi,"Ashok Vihar, Delhi - DPCC",21-01-2026 21:00:00,28.695381,77.181665,SO2,13,25,18
India,Delhi,Delhi,"Ashok Vihar, Delhi - DPCC",21-01-2026 21:00:00,28.695381,77.181665,CO,22,158,62
India,Delhi,Delhi,"Aya Nagar, Delhi - IMD",21-01-2026 21:00:00,28.4706914,77.1099364,PM2.5,100,392,264
India,Delhi,Delhi,"Bawana, Delhi - DPCC",21-01-2026 21:00:00,28.776200,77.051074,SO2,4,15,8
India,Delhi,Delhi,"Bawana, Delhi - DPCC",21-01-2026 21:00:00,28.776200,77.051074,OZONE,3,99,60
India,Delhi,Delhi,"CRRI Mathura Road, Delhi - IMD",21-01-2026 21:00:00,28.5512005,77.2735737,CO,40,142,63
India,Delhi,Delhi,"Chandni Chowk, Delhi - IITM",21-01-2026 21:00:00,28.656756,77.227234,OZONE,6,79,48
India,Delhi,Delhi,"Dr. Karni Singh Shooting Range, Delhi - DPCC",21-01-2026 21:00:00,28.498571,77.264840,NO2,17,106,62
India,Delhi,Delhi,"Dr. Karni Singh Shooting Range, Delhi - DPCC",21-01-2026 21:00:00,28.498571,77.264840,NH3,11,14,13
India,Delhi,Delhi,"Dr. Karni Singh Shooting Range, Delhi - DPCC",21-01-2026 21:00:00,28.498571,77.264840,CO,1,120,49
India,Delhi,Delhi,"Dwarka-Sector 8, Delhi - DPCC ",21-01-2026 21:00:00,28.5710274,77.0719006,CO,16,164,152
India,Delhi,Delhi,"Dwarka-Sector 8, Delhi - DPCC ",21-01-2026 21:00:00,28.5710274,77.0719006,OZONE,7,72,43
India,Delhi,Delhi,"IGI Airport (T3), Delhi - IMD",21-01-2026 21:00:00,28.5627763,77.1180053,PM10,113,454,247
India,Delhi,Delhi,"IGI Airport (T3), Delhi - IMD",21-01-2026 21:00:00,28.5627763,77.1180053,NO2,49,137,87
India,Delhi,Delhi,"IHBAS, Dilshad Garden, Delhi - CPCB",21-01-2026 21:00:00,28.6811736,77.3025234,NH3,7,14,11
India,Chandigarh,Chandigarh,"Sector-25, Chandigarh - CPCC",21-01-2026 21:00:00,30.751462,76.762879,NO2,9,27,15
India,Chandigarh,Chandigarh,"Sector-25, Chandigarh - CPCC",21-01-2026 21:00:00,30.751462,76.762879,SO2,5,29,9
India,Chandigarh,Chandigarh,"Sector-25, Chandigarh - CPCC",21-01-2026 21:00:00,30.751462,76.762879,CO,12,63,23
India,Chhattisgarh,Bhilai,"32Bungalows, Bhilai - CECB",21-01-2026 21:00:00,21.194815,81.314770,NO2,27,90,50
India,Chhattisgarh,Bhilai,"32Bungalows, Bhilai - CECB",21-01-2026 21:00:00,21.194815,81.314770,OZONE,2,41,22
India,Chhattisgarh,Bhilai,"Civic Center, Bhilai - Bhilai Steel Plant",21-01-2026 21:00:00,21.185571,81.343175,PM2.5,31,125,65
India,Chhattisgarh,Bhilai,"Civic Center, Bhilai - Bhilai Steel Plant",21-01-2026 21:00:00,21.185571,81.343175,NO2,10,17,13
India,Chhattisgarh,Bhilai,"Civic Center, Bhilai - Bhilai Steel Plant",21-01-2026 21:00:00,21.185571,81.343175,NH3,1,2,2
India,Chhattisgarh,Bhilai,"Civic Center, Bhilai - Bhilai Steel Plant",21-01-2026 21:00:00,21.185571,81.343175,SO2,7,10,8
India,Chhattisgarh,Bhilai,"Hathkhoj, Bhilai - CECB",21-01-2026 21:00:00,21.224231,81.408350,PM2.5,28,220,77
India,Chhattisgarh,Raipur,"AIIMS, Raipur - CECB",21-01-2026 21:00:00,21.258815,81.578979,NH3,4,4,4
India,Chhattisgarh,Raipur,"Bhatagaon New ISBT, Raipur - CECB",21-01-2026 21:00:00,21.219665,81.630094,CO,45,109,67
India,Chhattisgarh,Raipur,"Bhatagaon New ISBT, Raipur - CECB",21-01-2026 21:00:00,21.219665,81.630094,OZONE,2,8,5
India,Chhattisgarh,Raipur,"Krishak Nagar, Raipur - CECB",21-01-2026 21:00:00,21.237755,81.705301,PM10,39,97,75
India,Chhattisgarh,Raipur,"Siltara Phase-II, Raipur - CECB",21-01-2026 21:00:00,21.371751,81.664929,PM2.5,43,316,128
India,Chhattisgarh,Raipur,"Siltara Phase-II, Raipur - CECB",21-01-2026 21:00:00,21.371751,81.664929,CO,34,36,36
India,Chhattisgarh,Tumidih,"OP Jindal Industrial Park, Tumidih - CECB",21-01-2026 21:00:00,22.06631475,83.33820077,CO,20,49,27
India,Bihar,Purnia,"Mariam Nagar, Purnia - BSPCB",21-01-2026 21:00:00,25.366336,87.117468,OZONE,19,45,34
India,Bihar,Rajgir,"Dangi Tola, Rajgir - BSPCB",21-01-2026 21:00:00,25.03280,85.41948,PM10,22,165,100
India,Bihar,Rajgir,"Dangi Tola, Rajgir - BSPCB",21-01-2026 21:00:00,25.03280,85.41948,OZONE,29,37,33
India,Bihar,Samastipur,"DM Office_Kasipur, Samastipur - BSPCB",21-01-2026 21:00:00,25.859655,85.77944,NH3,1,2,1
India,Bihar,Samastipur,"DM Office_Kasipur, Samastipur - BSPCB",21-01-2026 21:00:00,25.859655,85.77944,CO,6,10,8
India,Bihar,Samastipur,"DM Office_Kasipur, Samastipur - BSPCB",21-01-2026 21:00:00,25.859655,85.77944,OZONE,7,9,8
India,Bihar,Siwan,"Chitragupta Nagar, Siwan - BSPCB",21-01-2026 21:00:00,26.2271665,84.3570427,PM2.5,32,210,96
India,Bihar,Siwan,"Chitragupta Nagar, Siwan - BSPCB",21-01-2026 21:00:00,26.2271665,84.3570427,SO2,7,7,7
India,Chhattisgarh,Bilaspur,"Mangala, Bilaspur - NTPC",21-01-2026 21:00:00,22.08815,82.13737,SO2,7,20,12
India,Chhattisgarh,Korba,"Rampur, Korba - CECB",21-01-2026 21:00:00,22.368195,82.746431,SO2,14,60,26
India,Chhattisgarh,Korba,"Urja Nagar, Korba - CECB",21-01-2026 21:00:00,22.348441,82.549611,OZONE,5,26,20
India,Chhattisgarh,Kunjemura,"OP Jindal School, Kunjemura - CECB",21-01-2026 21:00:00,22.126650,83.483212,NO2,19,70,40
India,Chhattisgarh,Milupara,"Govt. Higher Secondary School, Milupara - CECB",21-01-2026 21:00:00,22.1910172,83.5197009,PM2.5,57,96,77
India,Chhattisgarh,Milupara,"Govt. Higher Secondary School, Milupara - CECB",21-01-2026 21:00:00,22.1910172,83.5197009,PM10,62,123,94
India,Delhi,Delhi,"ITO, Delhi - CPCB",21-01-2026 21:00:00,28.628624,77.241060,PM2.5,193,437,346
India,Delhi,Delhi,"ITO, Delhi - CPCB",21-01-2026 21:00:00,28.628624,77.241060,NO2,36,113,70
India,Delhi,Delhi,"ITO, Delhi - CPCB",21-01-2026 21:00:00,28.628624,77.241060,OZONE,3,34,19
India,Delhi,Delhi,"Jawaharlal Nehru Stadium, Delhi - DPCC",21-01-2026 21:00:00,28.580280,77.233829,SO2,6,22,14
India,Delhi,Delhi,"Major Dhyan Chand National Stadium, Delhi - DPCC",21-01-2026 21:00:00,28.611281,77.237738,PM10,126,364,238
India,Delhi,Delhi,"NSIT Dwarka, Delhi - CPCB",21-01-2026 21:00:00,28.60909,77.0325413,PM10,162,419,253
India,Delhi,Delhi,"NSIT Dwarka, Delhi - CPCB",21-01-2026 21:00:00,28.60909,77.0325413,CO,44,89,69
India,Delhi,Delhi,"Narela, Delhi - DPCC",21-01-2026 21:00:00,28.822836,77.101981,NO2,12,73,36
India,Delhi,Delhi,"Narela, Delhi - DPCC",21-01-2026 21:00:00,28.822836,77.101981,OZONE,7,94,63
India,Delhi,Delhi,"Nehru Nagar, Delhi - DPCC",21-01-2026 21:00:00,28.567890,77.250515,PM2.5,197,500,384
India,Delhi,Delhi,"Mundka, Delhi - DPCC",21-01-2026 21:00:00,28.684678,77.076574,NH3,13,19,16
India,Delhi,Delhi,"Mundka, Delhi - DPCC",21-01-2026 21:00:00,28.684678,77.076574,SO2,7,20,13
India,Delhi,Delhi,"Mundka, Delhi - DPCC",21-01-2026 21:00:00,28.684678,77.076574,CO,39,102,57
India,Delhi,Delhi,"Mundka, Delhi - DPCC",21-01-2026 21:00:00,28.684678,77.076574,OZONE,10,81,50
India,Gujarat,Ahmedabad,"Rakhial, Ahmedabad - IITM",21-01-2026 21:00:00,23.016834,72.625775,PM2.5,72,286,129
India,Gujarat,Ahmedabad,"Rakhial, Ahmedabad - IITM",21-01-2026 21:00:00,23.016834,72.625775,CO,48,145,78
India,Gujarat,Ahmedabad,"SAC ISRO Bopal, Ahmedabad - IITM",21-01-2026 21:00:00,23.041137,72.456691,PM10,113,185,141
India,Gujarat,Ahmedabad,"SAC ISRO Bopal, Ahmedabad - IITM",21-01-2026 21:00:00,23.041137,72.456691,NH3,10,16,12
India,Gujarat,Ahmedabad,"SAC ISRO Satellite, Ahmedabad - IITM",21-01-2026 21:00:00,23.023389,72.515201,PM2.5,58,110,77
India,Gujarat,Ahmedabad,"SAC ISRO Satellite, Ahmedabad - IITM",21-01-2026 21:00:00,23.023389,72.515201,NO2,10,38,19
India,Gujarat,Ahmedabad,"SAC ISRO Satellite, Ahmedabad - IITM",21-01-2026 21:00:00,23.023389,72.515201,NH3,6,16,9
India,Gujarat,Ahmedabad,"SAC ISRO Satellite, Ahmedabad - IITM",21-01-2026 21:00:00,23.023389,72.515201,CO,30,82,45
India,Gujarat,Ahmedabad,"SVPI Airport Hansol, Ahmedabad - IITM",21-01-2026 21:00:00,23.076793,72.627874,PM2.5,42,87,68
India,Gujarat,Ahmedabad,"SVPI Airport Hansol, Ahmedabad - IITM",21-01-2026 21:00:00,23.076793,72.627874,CO,1,92,22
India,Gujarat,Ankleshwar,"GIDC, Ankleshwar - GPCB",21-01-2026 21:00:00,21.613267,73.010555,PM2.5,51,123,84
India,Gujarat,Ankleshwar,"GIDC, Ankleshwar - GPCB",21-01-2026 21:00:00,21.613267,73.010555,NO2,22,27,23
India,Gujarat,Gandhinagar,"GIFT City, Gandhinagar - IITM",21-01-2026 21:00:00,23.163798,72.677768,PM2.5,43,133,69
India,Haryana,Dharuhera,"Municipal Corporation Office, Dharuhera -  HSPCB",21-01-2026 21:00:00,28.206800,76.799700,NH3,11,30,21
India,Haryana,Faridabad,"New Industrial Town, Faridabad - HSPCB",21-01-2026 21:00:00,28.39072,77.30059,PM10,170,179,173
India,Haryana,Faridabad,"Sector 11, Faridabad - HSPCB",21-01-2026 21:00:00,28.376058,77.315741,NH3,10,10,10
India,Haryana,Faridabad,"Sector 11, Faridabad - HSPCB",21-01-2026 21:00:00,28.376058,77.315741,SO2,4,75,8
India,Haryana,Faridabad,"Sector 30, Faridabad - HSPCB",21-01-2026 21:00:00,28.4417,77.3217,PM2.5,221,280,233
India,Haryana,Faridabad,"Sector 30, Faridabad - HSPCB",21-01-2026 21:00:00,28.4417,77.3217,NH3,10,12,11
India,Haryana,Fatehabad,"Huda Sector, Fatehabad - HSPCB",21-01-2026 21:00:00,29.503664,75.467934,OZONE,47,61,56
India,Haryana,Gurugram,"NISE Gwal Pahari, Gurugram - IMD",21-01-2026 21:00:00,28.422681,77.148944,PM2.5,150,399,305
India,Haryana,Gurugram,"NISE Gwal Pahari, Gurugram - IMD",21-01-2026 21:00:00,28.422681,77.148944,PM10,139,409,250
India,Haryana,Gurugram,"NISE Gwal Pahari, Gurugram - IMD",21-01-2026 21:00:00,28.422681,77.148944,NO2,29,81,48
India,Haryana,Gurugram,"Sector-51, Gurugram - HSPCB",21-01-2026 21:00:00,28.4227,77.0667,SO2,1,5,3
India,Haryana,Gurugram,"Vikas Sadan, Gurugram - HSPCB",21-01-2026 21:00:00,28.4501238,77.0263051,CO,64,114,94
India,Haryana,Hisar,"Urban Estate-II, Hisar - HSPCB",21-01-2026 21:00:00,29.140560,75.744941,NO2,26,27,26
India,Haryana,Hisar,"Urban Estate-II, Hisar - HSPCB",21-01-2026 21:00:00,29.140560,75.744941,SO2,6,15,10
India,Haryana,Jind,"Police Lines, Jind - HSPCB",21-01-2026 21:00:00,29.307814,76.337619,OZONE,4,32,32
India,Haryana,Kaithal,"Rishi Nagar, Kaithal - HSPCB",21-01-2026 21:00:00,29.8006,76.4155,PM10,84,162,131
India,Haryana,Kaithal,"Rishi Nagar, Kaithal - HSPCB",21-01-2026 21:00:00,29.8006,76.4155,CO,18,74,39
India,Haryana,Karnal,"Sector-12, Karnal - HSPCB",21-01-2026 21:00:00,29.695300,77.002700,PM10,81,156,125
India,Haryana,Ambala,"Patti Mehar, Ambala - HSPCB",21-01-2026 21:00:00,30.379589,76.778328,PM10,66,113,95
India,Haryana,Ballabgarh,"Nathu Colony, Ballabgarh - HSPCB",21-01-2026 21:00:00,28.3419248,77.319699,CO,15,101,46
India,Haryana,Bhiwani,"H.B. Colony, Bhiwani - HSPCB",21-01-2026 21:00:00,28.806223,76.141105,NH3,NA,NA,NA
India,Haryana,Bhiwani,"H.B. Colony, Bhiwani - HSPCB",21-01-2026 21:00:00,28.806223,76.141105,OZONE,6,12,9
India,Haryana,Charkhi Dadri,"Mini Secretariat, Charkhi Dadri - HSPCB",21-01-2026 21:00:00,28.593883,76.270653,NO2,9,24,16
India,Haryana,Charkhi Dadri,"Mini Secretariat, Charkhi Dadri - HSPCB",21-01-2026 21:00:00,28.593883,76.270653,NH3,5,8,6
India,Haryana,Charkhi Dadri,"Mini Secretariat, Charkhi Dadri - HSPCB",21-01-2026 21:00:00,28.593883,76.270653,SO2,10,11,10
India,Haryana,Charkhi Dadri,"Mini Secretariat, Charkhi Dadri - HSPCB",21-01-2026 21:00:00,28.593883,76.270653,OZONE,14,17,16
India,Delhi,Delhi,"Nehru Nagar, Delhi - DPCC",21-01-2026 21:00:00,28.567890,77.250515,CO,4,125,57
India,Delhi,Delhi,"Nehru Nagar, Delhi - DPCC",21-01-2026 21:00:00,28.567890,77.250515,OZONE,3,249,137
India,Delhi,Delhi,"North Campus, DU, Delhi - IMD",21-01-2026 21:00:00,28.6573814,77.1585447,CO,19,160,58
India,Delhi,Delhi,"Okhla Phase-2, Delhi - DPCC",21-01-2026 21:00:00,28.530785,77.271255,NO2,44,220,106
India,Delhi,Delhi,"Patparganj, Delhi - DPCC",21-01-2026 21:00:00,28.623763,77.287209,NH3,9,22,15
India,Delhi,Delhi,"Patparganj, Delhi - DPCC",21-01-2026 21:00:00,28.623763,77.287209,OZONE,2,237,115
India,Delhi,Delhi,"Punjabi Bagh, Delhi - DPCC",21-01-2026 21:00:00,28.674045,77.131023,OZONE,5,68,42
India,Delhi,Delhi,"Pusa, Delhi - IMD",21-01-2026 21:00:00,28.636110,77.173332,PM10,88,418,257
India,Delhi,Delhi,"Pusa, Delhi - IMD",21-01-2026 21:00:00,28.636110,77.173332,NO2,47,185,94
India,Delhi,Delhi,"Rohini, Delhi - DPCC",21-01-2026 21:00:00,28.732528,77.119920,NH3,24,28,26
India,Delhi,Delhi,"Rohini, Delhi - DPCC",21-01-2026 21:00:00,28.732528,77.119920,CO,15,136,40
India,Delhi,Delhi,"Shadipur, Delhi - CPCB",21-01-2026 21:00:00,28.6514781,77.1473105,PM2.5,233,376,310
India,Delhi,Delhi,"Shadipur, Delhi - CPCB",21-01-2026 21:00:00,28.6514781,77.1473105,OZONE,13,35,24
India,Gujarat,Ahmedabad,"Chandkheda, Ahmedabad - IITM",21-01-2026 21:00:00,23.107969,72.574648,PM2.5,52,168,85
India,Gujarat,Ahmedabad,"Gyaspur, Ahmedabad - IITM",21-01-2026 21:00:00,22.977134,72.553024,NO2,48,178,98
India,Gujarat,Ahmedabad,"Raikhad, Ahmedabad - IITM",21-01-2026 21:00:00,23.020509,72.579261,PM10,104,165,138
India,Delhi,Delhi,"Sonia Vihar, Delhi - DPCC",21-01-2026 21:00:00,28.710508,77.249485,CO,68,196,83
India,Delhi,Delhi,"Vivek Vihar, Delhi - DPCC",21-01-2026 21:00:00,28.672342,77.315260,CO,16,118,69
India,Delhi,Delhi,"Wazirpur, Delhi - DPCC",21-01-2026 21:00:00,28.699793,77.165453,NO2,95,198,149
India,Gujarat,Gandhinagar,"GIFT City, Gandhinagar - IITM",21-01-2026 21:00:00,23.163798,72.677768,NH3,5,13,7
India,Gujarat,Gandhinagar,"GIFT City, Gandhinagar - IITM",21-01-2026 21:00:00,23.163798,72.677768,OZONE,1,45,36
India,Gujarat,Gandhinagar,"Sector-10, Gandhinagar - GPCB",21-01-2026 21:00:00,23.221714,72.654328,NO2,NA,NA,NA
India,Karnataka,Bengaluru,"City Railway Station, Bengaluru - KSPCB",21-01-2026 21:00:00,12.9756843,77.5660749,NO2,31,35,33
India,Karnataka,Bengaluru,"Hebbal, Bengaluru - KSPCB",21-01-2026 21:00:00,13.029152,77.585901,PM2.5,60,204,92
India,Karnataka,Bengaluru,"Hebbal, Bengaluru - KSPCB",21-01-2026 21:00:00,13.029152,77.585901,OZONE,6,12,10
India,Karnataka,Bengaluru,"Hombegowda Nagar, Bengaluru - KSPCB",21-01-2026 21:00:00,12.938539,77.590100,PM10,47,83,61
