country,state,city,station,last_update,latitude,longitude,pollutant_id,min_value,max_value,avg_value
India,Bihar,Araria,"Kharahiya Basti, Araria - BSPCB",30-01-2026 17:00:00,26.146529,87.454184,PM2.5,25,90,48
India,Bihar,Araria,"Kharahiya Basti, Araria - BSPCB",30-01-2026 17:00:00,26.146529,87.454184,PM10,22,80,43
India,Bihar,Araria,"Kharahiya Basti, Araria - BSPCB",30-01-2026 17:00:00,26.146529,87.454184,NO2,1,8,2
India,Bihar,Araria,"Kharahiya Basti, Araria - BSPCB",30-01-2026 17:00:00,26.146529,87.454184,NH3,4,5,4
India,Bihar,Araria,"Kharahiya Basti, Araria - BSPCB",30-01-2026 17:00:00,26.146529,87.454184,CO,21,96,56
India,Bihar,Aurangabad,"Gurdeo Nagar, Aurangabad - BSPCB",30-01-2026 17:00:00,24.75746,84.366208,NO2,7,8,8
India,Bihar,Aurangabad,"Gurdeo Nagar, Aurangabad - BSPCB",30-01-2026 17:00:00,24.75746,84.366208,SO2,1,16,10
India,Bihar,Aurangabad,"Gurdeo Nagar, Aurangabad - BSPCB",30-01-2026 17:00:00,24.75746,84.366208,CO,28,102,87
India,Bihar,Aurangabad,"Gurdeo Nagar, Aurangabad - BSPCB",30-01-2026 17:00:00,24.75746,84.366208,OZONE,5,39,21
India,Bihar,Begusarai,"Lohiyanagar, Begusarai - BSPCB",30-01-2026 17:00:00,25.42742023,86.13886079,NH3,10,11,11
India,Bihar,Begusarai,"Lohiyanagar, Begusarai - BSPCB",30-01-2026 17:00:00,25.42742023,86.13886079,SO2,22,28,25
India,Bihar,Bettiah,"Kamalnath Nagar, Bettiah - BSPCB",30-01-2026 17:00:00,26.80365,84.51954,PM10,28,67,47
India,Andhra_Pradesh,Vijayawada,"Rajiv Gandhi Park, Vijayawada - APPCB",30-01-2026 17:00:00,16.509717,80.612222,SO2,11,17,15
India,Andhra_Pradesh,Vijayawada,"Rajiv Nagar, Vijayawada - APPCB",30-01-2026 17:00:00,16.554731,80.649110,NO2,NA,NA,NA
India,Andhra_Pradesh,Vijayawada,"Rajiv Nagar, Vijayawada - APPCB",30-01-2026 17:00:00,16.554731,80.649110,OZONE,20,37,27
India,Andhra_Pradesh,Visakhapatnam,"GVM Corporation, Visakhapatnam - APPCB",30-01-2026 17:00:00,17.72,83.3,OZONE,4,72,62
India,Arunachal_Pradesh,Naharlagun,"Naharlagun, Naharlagun - APSPCB",30-01-2026 17:00:00,27.103358,93.679645,OZONE,6,6,6
India,Assam,Byrnihat,"Central Academy for SFS, Byrnihat - PCBA",30-01-2026 17:00:00,26.071318,91.87488,PM10,70,140,94
India,Assam,Byrnihat,"Central Academy for SFS, Byrnihat - PCBA",30-01-2026 17:00:00,26.071318,91.87488,SO2,32,32,32
India,Assam,Guwahati,"LGBI Airport, Guwahati - PCBA",30-01-2026 17:00:00,26.10887,91.589544,PM10,35,141,71
India,Andhra_Pradesh,Tirumala,"Toll Gate, Tirumala - APPCB",30-01-2026 17:00:00,13.67,79.35,SO2,6,98,30
India,Andhra_Pradesh,Tirupati,"Vaikuntapuram, Tirupati - APPCB",30-01-2026 17:00:00,13.615387,79.409230,PM2.5,55,210,107
India,Andhra_Pradesh,Tirupati,"Vaikuntapuram, Tirupati - APPCB",30-01-2026 17:00:00,13.615387,79.409230,SO2,13,26,23
India,Andhra_Pradesh,Tirupati,"Vaikuntapuram, Tirupati - APPCB",30-01-2026 17:00:00,13.615387,79.409230,OZONE,16,30,22
India,Andhra_Pradesh,Vijayawada,"HB Colony, Vijayawada - APPCB",30-01-2026 17:00:00,16.536107,80.594233,SO2,15,24,16
India,Andhra_Pradesh,Vijayawada,"HB Colony, Vijayawada - APPCB",30-01-2026 17:00:00,16.536107,80.594233,CO,24,48,38
India,Andhra_Pradesh,Vijayawada,"Kanuru, Vijayawada - APPCB",30-01-2026 17:00:00,16.486692,80.699436,NO2,34,43,42
India,Andhra_Pradesh,Vijayawada,"Kanuru, Vijayawada - APPCB",30-01-2026 17:00:00,16.486692,80.699436,OZONE,24,37,32
India,Assam,Guwahati,"Railway Colony, Guwahati - PCBA",30-01-2026 17:00:00,26.181742,91.78063,PM2.5,2,375,230
India,Assam,Guwahati,"Railway Colony, Guwahati - PCBA",30-01-2026 17:00:00,26.181742,91.78063,NH3,1,1,1
India,Assam,Guwahati,"Railway Colony, Guwahati - PCBA",30-01-2026 17:00:00,26.181742,91.78063,SO2,26,37,30
India,Assam,Nagaon,"Christianpatty, Nagaon - PCBA",30-01-2026 17:00:00,26.349082,92.68449,OZONE,4,10,8
India,Assam,Nalbari,"Bata Chowk, Nalbari - PCBA",30-01-2026 17:00:00,26.446912,91.439057,PM2.5,93,148,112
India,Assam,Nalbari,"Bata Chowk, Nalbari - PCBA",30-01-2026 17:00:00,26.446912,91.439057,SO2,7,8,8
India,Assam,Silchar,"Tarapur, Silchar - PCBA",30-01-2026 17:00:00,24.82827,92.79525,PM2.5,20,91,47
India,Assam,Silchar,"Tarapur, Silchar - PCBA",30-01-2026 17:00:00,24.82827,92.79525,CO,8,43,33
India,Bihar,Bettiah,"Kamalnath Nagar, Bettiah - BSPCB",30-01-2026 17:00:00,26.80365,84.51954,SO2,NA,NA,NA
India,Bihar,Bhagalpur,"DM Office_Kachari Chowk, Bhagalpur - BSPCB",30-01-2026 17:00:00,25.251013,86.989001,NO2,5,15,9
India,Bihar,Bhagalpur,"DM Office_Kachari Chowk, Bhagalpur - BSPCB",30-01-2026 17:00:00,25.251013,86.989001,CO,10,24,18
India,Bihar,Bihar Sharif,"D M Colony, Bihar Sharif - BSPCB",30-01-2026 17:00:00,25.204762,85.514960,NO2,9,10,9
India,Bihar,Buxar,"Charitra Van, Buxar - BSPCB",30-01-2026 17:00:00,25.567520,83.966379,CO,22,27,24
India,Bihar,Chhapra,"Darshan Nagar, Chhapra - BSPCB",30-01-2026 17:00:00,25.7808257,84.7446768,PM10,8,175,78
India,Andaman and Nicobar,Sri Vijaya Puram,"Police Line, Sri Vijaya Puram - ANPCC",30-01-2026 17:00:00,11.654054,92.734055,PM2.5,NA,NA,NA
India,Andaman and Nicobar,Sri Vijaya Puram,"Police Line, Sri Vijaya Puram - ANPCC",30-01-2026 17:00:00,11.654054,92.734055,NH3,NA,NA,NA
India,Andaman and Nicobar,Sri Vijaya Puram,"Police Line, Sri Vijaya Puram - ANPCC",30-01-2026 17:00:00,11.654054,92.734055,SO2,NA,NA,NA
India,Andaman and Nicobar,Sri Vijaya Puram,"Police Line, Sri Vijaya Puram - ANPCC",30-01-2026 17:00:00,11.654054,92.734055,OZONE,13,16,14
India,Andhra_Pradesh,Amaravati,"Secretariat, Amaravati - APPCB",30-01-2026 17:00:00,16.5150833,80.5181667,NH3,6,8,7
India,Andhra_Pradesh,Kadapa,"Yerramukkapalli, Kadapa - APPCB",30-01-2026 17:00:00,14.465052,78.824187,PM2.5,50,200,100
India,Bihar,Muzaffarpur,"Buddha Colony, Muzaffarpur - BSPCB",30-01-2026 17:00:00,26.11442,85.39813,OZONE,22,56,41
India,Bihar,Patna,"DRM Office Danapur, Patna - BSPCB",30-01-2026 17:00:00,25.586562,85.043586,SO2,5,9,6
India,Bihar,Patna,"Govt. High School Shikarpur, Patna - BSPCB",30-01-2026 17:00:00,25.592539,85.227158,PM2.5,67,84,76
India,Bihar,Patna,"Govt. High School Shikarpur, Patna - BSPCB",30-01-2026 17:00:00,25.592539,85.227158,CO,60,72,67
India,Bihar,Patna,"IGSC Planetarium Complex, Patna - BSPCB",30-01-2026 17:00:00,25.610369,85.132568,OZONE,28,30,28
India,Bihar,Chhapra,"Darshan Nagar, Chhapra - BSPCB",30-01-2026 17:00:00,25.7808257,84.7446768,SO2,26,32,29
India,Bihar,Gaya,"Collectorate, Gaya - BSPCB",30-01-2026 17:00:00,24.7955,84.9994,NO2,9,9,9
India,Bihar,Hajipur,"Industrial Area, Hajipur - BSPCB",30-01-2026 17:00:00,25.697189,85.245900,PM2.5,NA,NA,NA
India,Bihar,Katihar,"Mirchaibari, Katihar - BSPCB",30-01-2026 17:00:00,25.560083,87.553265,SO2,16,27,22
India,Bihar,Manguraha,"Forest Rest House, Manguraha - BSPCB",30-01-2026 17:00:00,27.308328,84.531742,PM2.5,7,85,49
India,Bihar,Munger,"Town Hall, Munger - BSPCB",30-01-2026 17:00:00,25.376776,86.471523,NO2,4,5,5
India,Bihar,Munger,"Town Hall, Munger - BSPCB",30-01-2026 17:00:00,25.376776,86.471523,SO2,20,35,27
India,Bihar,Muzaffarpur,"Buddha Colony, Muzaffarpur - BSPCB",30-01-2026 17:00:00,26.11442,85.39813,NH3,4,10,7
India,Bihar,Katihar,"Mirchaibari, Katihar - BSPCB",30-01-2026 17:00:00,25.560083,87.553265,CO,64,102,93
India,Bihar,Kishanganj,"SDM Office_Khagra, Kishanganj - BSPCB",30-01-2026 17:00:00,26.0881305,87.93840336,NO2,8,11,10
India,Bihar,Kishanganj,"SDM Office_Khagra, Kishanganj - BSPCB",30-01-2026 17:00:00,26.0881305,87.93840336,SO2,5,12,9
India,Chhattisgarh,Bhilai,"32Bungalows, Bhilai - CECB",30-01-2026 17:00:00,21.194815,81.314770,SO2,6,7,7
India,Chhattisgarh,Bhilai,"32Bungalows, Bhilai - CECB",30-01-2026 17:00:00,21.194815,81.314770,CO,27,61,36
India,Chhattisgarh,Bhilai,"32Bungalows, Bhilai - CECB",30-01-2026 17:00:00,21.194815,81.314770,OZONE,2,40,21
India,Chhattisgarh,Bhilai,"Civic Center, Bhilai - Bhilai Steel Plant",30-01-2026 17:00:00,21.185571,81.343175,PM2.5,25,103,61
India,Chhattisgarh,Bhilai,"Civic Center, Bhilai - Bhilai Steel Plant",30-01-2026 17:00:00,21.185571,81.343175,SO2,7,10,8
India,Chhattisgarh,Bhilai,"Civic Center, Bhilai - Bhilai Steel Plant",30-01-2026 17:00:00,21.185571,81.343175,CO,27,34,30
India,Chhattisgarh,Bhilai,"Hathkhoj, Bhilai - CECB",30-01-2026 17:00:00,21.224231,81.408350,NH3,3,6,5
India,Chhattisgarh,Bilaspur,"Mangala, Bilaspur - NTPC",30-01-2026 17:00:00,22.08815,82.13737,PM2.5,35,93,64
India,Chhattisgarh,Bilaspur,"Mangala, Bilaspur - NTPC",30-01-2026 17:00:00,22.08815,82.13737,CO,22,56,29
India,Chhattisgarh,Chhal,"Nawapara SECL Colony, Chhal - CECB",30-01-2026 17:00:00,22.118125,83.140608,PM2.5,67,165,144
India,Chhattisgarh,Chhal,"Nawapara SECL Colony, Chhal - CECB",30-01-2026 17:00:00,22.118125,83.140608,CO,24,48,33
India,Chhattisgarh,Korba,"Rampur, Korba - CECB",30-01-2026 17:00:00,22.368195,82.746431,SO2,6,61,13
India,Chhattisgarh,Korba,"Urja Nagar, Korba - CECB",30-01-2026 17:00:00,22.348441,82.549611,CO,24,32,27
India,Chhattisgarh,Kunjemura,"OP Jindal School, Kunjemura - CECB",30-01-2026 17:00:00,22.126650,83.483212,NH3,2,2,2
India,Chhattisgarh,Kunjemura,"OP Jindal School, Kunjemura - CECB",30-01-2026 17:00:00,22.126650,83.483212,CO,22,53,39
India,Chhattisgarh,Kunjemura,"OP Jindal School, Kunjemura - CECB",30-01-2026 17:00:00,22.126650,83.483212,OZONE,1,57,31
India,Chhattisgarh,Milupara,"Govt. Higher Secondary School, Milupara - CECB",30-01-2026 17:00:00,22.1910172,83.5197009,PM2.5,71,159,104
India,Chhattisgarh,Raipur,"AIIMS, Raipur - CECB",30-01-2026 17:00:00,21.258815,81.578979,NH3,4,4,4
India,Chhattisgarh,Raipur,"Krishak Nagar, Raipur - CECB",30-01-2026 17:00:00,21.237755,81.705301,PM2.5,40,101,79
India,Chhattisgarh,Raipur,"Krishak Nagar, Raipur - CECB",30-01-2026 17:00:00,21.237755,81.705301,PM10,60,108,87
India,Chhattisgarh,Raipur,"Siltara Phase-II, Raipur - CECB",30-01-2026 17:00:00,21.371751,81.664929,PM2.5,30,181,90
India,Chhattisgarh,Raipur,"Siltara Phase-II, Raipur - CECB",30-01-2026 17:00:00,21.371751,81.664929,CO,34,36,35
India,Chhattisgarh,Raipur,"Siltara Phase-II, Raipur - CECB",30-01-2026 17:00:00,21.371751,81.664929,OZONE,3,3,3
India,Delhi,Delhi,"Alipur, Delhi - DPCC",30-01-2026 17:00:00,28.815329,77.153010,NH3,15,22,17
India,Delhi,Delhi,"Alipur, Delhi - DPCC",30-01-2026 17:00:00,28.815329,77.153010,SO2,2,9,5
India,Delhi,Delhi,"Anand Vihar, Delhi - DPCC",30-01-2026 17:00:00,28.647622,77.3158090,PM10,156,422,269
India,Delhi,Delhi,"Anand Vihar, Delhi - DPCC",30-01-2026 17:00:00,28.647622,77.3158090,NH3,5,9,7
India,Bihar,Sasaram,"Dada Peer, Sasaram - BSPCB",30-01-2026 17:00:00,24.952822,84.002396,CO,44,86,52
India,Bihar,Siwan,"Chitragupta Nagar, Siwan - BSPCB",30-01-2026 17:00:00,26.2271665,84.3570427,PM10,43,68,54
India,Bihar,Siwan,"Chitragupta Nagar, Siwan - BSPCB",30-01-2026 17:00:00,26.2271665,84.3570427,CO,58,84,62
India,Bihar,Siwan,"Chitragupta Nagar, Siwan - BSPCB",30-01-2026 17:00:00,26.2271665,84.3570427,OZONE,15,16,15
India,Chandigarh,Chandigarh,"Sector 22, Chandigarh - CPCC",30-01-2026 17:00:00,30.735567,76.775714,SO2,5,12,7
India,Chandigarh,Chandigarh,"Sector-25, Chandigarh - CPCC",30-01-2026 17:00:00,30.751462,76.762879,PM2.5,49,119,83
India,Chandigarh,Chandigarh,"Sector-25, Chandigarh - CPCC",30-01-2026 17:00:00,30.751462,76.762879,NO2,12,24,17
India,Delhi,Delhi,"Ashok Vihar, Delhi - DPCC",30-01-2026 17:00:00,28.695381,77.181665,NO2,32,121,59
India,Delhi,Delhi,"Ashok Vihar, Delhi - DPCC",30-01-2026 17:00:00,28.695381,77.181665,NH3,8,8,8
India,Delhi,Delhi,"Aya Nagar, Delhi - IMD",30-01-2026 17:00:00,28.4706914,77.1099364,PM2.5,57,321,186
India,Delhi,Delhi,"Bawana, Delhi - DPCC",30-01-2026 17:00:00,28.776200,77.051074,PM2.5,93,432,275
India,Delhi,Delhi,"Bawana, Delhi - DPCC",30-01-2026 17:00:00,28.776200,77.051074,CO,24,108,41
India,Delhi,Delhi,"Burari Crossing, Delhi - IMD",30-01-2026 17:00:00,28.7256504,77.2011573,PM2.5,102,362,241
India,Delhi,Delhi,"CRRI Mathura Road, Delhi - IMD",30-01-2026 17:00:00,28.5512005,77.2735737,PM10,116,215,162
India,Delhi,Delhi,"DTU, Delhi - CPCB",30-01-2026 17:00:00,28.7500499,77.1112615,OZONE,16,82,38
India,Delhi,Delhi,"Dwarka-Sector 8, Delhi - DPCC ",30-01-2026 17:00:00,28.5710274,77.0719006,NO2,40,83,64
India,Delhi,Delhi,"Dwarka-Sector 8, Delhi - DPCC ",30-01-2026 17:00:00,28.5710274,77.0719006,CO,12,106,27
India,Delhi,Delhi,"IGI Airport (T3), Delhi - IMD",30-01-2026 17:00:00,28.5627763,77.1180053,PM2.5,41,306,165
India,Delhi,Delhi,"IGI Airport (T3), Delhi - IMD",30-01-2026 17:00:00,28.5627763,77.1180053,OZONE,2,43,26
India,Delhi,Delhi,"IHBAS, Dilshad Garden, Delhi - CPCB",30-01-2026 17:00:00,28.6811736,77.3025234,PM10,100,135,118
India,Bihar,Patna,"Muradpur, Patna - BSPCB",30-01-2026 17:00:00,25.619651,85.147382,PM2.5,55,74,63
India,Bihar,Patna,"Muradpur, Patna - BSPCB",30-01-2026 17:00:00,25.619651,85.147382,NH3,4,5,5
India,Bihar,Patna,"Muradpur, Patna - BSPCB",30-01-2026 17:00:00,25.619651,85.147382,SO2,7,9,9
India,Bihar,Patna,"Rajbansi Nagar, Patna - BSPCB",30-01-2026 17:00:00,25.599486,85.113666,CO,18,42,27
India,Bihar,Patna,"Rajbansi Nagar, Patna - BSPCB",30-01-2026 17:00:00,25.599486,85.113666,OZONE,20,30,25
India,Bihar,Patna,"Samanpura, Patna - BSPCB",30-01-2026 17:00:00,25.596727,85.085624,PM2.5,53,78,68
India,Bihar,Purnia,"Mariam Nagar, Purnia - BSPCB",30-01-2026 17:00:00,25.366336,87.117468,CO,52,96,67
India,Bihar,Purnia,"Mariam Nagar, Purnia - BSPCB",30-01-2026 17:00:00,25.366336,87.117468,OZONE,15,27,21
India,Bihar,Saharsa,"Police Line, Saharsa - BSPCB",30-01-2026 17:00:00,25.892357,86.590325,NO2,6,9,7
India,Bihar,Saharsa,"Police Line, Saharsa - BSPCB",30-01-2026 17:00:00,25.892357,86.590325,NH3,4,4,4
India,Bihar,Saharsa,"Police Line, Saharsa - BSPCB",30-01-2026 17:00:00,25.892357,86.590325,OZONE,9,10,10
India,Delhi,Delhi,"DTU, Delhi - CPCB",30-01-2026 17:00:00,28.7500499,77.1112615,PM2.5,105,426,307
India,Delhi,Delhi,"DTU, Delhi - CPCB",30-01-2026 17:00:00,28.7500499,77.1112615,SO2,32,34,33
India,Delhi,Delhi,"DTU, Delhi - CPCB",30-01-2026 17:00:00,28.7500499,77.1112615,CO,4,90,32
India,Gujarat,Ahmedabad,"SVPI Airport Hansol, Ahmedabad - IITM",30-01-2026 17:00:00,23.076793,72.627874,PM10,94,129,111
India,Gujarat,Ahmedabad,"SVPI Airport Hansol, Ahmedabad - IITM",30-01-2026 17:00:00,23.076793,72.627874,NO2,21,50,30
India,Gujarat,Ankleshwar,"GIDC, Ankleshwar - GPCB",30-01-2026 17:00:00,21.613267,73.010555,PM10,109,146,128
India,Gujarat,Ankleshwar,"GIDC, Ankleshwar - GPCB",30-01-2026 17:00:00,21.613267,73.010555,NO2,23,24,24
India,Gujarat,Ankleshwar,"GIDC, Ankleshwar - GPCB",30-01-2026 17:00:00,21.613267,73.010555,CO,30,112,45
India,Gujarat,Bhavnagar,"Vidhyanagar, Bhavnagar - Nexteng Enviro",30-01-2026 17:00:00,21.755417,72.139056,PM2.5,NA,NA,NA
India,Gujarat,Bhavnagar,"Vidhyanagar, Bhavnagar - Nexteng Enviro",30-01-2026 17:00:00,21.755417,72.139056,PM10,NA,NA,NA
India,Gujarat,Bhavnagar,"Vidhyanagar, Bhavnagar - Nexteng Enviro",30-01-2026 17:00:00,21.755417,72.139056,CO,114,118,116
India,Gujarat,Bhavnagar,"Vidhyanagar, Bhavnagar - Nexteng Enviro",30-01-2026 17:00:00,21.755417,72.139056,OZONE,7,43,24
India,Gujarat,Gandhinagar,"GIFT City, Gandhinagar - IITM",30-01-2026 17:00:00,23.163798,72.677768,PM10,95,132,116
India,Gujarat,Gandhinagar,"GIFT City, Gandhinagar - IITM",30-01-2026 17:00:00,23.163798,72.677768,OZONE,42,80,47
India,Gujarat,Gandhinagar,"IIPHG Lekawada, Gandhinagar - IITM",30-01-2026 17:00:00,23.243639,72.68994,SO2,10,15,12
India,Gujarat,Gandhinagar,"Sector-10, Gandhinagar - GPCB",30-01-2026 17:00:00,23.221714,72.654328,PM2.5,64,94,79
India,Gujarat,Ahmedabad,"Maninagar, Ahmedabad - GPCB",30-01-2026 17:00:00,23.002657,72.591912,SO2,30,61,43
India,Gujarat,Ahmedabad,"Maninagar, Ahmedabad - GPCB",30-01-2026 17:00:00,23.002657,72.591912,CO,22,40,27
India,Gujarat,Ahmedabad,"Maninagar, Ahmedabad - GPCB",30-01-2026 17:00:00,23.002657,72.591912,OZONE,48,100,77
India,Gujarat,Ahmedabad,"Raikhad, Ahmedabad - IITM",30-01-2026 17:00:00,23.020509,72.579261,NH3,11,15,13
India,Gujarat,Ahmedabad,"Rakhial, Ahmedabad - IITM",30-01-2026 17:00:00,23.016834,72.625775,NH3,5,9,6
India,Gujarat,Ahmedabad,"Rakhial, Ahmedabad - IITM",30-01-2026 17:00:00,23.016834,72.625775,CO,56,86,70
India,Gujarat,Ahmedabad,"SAC ISRO Bopal, Ahmedabad - IITM",30-01-2026 17:00:00,23.041137,72.456691,NH3,9,12,10
India,Gujarat,Ahmedabad,"SAC ISRO Satellite, Ahmedabad - IITM",30-01-2026 17:00:00,23.023389,72.515201,PM2.5,53,134,71
India,Delhi,Delhi,"Nehru Nagar, Delhi - DPCC",30-01-2026 17:00:00,28.567890,77.250515,NO2,43,82,55
India,Delhi,Delhi,"Nehru Nagar, Delhi - DPCC",30-01-2026 17:00:00,28.567890,77.250515,CO,8,149,19
India,Delhi,Delhi,"North Campus, DU, Delhi - IMD",30-01-2026 17:00:00,28.6573814,77.1585447,PM10,108,239,164
India,Delhi,Delhi,"North Campus, DU, Delhi - IMD",30-01-2026 17:00:00,28.6573814,77.1585447,NO2,53,118,73
India,Delhi,Delhi,"Okhla Phase-2, Delhi - DPCC",30-01-2026 17:00:00,28.530785,77.271255,PM10,109,191,153
India,Delhi,Delhi,"Punjabi Bagh, Delhi - DPCC",30-01-2026 17:00:00,28.674045,77.131023,NH3,4,6,5
India,Delhi,Delhi,"Pusa, Delhi - DPCC",30-01-2026 17:00:00,28.639652,77.146275,NH3,7,21,15
India,Delhi,Delhi,"Pusa, Delhi - IMD",30-01-2026 17:00:00,28.636110,77.173332,NO2,51,126,80
India,Delhi,Delhi,"R K Puram, Delhi - DPCC",30-01-2026 17:00:00,28.563262,77.186937,PM2.5,120,410,295
India,Delhi,Delhi,"R K Puram, Delhi - DPCC",30-01-2026 17:00:00,28.563262,77.186937,SO2,7,38,18
India,Delhi,Delhi,"Shadipur, Delhi - CPCB",30-01-2026 17:00:00,28.6514781,77.1473105,CO,42,120,67
India,Delhi,Delhi,"Shadipur, Delhi - CPCB",30-01-2026 17:00:00,28.6514781,77.1473105,OZONE,17,28,22
India,Delhi,Delhi,"Sirifort, Delhi - CPCB",30-01-2026 17:00:00,28.5504249,77.2159377,PM10,119,248,185
India,Delhi,Delhi,"Sirifort, Delhi - CPCB",30-01-2026 17:00:00,28.5504249,77.2159377,CO,20,78,35
India,Delhi,Delhi,"Sri Aurobindo Marg, Delhi - DPCC",30-01-2026 17:00:00,28.531346,77.190156,NO2,32,110,50
India,Delhi,Delhi,"Wazirpur, Delhi - DPCC",30-01-2026 17:00:00,28.699793,77.165453,PM10,164,351,239
India,Delhi,Delhi,"Wazirpur, Delhi - DPCC",30-01-2026 17:00:00,28.699793,77.165453,NH3,11,15,13
India,Delhi,Delhi,"Wazirpur, Delhi - DPCC",30-01-2026 17:00:00,28.699793,77.165453,SO2,5,14,11
India,Gujarat,Ahmedabad,"Chandkheda, Ahmedabad - IITM",30-01-2026 17:00:00,23.107969,72.574648,PM2.5,52,84,66
India,Gujarat,Ahmedabad,"Chandkheda, Ahmedabad - IITM",30-01-2026 17:00:00,23.107969,72.574648,NO2,12,29,17
India,Gujarat,Ahmedabad,"Chandkheda, Ahmedabad - IITM",30-01-2026 17:00:00,23.107969,72.574648,OZONE,26,48,35
India,Delhi,Delhi,"Mundka, Delhi - DPCC",30-01-2026 17:00:00,28.684678,77.076574,NH3,9,14,11
India,Delhi,Delhi,"Najafgarh, Delhi - DPCC",30-01-2026 17:00:00,28.570173,76.933762,NO2,40,111,82
India,Delhi,Delhi,"Narela, Delhi - DPCC",30-01-2026 17:00:00,28.822836,77.101981,PM10,85,295,156
India,Delhi,Delhi,"Narela, Delhi - DPCC",30-01-2026 17:00:00,28.822836,77.101981,NO2,7,38,21
India,Delhi,Delhi,"Narela, Delhi - DPCC",30-01-2026 17:00:00,28.822836,77.101981,CO,28,68,37
India,Delhi,Delhi,"Narela, Delhi - DPCC",30-01-2026 17:00:00,28.822836,77.101981,OZONE,8,83,53
India,Gujarat,Surat,"Science Center, Surat - SMC",30-01-2026 17:00:00,21.170046,72.795405,NO2,2,27,12
India,Gujarat,Surat,"Science Center, Surat - SMC",30-01-2026 17:00:00,21.170046,72.795405,CO,38,41,39
India,Gujarat,Vapi,"Phase-1 GIDC, Vapi - GPCB",30-01-2026 17:00:00,20.362421,72.918013,OZONE,3,19,16
India,Gujarat,Vatva,"Phase-4 GIDC, Vatva - GPCB",30-01-2026 17:00:00,22.969611,72.643500,PM2.5,101,210,154
India,Delhi,Delhi,"Jawaharlal Nehru Stadium, Delhi - DPCC",30-01-2026 17:00:00,28.580280,77.233829,SO2,60,72,66
India,Delhi,Delhi,"Major Dhyan Chand National Stadium, Delhi - DPCC",30-01-2026 17:00:00,28.611281,77.237738,PM2.5,83,309,224
India,Delhi,Delhi,"Major Dhyan Chand National Stadium, Delhi - DPCC",30-01-2026 17:00:00,28.611281,77.237738,PM10,109,171,153
India,Delhi,Delhi,"IHBAS, Dilshad Garden, Delhi - CPCB",30-01-2026 17:00:00,28.6811736,77.3025234,NH3,8,12,10
India,Delhi,Delhi,"ITO, Delhi - CPCB",30-01-2026 17:00:00,28.628624,77.241060,NH3,2,3,2
India,Delhi,Delhi,"ITO, Delhi - CPCB",30-01-2026 17:00:00,28.628624,77.241060,SO2,5,21,13
India,Haryana,Kurukshetra,"Sector-7, Kurukshetra - HSPCB",30-01-2026 17:00:00,29.966942,76.875879,PM2.5,70,120,85
India,Haryana,Kurukshetra,"Sector-7, Kurukshetra - HSPCB",30-01-2026 17:00:00,29.966942,76.875879,PM10,97,132,108
India,Haryana,Mandikhera,"General Hospital, Mandikhera(Nuh) - HSPCB",30-01-2026 17:00:00,27.9002,76.9938,PM10,63,126,101
India,Haryana,Mandikhera,"General Hospital, Mandikhera(Nuh) - HSPCB",30-01-2026 17:00:00,27.9002,76.9938,NO2,20,23,22
India,Haryana,Mandikhera,"General Hospital, Mandikhera(Nuh) - HSPCB",30-01-2026 17:00:00,27.9002,76.9938,SO2,31,37,35
India,Haryana,Mandikhera,"General Hospital, Mandikhera(Nuh) - HSPCB",30-01-2026 17:00:00,27.9002,76.9938,CO,52,89,70
India,Haryana,Manesar,"Sector-2 IMT, Manesar - HSPCB",30-01-2026 17:00:00,28.360699,76.936090,PM2.5,72,327,152
India,Haryana,Manesar,"Sector-2 IMT, Manesar - HSPCB",30-01-2026 17:00:00,28.360699,76.936090,NO2,36,42,39
India,Haryana,Manesar,"Sector-2 IMT, Manesar - HSPCB",30-01-2026 17:00:00,28.360699,76.936090,OZONE,5,24,17
India,Haryana,Palwal,"Shyam Nagar, Palwal - HSPCB",30-01-2026 17:00:00,28.1485564,77.3320667,NO2,23,24,24
India,Haryana,Palwal,"Shyam Nagar, Palwal - HSPCB",30-01-2026 17:00:00,28.1485564,77.3320667,NH3,8,9,9
India,Haryana,Palwal,"Shyam Nagar, Palwal - HSPCB",30-01-2026 17:00:00,28.1485564,77.3320667,SO2,13,114,18
India,Haryana,Hisar,"Urban Estate-II, Hisar - HSPCB",30-01-2026 17:00:00,29.140560,75.744941,PM2.5,40,125,68
India,Haryana,Hisar,"Urban Estate-II, Hisar - HSPCB",30-01-2026 17:00:00,29.140560,75.744941,NO2,26,27,26
India,Haryana,Hisar,"Urban Estate-II, Hisar - HSPCB",30-01-2026 17:00:00,29.140560,75.744941,NH3,10,11,11
India,Haryana,Hisar,"Urban Estate-II, Hisar - HSPCB",30-01-2026 17:00:00,29.140560,75.744941,OZONE,13,104,69
India,Haryana,Jind,"Police Lines, Jind - HSPCB",30-01-2026 17:00:00,29.307814,76.337619,NO2,40,57,47
India,Haryana,Jind,"Police Lines, Jind - HSPCB",30-01-2026 17:00:00,29.307814,76.337619,NH3,1,3,2
India,Haryana,Kaithal,"Rishi Nagar, Kaithal - HSPCB",30-01-2026 17:00:00,29.8006,76.4155,PM10,48,96,77
India,Haryana,Kaithal,"Rishi Nagar, Kaithal - HSPCB",30-01-2026 17:00:00,29.8006,76.4155,OZONE,4,16,14
India,Haryana,Karnal,"Sector-12, Karnal - HSPCB",30-01-2026 17:00:00,29.695300,77.002700,PM2.5,7,72,13
India,Haryana,Fatehabad,"Huda Sector, Fatehabad - HSPCB",30-01-2026 17:00:00,29.503664,75.467934,OZONE,55,61,60
India,Haryana,Gurugram,"NISE Gwal Pahari, Gurugram - IMD",30-01-2026 17:00:00,28.422681,77.148944,OZONE,5,45,21
India,Haryana,Gurugram,"Sector-51, Gurugram - HSPCB",30-01-2026 17:00:00,28.4227,77.0667,PM2.5,130,405,302
India,Haryana,Gurugram,"Sector-51, Gurugram - HSPCB",30-01-2026 17:00:00,28.4227,77.0667,NH3,9,14,12
India,Haryana,Gurugram,"Teri Gram, Gurugram - HSPCB",30-01-2026 17:00:00,28.4275,77.1465,NO2,50,101,71
India,Haryana,Ambala,"Patti Mehar, Ambala - HSPCB",30-01-2026 17:00:00,30.379589,76.778328,SO2,15,32,21
India,Haryana,Ambala,"Patti Mehar, Ambala - HSPCB",30-01-2026 17:00:00,30.379589,76.778328,CO,26,44,33
India,Haryana,Bahadurgarh,"Arya Nagar, Bahadurgarh - HSPCB",30-01-2026 17:00:00,28.6701,76.9254,PM2.5,54,308,187
India,Haryana,Bahadurgarh,"Arya Nagar, Bahadurgarh - HSPCB",30-01-2026 17:00:00,28.6701,76.9254,NO2,13,14,13
India,Haryana,Ballabgarh,"Nathu Colony, Ballabgarh - HSPCB",30-01-2026 17:00:00,28.3419248,77.319699,PM10,142,423,278
India,Haryana,Sirsa,"F-Block, Sirsa - HSPCB",30-01-2026 17:00:00,29.536400,75.015800,PM2.5,54,193,96
India,Haryana,Sirsa,"F-Block, Sirsa - HSPCB",30-01-2026 17:00:00,29.536400,75.015800,NO2,14,29,20
India,Haryana,Sonipat,"Murthal, Sonipat - HSPCB",30-01-2026 17:00:00,29.027200,77.062100,NO2,NA,NA,NA
India,Haryana,Sonipat,"Murthal, Sonipat - HSPCB",30-01-2026 17:00:00,29.027200,77.062100,NH3,NA,NA,NA
India,Haryana,Yamuna Nagar,"Gobind Pura, Yamuna Nagar - HSPCB",30-01-2026 17:00:00,30.1480566,77.2893471,CO,29,52,49
India,Haryana,Faridabad,"New Industrial Town, Faridabad - HSPCB",30-01-2026 17:00:00,28.39072,77.30059,NH3,11,12,11
India,Haryana,Faridabad,"Sector 11, Faridabad - HSPCB",30-01-2026 17:00:00,28.376058,77.315741,SO2,4,5,4
India,Haryana,Fatehabad,"Huda Sector, Fatehabad - HSPCB",30-01-2026 17:00:00,29.503664,75.467934,PM2.5,1,7,3
India,Haryana,Fatehabad,"Huda Sector, Fatehabad - HSPCB",30-01-2026 17:00:00,29.503664,75.467934,NO2,18,21,19
India,Haryana,Dharuhera,"Municipal Corporation Office, Dharuhera -  HSPCB",30-01-2026 17:00:00,28.206800,76.799700,PM10,106,289,155
India,Haryana,Dharuhera,"Municipal Corporation Office, Dharuhera -  HSPCB",30-01-2026 17:00:00,28.206800,76.799700,NH3,6,18,13
India,Haryana,Faridabad,"New Industrial Town, Faridabad - HSPCB",30-01-2026 17:00:00,28.39072,77.30059,PM2.5,123,221,147
India,Haryana,Charkhi Dadri,"Mini Secretariat, Charkhi Dadri - HSPCB",30-01-2026 17:00:00,28.593883,76.270653,NO2,9,22,15
India,Haryana,Charkhi Dadri,"Mini Secretariat, Charkhi Dadri - HSPCB",30-01-2026 17:00:00,28.593883,76.270653,NH3,5,8,6
India,Haryana,Panchgaon,"Amity University, Panchgaon - IITM",30-01-2026 17:00:00,28.3153,76.9143,OZONE,1,70,45
India,Madhya Pradesh,Bhopal,"Paryavaran Parisar, Bhopal - MPPCB",30-01-2026 17:00:00,23.210494,77.425409,PM2.5,65,243,115
India,Madhya Pradesh,Bhopal,"Paryavaran Parisar, Bhopal - MPPCB",30-01-2026 17:00:00,23.210494,77.425409,NO2,30,84,47
India,Madhya Pradesh,Bhopal,"Paryavaran Parisar, Bhopal - MPPCB",30-01-2026 17:00:00,23.210494,77.425409,OZONE,18,41,37
India,Madhya Pradesh,Bhopal,"T T Nagar, Bhopal - MPPCB",30-01-2026 17:00:00,23.233584,77.400574,PM10,88,155,108
India,Madhya Pradesh,Bhopal,"T T Nagar, Bhopal - MPPCB",30-01-2026 17:00:00,23.233584,77.400574,NH3,7,8,7
India,Madhya Pradesh,Bhopal,"T T Nagar, Bhopal - MPPCB",30-01-2026 17:00:00,23.233584,77.400574,SO2,10,19,14
India,Madhya Pradesh,Bhopal,"T T Nagar, Bhopal - MPPCB",30-01-2026 17:00:00,23.233584,77.400574,CO,34,66,43
India,Madhya Pradesh,Dewas,"Bhopal Chauraha, Dewas - MPPCB",30-01-2026 17:00:00,22.9682591,76.064118,SO2,23,105,53
India,Madhya Pradesh,Gwalior,"City Center, Gwalior - MPPCB",30-01-2026 17:00:00,26.203442,78.193251,PM2.5,49,217,122
India,Madhya Pradesh,Gwalior,"City Center, Gwalior - MPPCB",30-01-2026 17:00:00,26.203442,78.193251,NO2,25,58,36
India,Madhya Pradesh,Gwalior,"City Center, Gwalior - MPPCB",30-01-2026 17:00:00,26.203442,78.193251,NH3,3,5,4
India,Madhya Pradesh,Gwalior,"Deen Dayal Nagar, Gwalior - MPPCB",30-01-2026 17:00:00,26.259242,78.216432,PM10,64,147,107
India,Karnataka,Bengaluru,"Silk Board, Bengaluru - KSPCB",30-01-2026 17:00:00,12.917348,77.622813,SO2,5,11,7
India,Karnataka,Bengaluru,"Silk Board, Bengaluru - KSPCB",30-01-2026 17:00:00,12.917348,77.622813,CO,26,74,42
India,Karnataka,Chamarajanagar,"Urban, Chamarajanagar - KSPCB",30-01-2026 17:00:00,11.55358,76.55521,PM2.5,29,55,37
India,Karnataka,Chikkamagaluru,"Kalyana Nagara, Chikkamagaluru - KSPCB",30-01-2026 17:00:00,13.328028,75.797056,PM10,70,75,71
India,Karnataka,Chikkamagaluru,"Kalyana Nagara, Chikkamagaluru - KSPCB",30-01-2026 17:00:00,13.328028,75.797056,NO2,22,27,26
India,Karnataka,Chikkamagaluru,"Kalyana Nagara, Chikkamagaluru - KSPCB",30-01-2026 17:00:00,13.328028,75.797056,OZONE,30,50,39
India,Karnataka,Davanagere,"Devaraj Urs Badavane, Davanagere - KSPCB",30-01-2026 17:00:00,14.475800,75.905200,CO,13,56,16
India,Karnataka,Dharwad,"Kalabhavan, Dharwad - KSPCB",30-01-2026 17:00:00,15.459706,75.008381,NO2,22,24,23
India,Karnataka,Bengaluru,"BWSSB Kadabesanahalli, Bengaluru - CPCB",30-01-2026 17:00:00,12.9352049,77.6814488,NO2,10,34,21
India,Karnataka,Bengaluru,"Bapuji Nagar, Bengaluru - KSPCB",30-01-2026 17:00:00,12.951913,77.539784,PM2.5,29,132,88
India,Karnataka,Bengaluru,"Bapuji Nagar, Bengaluru - KSPCB",30-01-2026 17:00:00,12.951913,77.539784,NH3,2,2,2
India,Karnataka,Bengaluru,"Hebbal, Bengaluru - KSPCB",30-01-2026 17:00:00,13.029152,77.585901,NO2,23,49,41
India,Karnataka,Bengaluru,"Hebbal, Bengaluru - KSPCB",30-01-2026 17:00:00,13.029152,77.585901,SO2,4,14,10
India,Karnataka,Bengaluru,"Hombegowda Nagar, Bengaluru - KSPCB",30-01-2026 17:00:00,12.938539,77.590100,NH3,3,7,5
India,Karnataka,Bengaluru,"Hombegowda Nagar, Bengaluru - KSPCB",30-01-2026 17:00:00,12.938539,77.590100,OZONE,21,57,49
India,Karnataka,Bengaluru,"Jayanagar 5th Block, Bengaluru - KSPCB",30-01-2026 17:00:00,12.920984,77.584908,NH3,2,3,3
India,Karnataka,Bagalkot,"Vidayagiri, Bagalkot - KSPCB",30-01-2026 17:00:00,16.172806,75.659694,CO,14,49,32
India,Karnataka,Bagalkot,"Vidayagiri, Bagalkot - KSPCB",30-01-2026 17:00:00,16.172806,75.659694,OZONE,12,13,12
India,Karnataka,Belgaum,"Ramteerth Nagar, Belgaum - KSPCB",30-01-2026 17:00:00,15.888653,74.541751,NO2,32,130,57
India,Karnataka,Belgaum,"Ramteerth Nagar, Belgaum - KSPCB",30-01-2026 17:00:00,15.888653,74.541751,NH3,6,11,9
India,Karnataka,Belgaum,"Ramteerth Nagar, Belgaum - KSPCB",30-01-2026 17:00:00,15.888653,74.541751,CO,1,3,2
India,Karnataka,Bengaluru,"BTM Layout, Bengaluru - CPCB",30-01-2026 17:00:00,12.9135218,77.5950804,NH3,NA,NA,NA
India,Karnataka,Bengaluru,"BWSSB Kadabesanahalli, Bengaluru - CPCB",30-01-2026 17:00:00,12.9352049,77.6814488,PM2.5,53,293,176
India,Karnataka,Bengaluru,"Jigani, Bengaluru - KSPCB",30-01-2026 17:00:00,12.7816279,77.6299145,OZONE,26,27,26
India,Karnataka,Bengaluru,"Kasturi Nagar, Bengaluru - KSPCB",30-01-2026 17:00:00,13.003872,77.664217,NH3,NA,NA,NA
India,Karnataka,Bengaluru,"Kasturi Nagar, Bengaluru - KSPCB",30-01-2026 17:00:00,13.003872,77.664217,CO,28,53,43
India,Karnataka,Bengaluru,"Peenya, Bengaluru - CPCB",30-01-2026 17:00:00,13.0270199,77.494094,CO,6,24,8
India,Karnataka,Bengaluru,"Peenya, Bengaluru - CPCB",30-01-2026 17:00:00,13.0270199,77.494094,OZONE,20,21,21
India,Karnataka,Bengaluru,"RVCE-Mailasandra, Bengaluru - KSPCB",30-01-2026 17:00:00,12.921418,77.502466,NO2,19,24,24
India,Himachal Pradesh,Baddi,"HIMUDA Complex Phase-1, Baddi - HPPCB",30-01-2026 17:00:00,30.943887,76.801991,PM2.5,32,308,127
India,Himachal Pradesh,Baddi,"HIMUDA Complex Phase-1, Baddi - HPPCB",30-01-2026 17:00:00,30.943887,76.801991,SO2,27,105,54
India,Jammu_and_Kashmir,Srinagar,"Rajbagh, Srinagar - JKPCC",30-01-2026 17:00:00,34.066206,74.819820,SO2,3,4,3
India,Karnataka,Bagalkot,"Vidayagiri, Bagalkot - KSPCB",30-01-2026 17:00:00,16.172806,75.659694,PM10,46,47,46
India,Kerala,Kollam,"Polayathode, Kollam - Kerala PCB",30-01-2026 17:00:00,8.8787,76.6073,PM2.5,158,295,236
India,Kerala,Kollam,"Polayathode, Kollam - Kerala PCB",30-01-2026 17:00:00,8.8787,76.6073,NO2,8,10,9
India,Kerala,Kollam,"Polayathode, Kollam - Kerala PCB",30-01-2026 17:00:00,8.8787,76.6073,NH3,1,1,1
India,Kerala,Thrissur,"Corporation Ground, Thrissur - Kerala PCB",30-01-2026 17:00:00,10.532400,76.215900,PM10,65,123,78
India,Karnataka,Mysuru,"Hebbal 1st Stage, Mysuru - KSPCB",30-01-2026 17:00:00,12.21041,76.37376,NO2,8,27,18
India,Karnataka,Mysuru,"Hebbal 1st Stage, Mysuru - KSPCB",30-01-2026 17:00:00,12.21041,76.37376,SO2,5,12,7
India,Karnataka,Mysuru,"Hebbal 1st Stage, Mysuru - KSPCB",30-01-2026 17:00:00,12.21041,76.37376,CO,6,66,14
India,Karnataka,Shivamogga,"Vinoba Nagara, Shivamogga - KSPCB",30-01-2026 17:00:00,13.940000,75.555917,PM10,55,64,61
India,Karnataka,Shivamogga,"Vinoba Nagara, Shivamogga - KSPCB",30-01-2026 17:00:00,13.940000,75.555917,CO,16,32,29
India,Karnataka,Tumakuru,"Thimmalapura, Tumakuru - KSPCB",30-01-2026 17:00:00,13.377516,77.099072,PM10,116,423,155
India,Karnataka,Vijayapura,"Ibrahimpur, Vijayapura - KSPCB",30-01-2026 17:00:00,16.802639,75.722694,CO,10,33,23
India,Madhya Pradesh,Sagar,"Deen Dayal Nagar, Sagar - MPPCB",30-01-2026 17:00:00,23.8640158,78.80289321,CO,4,20,14
India,Madhya Pradesh,Satna,"Bandhavgar Colony, Satna - Birla Cement",30-01-2026 17:00:00,24.58434363,80.8549414,SO2,19,21,20
India,Madhya Pradesh,Singrauli,"Suryakiran Bhawan NCL, Singrauli - MPPCB",30-01-2026 17:00:00,24.108970,82.645580,PM2.5,134,325,256
India,Madhya Pradesh,Singrauli,"Suryakiran Bhawan NCL, Singrauli - MPPCB",30-01-2026 17:00:00,24.108970,82.645580,PM10,121,236,165
India,Madhya Pradesh,Singrauli,"Suryakiran Bhawan NCL, Singrauli - MPPCB",30-01-2026 17:00:00,24.108970,82.645580,OZONE,8,29,19
India,Madhya Pradesh,Ujjain,"Mahashweta Nagar, Ujjain - MPPCB",30-01-2026 17:00:00,23.1633321,75.800225,PM2.5,74,216,128
India,Madhya Pradesh,Ujjain,"Mahashweta Nagar, Ujjain - MPPCB",30-01-2026 17:00:00,23.1633321,75.800225,OZONE,37,78,52
India,Maharashtra,Ahmednagar,"Tarakpur, Ahmednagar - MPCB",30-01-2026 17:00:00,19.10122,74.73339,CO,31,108,52
India,Maharashtra,Akola,"Ramdaspeth, Akola - MPCB",30-01-2026 17:00:00,20.719516,77.000253,SO2,11,33,16
India,Madhya Pradesh,Gwalior,"Deen Dayal Nagar, Gwalior - MPPCB",30-01-2026 17:00:00,26.259242,78.216432,CO,28,98,46
India,Madhya Pradesh,Gwalior,"Maharaj Bada, Gwalior - MPPCB",30-01-2026 17:00:00,26.200388,78.147714,PM10,66,202,128
India,Madhya Pradesh,Gwalior,"Maharaj Bada, Gwalior - MPPCB",30-01-2026 17:00:00,26.200388,78.147714,SO2,6,11,8
India,Madhya Pradesh,Indore,"Airport Area, Indore - IMC",30-01-2026 17:00:00,22.7289,75.8076,PM2.5,68,307,135
India,Madhya Pradesh,Indore,"Airport Area, Indore - IMC",30-01-2026 17:00:00,22.7289,75.8076,SO2,NA,NA,NA
India,Madhya Pradesh,Indore,"Chhoti Gwaltoli, Indore - MPPCB",30-01-2026 17:00:00,22.4310,75.5213,SO2,23,27,25
India,Madhya Pradesh,Indore,"Chhoti Gwaltoli, Indore - MPPCB",30-01-2026 17:00:00,22.4310,75.5213,CO,26,56,38
India,Madhya Pradesh,Indore,"Maguda Nagar, Indore - IMC",30-01-2026 17:00:00,22.7524,75.8872,NO2,18,26,22
India,Madhya Pradesh,Indore,"Regional Park, Indore - IMC",30-01-2026 17:00:00,22.6780,75.8559,CO,2,20,14
India,Madhya Pradesh,Indore,"Regional Park, Indore - IMC",30-01-2026 17:00:00,22.6780,75.8559,OZONE,5,11,7
India,Maharashtra,Amravati,"Shivneri Colony, Amravati - MPCB",30-01-2026 17:00:00,20.9402359,77.7895248,PM2.5,42,72,58
India,Maharashtra,Amravati,"Shivneri Colony, Amravati - MPCB",30-01-2026 17:00:00,20.9402359,77.7895248,NH3,4,4,4
India,Maharashtra,Amravati,"Shri Shivaji Science College, Amravati - MPCB",30-01-2026 17:00:00,20.939198,77.765701,PM2.5,47,87,70
India,Maharashtra,Aurangabad,"MIDC Chilkalthana, Aurangabad - MPCB",30-01-2026 17:00:00,19.875620,75.387310,PM2.5,69,101,84
India,Maharashtra,Aurangabad,"More Chowk Waluj, Aurangabad - MPCB",30-01-2026 17:00:00,19.8389439,75.244448,PM2.5,54,106,76
India,Maharashtra,Aurangabad,"More Chowk Waluj, Aurangabad - MPCB",30-01-2026 17:00:00,19.8389439,75.244448,NO2,14,24,19
India,Maharashtra,Aurangabad,"Rachnakar Colony, Aurangabad - MPCB",30-01-2026 17:00:00,19.863756,75.321188,PM10,NA,NA,NA
India,Maharashtra,Badlapur,"Katrap, Badlapur - MPCB",30-01-2026 17:00:00,19.16485,73.23409,NO2,10,33,25
India,Maharashtra,Chandrapur,"Chauhan Colony, Chandrapur - MPCB",30-01-2026 17:00:00,19.962900,79.298714,SO2,37,38,38
India,Maharashtra,Dhule,"Deopur, Dhule - MPCB",30-01-2026 17:00:00,20.918946,74.776388,CO,19,42,32
India,Maharashtra,Jalgaon,"Prabhat Colony, Jalgaon - MPCB",30-01-2026 17:00:00,21.001264,75.565602,NO2,4,24,7
India,Maharashtra,Jalgaon,"Prabhat Colony, Jalgaon - MPCB",30-01-2026 17:00:00,21.001264,75.565602,SO2,1,13,5
India,Maharashtra,Jalna,"Old MIDC, Jalna - MPCB",30-01-2026 17:00:00,19.854616,75.905894,NH3,2,5,4
India,Maharashtra,Kalyan,"Khadakpada, Kalyan - MPCB",30-01-2026 17:00:00,19.25292,73.142019,PM10,81,192,121
India,Maharashtra,Kalyan,"Khadakpada, Kalyan - MPCB",30-01-2026 17:00:00,19.25292,73.142019,NH3,1,1,1
India,Maharashtra,Kalyan,"Pimpleshwar Mandir, Kalyan - MPCB",30-01-2026 17:00:00,19.192056,72.9585188,PM10,135,261,183
India,Madhya Pradesh,Indore,"Residency Area, Indore - IMC",30-01-2026 17:00:00,22.7084,75.8815,NO2,27,46,36
India,Madhya Pradesh,Indore,"Residency Area, Indore - IMC",30-01-2026 17:00:00,22.7084,75.8815,OZONE,6,9,8
India,Madhya Pradesh,Jabalpur,"Govindh Bhavan Colony, Jabalpur - JMC",30-01-2026 17:00:00,23.163174,79.973061,PM2.5,48,75,64
India,Madhya Pradesh,Jabalpur,"Govindh Bhavan Colony, Jabalpur - JMC",30-01-2026 17:00:00,23.163174,79.973061,NH3,1,1,1
India,Madhya Pradesh,Jabalpur,"Marhatal, Jabalpur - MPPCB",30-01-2026 17:00:00,23.168606,79.932247,PM10,71,120,101
India,Madhya Pradesh,Jabalpur,"Marhatal, Jabalpur - MPPCB",30-01-2026 17:00:00,23.168606,79.932247,NO2,13,30,20
India,Maharashtra,Kalyan,"Pimpleshwar Mandir, Kalyan - MPCB",30-01-2026 17:00:00,19.192056,72.9585188,SO2,10,29,17
India,Maharashtra,Kolhapur,"Shivaji University, Kolhapur - MPCB",30-01-2026 17:00:00,16.6870449,74.2505872,PM2.5,55,119,75
India,Maharashtra,Kolhapur,"Sinchan Bhavan, Kolhapur - MPCB",30-01-2026 17:00:00,16.7143745,74.2426398,OZONE,1,42,23
India,Maharashtra,Latur,"Sawe Wadi, Latur - MPCB",30-01-2026 17:00:00,18.39963,76.57452,NH3,4,14,9
India,Maharashtra,Latur,"Sawe Wadi, Latur - MPCB",30-01-2026 17:00:00,18.39963,76.57452,CO,3,38,30
India,Maharashtra,Belapur,"CBD Belapur, Belapur - MPCB",30-01-2026 17:00:00,19.0243902,73.0406721,NO2,27,63,43
India,Maharashtra,Bhiwandi,"Gokul Nagar, Bhiwandi - MPCB",30-01-2026 17:00:00,19.309073,73.057223,PM2.5,65,213,126
India,Maharashtra,Bhiwandi,"Gokul Nagar, Bhiwandi - MPCB",30-01-2026 17:00:00,19.309073,73.057223,PM10,108,188,148
India,Maharashtra,Boisar,"Khaira, Boisar - MPCB",30-01-2026 17:00:00,19.786089,72.757971,NH3,NA,NA,NA
India,Maharashtra,Boisar,"Khaira, Boisar - MPCB",30-01-2026 17:00:00,19.786089,72.757971,CO,12,67,34
India,Madhya Pradesh,Jabalpur,"Suhagi, Jabalpur - JMC",30-01-2026 17:00:00,23.218135,79.957770,NO2,28,87,46
India,Madhya Pradesh,Jabalpur,"Suhagi, Jabalpur - JMC",30-01-2026 17:00:00,23.218135,79.957770,CO,39,105,52
India,Madhya Pradesh,Katni,"Gole Bazar, Katni - MPPCB",30-01-2026 17:00:00,23.50016,80.23284,OZONE,18,116,80
India,Madhya Pradesh,Pithampur,"Sector-2 Industrial Area, Pithampur - MPPCB",30-01-2026 17:00:00,22.624758,75.675238,PM2.5,64,314,197
India,Madhya Pradesh,Ratlam,"Shasthri Nagar, Ratlam - IPCA Lab",30-01-2026 17:00:00,23.331731,75.045981,NO2,13,32,21
India,Madhya Pradesh,Sagar,"Civil Lines, Sagar - MPPCB",30-01-2026 17:00:00,23.838586,78.759431,OZONE,19,120,96
India,Maharashtra,Mumbai,"Kherwadi_Bandra East, Mumbai - MPCB",30-01-2026 17:00:00,19.0632143,72.8456324,PM10,83,169,133
India,Maharashtra,Mumbai,"Kherwadi_Bandra East, Mumbai - MPCB",30-01-2026 17:00:00,19.0632143,72.8456324,NH3,9,19,15
India,Maharashtra,Mumbai,"Kherwadi_Bandra East, Mumbai - MPCB",30-01-2026 17:00:00,19.0632143,72.8456324,SO2,3,4,4
India,Maharashtra,Mumbai,"Khindipada-Bhandup West, Mumbai - IITM",30-01-2026 17:00:00,19.1653323,72.922099,NO2,17,69,35
India,Maharashtra,Mumbai,"Khindipada-Bhandup West, Mumbai - IITM",30-01-2026 17:00:00,19.1653323,72.922099,NH3,4,9,7
India,Maharashtra,Mumbai,"Kurla, Mumbai - MPCB",30-01-2026 17:00:00,19.0863,72.8888,NO2,6,10,8
India,Maharashtra,Mumbai,"Kurla, Mumbai - MPCB",30-01-2026 17:00:00,19.0863,72.8888,NH3,2,2,2
India,Maharashtra,Mumbai,"Kurla, Mumbai - MPCB",30-01-2026 17:00:00,19.0863,72.8888,SO2,36,37,37
India,Maharashtra,Mumbai,"Kurla, Mumbai - MPCB",30-01-2026 17:00:00,19.0863,72.8888,OZONE,28,29,28
India,Maharashtra,Mumbai,"Malad West, Mumbai - IITM",30-01-2026 17:00:00,19.19709,72.82204,NH3,8,34,15
India,Maharashtra,Mumbai,"Malad West, Mumbai - IITM",30-01-2026 17:00:00,19.19709,72.82204,OZONE,4,15,5
India,Maharashtra,Mumbai,"Mazgaon, Mumbai - IITM",30-01-2026 17:00:00,18.96702,72.84214,SO2,9,17,13
India,Maharashtra,Mumbai,"Mindspace-Malad West, Mumbai - MPCB",30-01-2026 17:00:00,19.1878657,72.8304069,PM10,94,115,102
India,Maharashtra,Mumbai,"Sion, Mumbai - MPCB",30-01-2026 17:00:00,19.047000,72.874600,PM2.5,42,314,145
India,Maharashtra,Mumbai,"Sion, Mumbai - MPCB",30-01-2026 17:00:00,19.047000,72.874600,OZONE,11,15,13
India,Maharashtra,Mumbai,"Vile Parle West, Mumbai - MPCB",30-01-2026 17:00:00,19.10861,72.83622,SO2,48,51,50
India,Maharashtra,Mumbai,"Vile Parle West, Mumbai - MPCB",30-01-2026 17:00:00,19.10861,72.83622,CO,96,105,104
India,Maharashtra,Nagpur,"Ambazari, Nagpur - MPCB",30-01-2026 17:00:00,21.121801,79.04952,NH3,1,15,4
India,Maharashtra,Nagpur,"Mahal, Nagpur - MPCB",30-01-2026 17:00:00,21.14472,79.107595,PM2.5,76,214,128
India,Maharashtra,Nagpur,"Opp GPO Civil Lines, Nagpur - MPCB",30-01-2026 17:00:00,21.152875,79.0517531,NO2,14,68,26
India,Maharashtra,Nagpur,"Opp GPO Civil Lines, Nagpur - MPCB",30-01-2026 17:00:00,21.152875,79.0517531,CO,16,111,42
India,Maharashtra,Nashik,"MIDC Ambad, Nashik - MPCB",30-01-2026 17:00:00,19.950220,73.731480,NH3,3,3,3
India,Maharashtra,Nashik,"Pandav Nagari, Nashik - MPCB",30-01-2026 17:00:00,19.9591346,73.7788008,CO,20,93,25
India,Maharashtra,Navi Mumbai,"Kopripada-Vashi, Navi Mumbai - MPCB",30-01-2026 17:00:00,19.090337,73.014232,PM10,113,200,152
India,Maharashtra,Navi Mumbai,"Kopripada-Vashi, Navi Mumbai - MPCB",30-01-2026 17:00:00,19.090337,73.014232,CO,20,76,40
India,Maharashtra,Navi Mumbai,"Mahape, Navi Mumbai - MPCB",30-01-2026 17:00:00,19.1135051,73.008978,NO2,84,86,85
India,Maharashtra,Mumbai,"Mindspace-Malad West, Mumbai - MPCB",30-01-2026 17:00:00,19.1878657,72.8304069,OZONE,5,56,15
India,Maharashtra,Mumbai,"Mulund West, Mumbai - MPCB",30-01-2026 17:00:00,19.1750,72.9419,NO2,20,25,23
India,Maharashtra,Mumbai,"Mulund West, Mumbai - MPCB",30-01-2026 17:00:00,19.1750,72.9419,NH3,3,3,3
India,Maharashtra,Mumbai,"Shivaji Nagar, Mumbai - BMC",30-01-2026 17:00:00,19.060498,72.923356,NO2,NA,NA,NA
India,Maharashtra,Mumbai,"Shivaji Nagar, Mumbai - BMC",30-01-2026 17:00:00,19.060498,72.923356,SO2,NA,NA,NA
India,Maharashtra,Mumbai,"Shivaji Nagar, Mumbai - BMC",30-01-2026 17:00:00,19.060498,72.923356,OZONE,25,49,38
India,Maharashtra,Nanded,"Sneh Nagar, Nanded - MPCB",30-01-2026 17:00:00,19.173852,77.296291,NH3,3,5,4
India,Maharashtra,Nashik,"Gangapur Road, Nashik - MPCB",30-01-2026 17:00:00,20.0073285,73.7762427,PM2.5,58,142,94
India,Maharashtra,Nashik,"Gangapur Road, Nashik - MPCB",30-01-2026 17:00:00,20.0073285,73.7762427,NO2,5,5,5
India,Maharashtra,Nashik,"Gangapur Road, Nashik - MPCB",30-01-2026 17:00:00,20.0073285,73.7762427,CO,21,22,22
India,Maharashtra,Nashik,"Hirawadi, Nashik - MPCB",30-01-2026 17:00:00,20.021503,73.813844,NO2,5,36,13
India,Maharashtra,Malegaon,"Mahesh Nagar, Malegaon - MPCB",30-01-2026 17:00:00,20.555712,74.529236,NH3,1,2,2
India,Maharashtra,Mira-Bhayandar,"Bhayandar West, Mira-Bhayandar - MPCB",30-01-2026 17:00:00,19.296481,72.840923,PM10,91,151,118
India,Maharashtra,Mira-Bhayandar,"Bhayandar West, Mira-Bhayandar - MPCB",30-01-2026 17:00:00,19.296481,72.840923,NH3,2,7,5
India,Maharashtra,Mumbai,"Bandra Kurla Complex, Mumbai - MPCB",30-01-2026 17:00:00,19.065931,72.862131,SO2,NA,NA,NA
India,Maharashtra,Mumbai,"Deonar, Mumbai - IITM",30-01-2026 17:00:00,19.04946,72.9230,PM10,118,171,149
India,Maharashtra,Mumbai,"Deonar, Mumbai - IITM",30-01-2026 17:00:00,19.04946,72.9230,NH3,11,15,13
India,Maharashtra,Mumbai,"Ghatkopar, Mumbai - BMC",30-01-2026 17:00:00,19.083694,72.920967,NO2,40,133,86
India,Maharashtra,Mumbai,"Kandivali East, Mumbai - MPCB",30-01-2026 17:00:00,19.205800,72.868200,NO2,30,30,30
India,Maharashtra,Mumbai,"Borivali East, Mumbai - IITM",30-01-2026 17:00:00,19.23241,72.86895,CO,48,90,64
India,Maharashtra,Mumbai,"Borivali East, Mumbai - IITM",30-01-2026 17:00:00,19.23241,72.86895,OZONE,12,62,14
India,Maharashtra,Mumbai,"Borivali East, Mumbai - MPCB",30-01-2026 17:00:00,19.2243333,72.8658113,PM10,66,116,79
India,Maharashtra,Mumbai,"Borivali East, Mumbai - MPCB",30-01-2026 17:00:00,19.2243333,72.8658113,NO2,NA,NA,NA
India,Maharashtra,Mumbai,"Byculla, Mumbai - BMC",30-01-2026 17:00:00,18.9767,72.8380,CO,44,135,87
India,Maharashtra,Mumbai,"Chembur, Mumbai - MPCB",30-01-2026 17:00:00,19.0364585,72.8954371,NO2,31,107,73
India,Maharashtra,Pimpri-Chinchwad,"Park Street Wakad, Pimpri Chinchwad - MPCB",30-01-2026 17:00:00,18.59051,73.77946,NO2,51,113,71
India,Maharashtra,Pimpri-Chinchwad,"Park Street Wakad, Pimpri Chinchwad - MPCB",30-01-2026 17:00:00,18.59051,73.77946,CO,24,109,51
India,Maharashtra,Pimpri-Chinchwad,"Park Street Wakad, Pimpri Chinchwad - MPCB",30-01-2026 17:00:00,18.59051,73.77946,OZONE,1,100,64
India,Maharashtra,Pimpri-Chinchwad,"Savta Mali Nagar, Pimpri-Chinchwad - IITM",30-01-2026 17:00:00,18.614767,73.799516,PM2.5,80,214,138
India,Maharashtra,Pimpri-Chinchwad,"Savta Mali Nagar, Pimpri-Chinchwad - IITM",30-01-2026 17:00:00,18.614767,73.799516,PM10,103,180,136
India,Maharashtra,Pimpri-Chinchwad,"Thergaon, Pimpri Chinchwad - MPCB",30-01-2026 17:00:00,18.616318,73.765797,CO,32,101,46
India,Maharashtra,Pune,"Bhosari, Pune - IITM",30-01-2026 17:00:00,18.640051,73.848956,OZONE,5,105,80
India,Maharashtra,Pune,"Bhumkar Nagar, Pune - IITM",30-01-2026 17:00:00,18.605770,73.749976,PM2.5,169,316,223
India,Maharashtra,Pune,"Bhumkar Nagar, Pune - IITM",30-01-2026 17:00:00,18.605770,73.749976,NO2,42,120,74
India,Maharashtra,Pune,"Bhumkar Nagar, Pune - IITM",30-01-2026 17:00:00,18.605770,73.749976,CO,48,131,74
India,Maharashtra,Pune,"Bhumkar Nagar, Pune - IITM",30-01-2026 17:00:00,18.605770,73.749976,OZONE,2,87,43
India,Maharashtra,Pune,"Dhankawadi, Pune - IITM",30-01-2026 17:00:00,18.459883,73.852193,PM2.5,63,130,85
India,Maharashtra,Pune,"Katraj Dairy, Pune - MPCB",30-01-2026 17:00:00,18.454450,73.854155,PM10,79,123,104
India,Maharashtra,Pune,"Katraj Dairy, Pune - MPCB",30-01-2026 17:00:00,18.454450,73.854155,CO,39,57,49
India,Maharashtra,Pune,"Mhada Colony, Pune - IITM",30-01-2026 17:00:00,18.573040,73.927715,CO,2,68,2
India,Maharashtra,Pune,"Revenue Colony-Shivajinagar, Pune - IITM",30-01-2026 17:00:00,18.530085,73.849598,NO2,42,138,73
India,Maharashtra,Navi Mumbai,"Sector-2E Kalamboli, Navi Mumbai - MPCB",30-01-2026 17:00:00,19.02579,73.10297,CO,5,100,34
India,Maharashtra,Navi Mumbai,"Tondare-Taloja, Navi Mumbai - MPCB",30-01-2026 17:00:00,19.0630,73.1209,PM2.5,79,233,139
India,Maharashtra,Navi Mumbai,"Tondare-Taloja, Navi Mumbai - MPCB",30-01-2026 17:00:00,19.0630,73.1209,SO2,2,5,4
India,Maharashtra,Parbhani,"Masoom Colony, Parbhani - MPCB",30-01-2026 17:00:00,19.265594,76.761463,NO2,44,68,53
India,Maharashtra,Pimpri-Chinchwad,"Gavalinagar, Pimpri Chinchwad - MPCB",30-01-2026 17:00:00,18.63673,73.82487,PM10,99,155,124
India,Maharashtra,Pimpri-Chinchwad,"Gavalinagar, Pimpri Chinchwad - MPCB",30-01-2026 17:00:00,18.63673,73.82487,NH3,7,18,10
India,Maharashtra,Pimpri-Chinchwad,"Gavalinagar, Pimpri Chinchwad - MPCB",30-01-2026 17:00:00,18.63673,73.82487,SO2,1,3,2
India,Odisha,Bhubaneswar,"Patia, Bhubaneswar - OSPCB",30-01-2026 17:00:00,20.34652,85.81630,NO2,13,34,23
India,Odisha,Bhubaneswar,"Patia, Bhubaneswar - OSPCB",30-01-2026 17:00:00,20.34652,85.81630,SO2,3,19,7
India,Odisha,Bhubaneswar,"Patia, Bhubaneswar - OSPCB",30-01-2026 17:00:00,20.34652,85.81630,CO,73,106,94
India,Odisha,Bileipada,"Tata Township, Bileipada - OSPCB",30-01-2026 17:00:00,22.06156703,85.47409613,OZONE,20,24,22
India,Odisha,Brajrajnagar,"GM Office, Brajrajnagar - OSPCB",30-01-2026 17:00:00,21.8004996,83.8396977,NH3,NA,NA,NA
India,Odisha,Byasanagar,"Ferro Chrome Colony, Byasanagar - OSPCB",30-01-2026 17:00:00,20.94185,86.11510,PM2.5,170,305,200
India,Maharashtra,Pune,"Revenue Colony-Shivajinagar, Pune - IITM",30-01-2026 17:00:00,18.530085,73.849598,CO,67,113,94
India,Maharashtra,Pune,"Savitribai Phule Pune University, Pune - MPCB",30-01-2026 17:00:00,18.547056,73.826908,SO2,1,5,3
India,Maharashtra,Pune,"Savitribai Phule Pune University, Pune - MPCB",30-01-2026 17:00:00,18.547056,73.826908,CO,14,90,25
India,Maharashtra,Pune,"Transport Nagar-Nigdi, Pune - IITM",30-01-2026 17:00:00,18.664282,73.763966,OZONE,6,38,25
India,Maharashtra,Sangli,"Vijay Nagar, Sangli - MPCB",30-01-2026 17:00:00, 16.5038,74.3623,PM2.5,66,197,96
India,Maharashtra,Sangli,"Vijay Nagar, Sangli - MPCB",30-01-2026 17:00:00, 16.5038,74.3623,NO2,14,112,39
India,Maharashtra,Thane,"Upvan Fort, Thane - MPCB",30-01-2026 17:00:00,19.222279,72.957979,PM10,89,134,114
India,Maharashtra,Thane,"Upvan Fort, Thane - MPCB",30-01-2026 17:00:00,19.222279,72.957979,OZONE,54,107,78
India,Maharashtra,Ulhasnagar,"Sidhi Vinayak Nagar, Ulhasnagar - MPCB",30-01-2026 17:00:00,19.235581,73.159121,PM2.5,84,255,162
India,Maharashtra,Ulhasnagar,"Sidhi Vinayak Nagar, Ulhasnagar - MPCB",30-01-2026 17:00:00,19.235581,73.159121,PM10,111,196,153
India,Maharashtra,Ulhasnagar,"Sidhi Vinayak Nagar, Ulhasnagar - MPCB",30-01-2026 17:00:00,19.235581,73.159121,CO,8,78,19
India,Maharashtra,Ulhasnagar,"Sidhi Vinayak Nagar, Ulhasnagar - MPCB",30-01-2026 17:00:00,19.235581,73.159121,OZONE,11,89,51
India,Maharashtra,Virar,"Bolinj, Virar - MPCB",30-01-2026 17:00:00,19.4458210,72.7988231,PM2.5,49,296,110
India,Odisha,Angul,"Hakimapada, Angul - OSPCB",30-01-2026 17:00:00,20.832874,85.104082,NO2,20,142,54
India,Odisha,Barbil,"Forest Office, Barbil - OSPCB",30-01-2026 17:00:00,22.1166054,85.3945546,SO2,11,101,27
India,Odisha,Baripada,"Meher Colony, Baripada - OSPCB",30-01-2026 17:00:00,21.941841,86.728318,NH3,2,5,4
India,Odisha,Bhubaneswar,"Lingraj Mandir, Bhubaneswar - OSPCB",30-01-2026 17:00:00,20.240790,85.836784,CO,81,103,93
India,Nagaland,Kohima,"PWD Junction, Kohima - NPCB",30-01-2026 17:00:00,25.6635413,94.0989878,NH3,1,1,1
India,Punjab,Khanna,"Kalal Majra, Khanna - PPCB",30-01-2026 17:00:00,30.736056 ,76.209694,PM10,21,139,80
India,Punjab,Khanna,"Kalal Majra, Khanna - PPCB",30-01-2026 17:00:00,30.736056 ,76.209694,NO2,26,31,28
India,Punjab,Khanna,"Kalal Majra, Khanna - PPCB",30-01-2026 17:00:00,30.736056 ,76.209694,CO,46,85,67
India,Punjab,Khanna,"Kalal Majra, Khanna - PPCB",30-01-2026 17:00:00,30.736056 ,76.209694,OZONE,19,41,37
India,Punjab,Ludhiana,"Punjab Agricultural University, Ludhiana - PPCB",30-01-2026 17:00:00,30.9028,75.8086,SO2,23,41,33
India,Punjab,Ludhiana,"Punjab Agricultural University, Ludhiana - PPCB",30-01-2026 17:00:00,30.9028,75.8086,CO,46,103,72
India,Punjab,Mandi Gobindgarh,"RIMT University, Mandi Gobindgarh - PPCB",30-01-2026 17:00:00,30.649961,76.331442,PM2.5,16,377,234
India,Punjab,Mandi Gobindgarh,"RIMT University, Mandi Gobindgarh - PPCB",30-01-2026 17:00:00,30.649961,76.331442,PM10,20,412,200
India,Punjab,Mandi Gobindgarh,"RIMT University, Mandi Gobindgarh - PPCB",30-01-2026 17:00:00,30.649961,76.331442,SO2,12,48,23
India,Punjab,Mandi Gobindgarh,"RIMT University, Mandi Gobindgarh - PPCB",30-01-2026 17:00:00,30.649961,76.331442,CO,26,137,86
India,Punjab,Patiala,"Model Town, Patiala - PPCB",30-01-2026 17:00:00,30.349388,76.366642,NO2,16,20,17
India,Punjab,Patiala,"Model Town, Patiala - PPCB",30-01-2026 17:00:00,30.349388,76.366642,CO,12,37,17
India,Rajasthan,Ajmer,"Civil Lines,  Ajmer - RSPCB",30-01-2026 17:00:00,26.470859,74.646594,PM2.5,75,122,93
India,Odisha,Cuttack,"CDA Area, Cuttack - OSPCB",30-01-2026 17:00:00,20.48891     ,85.84768     ,PM10,125,174,139
India,Odisha,Cuttack,"CDA Area, Cuttack - OSPCB",30-01-2026 17:00:00,20.48891     ,85.84768     ,NH3,5,9,6
India,Odisha,Keonjhar,"Jagamohanpur, Keonjhar - OSPCB",30-01-2026 17:00:00,21.643900,85.599355,NO2,10,18,13
India,Odisha,Rairangpur,"Divisional Forest Office, Rairangpur - OSPCB",30-01-2026 17:00:00,22.265816,86.174829,SO2,13,62,35
India,Odisha,Rourkela,"Raghunathpali, Rourkela - OSPCB",30-01-2026 17:00:00,22.220833,84.809444,NO2,15,40,24
India,Odisha,Rourkela,"Raghunathpali, Rourkela - OSPCB",30-01-2026 17:00:00,22.220833,84.809444,NH3,1,2,1
India,Odisha,Rourkela,"Raghunathpali, Rourkela - OSPCB",30-01-2026 17:00:00,22.220833,84.809444,CO,56,105,77
India,Odisha,Rourkela,"Raghunathpali, Rourkela - OSPCB",30-01-2026 17:00:00,22.220833,84.809444,OZONE,17,20,19
India,Odisha,Rourkela,"Sector-2, Rourkela - OSPCB",30-01-2026 17:00:00,22.24500000,84.88111111,PM2.5,36,68,50
India,Rajasthan,Jaipur,"Police Commissionerate, Jaipur - RSPCB",30-01-2026 17:00:00,26.9164092,75.7994901,OZONE,16,71,53
India,Rajasthan,Jaipur,"RIICO Sitapura, Jaipur - RSPCB",30-01-2026 17:00:00,26.786682,75.827928,SO2,1,6,5
India,Rajasthan,Jaipur,"RIICO Sitapura, Jaipur - RSPCB",30-01-2026 17:00:00,26.786682,75.827928,OZONE,26,99,83
India,Rajasthan,Jaipur,"Sector-2 Murlipura, Jaipur - RSPCB",30-01-2026 17:00:00,26.960669,75.771817,NO2,18,104,51
India,Rajasthan,Jaipur,"Sector-2 Murlipura, Jaipur - RSPCB",30-01-2026 17:00:00,26.960669,75.771817,NH3,5,7,6
India,Rajasthan,Jaipur,"Sector-2 Murlipura, Jaipur - RSPCB",30-01-2026 17:00:00,26.960669,75.771817,SO2,5,8,6
India,Rajasthan,Jaipur,"Shastri Nagar, Jaipur - RSPCB",30-01-2026 17:00:00,26.9502929,75.730943,NH3,11,22,15
India,Rajasthan,Jaipur,"Shastri Nagar, Jaipur - RSPCB",30-01-2026 17:00:00,26.9502929,75.730943,SO2,8,85,32
India,Rajasthan,Dausa,"Khatikan Mohalla, Dausa - RSPCB",30-01-2026 17:00:00,26.895552,76.334753,NH3,14,43,22
India,Rajasthan,Dholpur,"Raja Ganj, Dholpur - RSPCB",30-01-2026 17:00:00,26.699557,77.898881,PM10,NA,NA,NA
India,Rajasthan,Dholpur,"Raja Ganj, Dholpur - RSPCB",30-01-2026 17:00:00,26.699557,77.898881,NO2,18,56,34
India,Rajasthan,Dungarpur,"Bhoiwada, Dungarpur - RSPCB",30-01-2026 17:00:00,23.837789,73.714926,PM10,83,127,100
India,Rajasthan,Jaipur,"Adarsh Nagar, Jaipur - RSPCB",30-01-2026 17:00:00,26.902909,75.836858,SO2,7,25,21
India,Rajasthan,Jaipur,"Adarsh Nagar, Jaipur - RSPCB",30-01-2026 17:00:00,26.902909,75.836858,CO,36,98,47
India,Rajasthan,Baran,"Bamboliya, Baran - RSPCB",30-01-2026 17:00:00,25.106006,76.469948,OZONE,1,82,61
India,Rajasthan,Barmer,"Railway Colony, Barmer - RSPCB",30-01-2026 17:00:00,25.747299,71.393989,PM2.5,23,137,57
India,Rajasthan,Barmer,"Railway Colony, Barmer - RSPCB",30-01-2026 17:00:00,25.747299,71.393989,SO2,2,72,7
India,Rajasthan,Barmer,"Railway Colony, Barmer - RSPCB",30-01-2026 17:00:00,25.747299,71.393989,CO,16,80,32
India,Rajasthan,Bharatpur,"Krishna Nagar, Bharatpur - RSPCB",30-01-2026 17:00:00,27.215415,77.50873,CO,21,77,37
India,Rajasthan,Bundi,"New Colony, Bundi - RSPCB",30-01-2026 17:00:00,25.435774,75.644272,PM10,84,175,114
India,Rajasthan,Bundi,"New Colony, Bundi - RSPCB",30-01-2026 17:00:00,25.435774,75.644272,SO2,6,9,7
India,Rajasthan,Chittorgarh,"Shastri Nagar, Chittorgarh - RSPCB",30-01-2026 17:00:00,24.892047,74.623527,PM2.5,117,321,212
India,Odisha,Talcher,"Talcher Coalfields,Talcher - OSPCB",30-01-2026 17:00:00,20.9360711,85.1707021,OZONE,24,48,37
India,Punjab,Bathinda,"Hardev Nagar, Bathinda - PPCB",30-01-2026 17:00:00,30.233011,74.907758,NO2,17,22,20
India,Punjab,Bathinda,"Hardev Nagar, Bathinda - PPCB",30-01-2026 17:00:00,30.233011,74.907758,CO,59,79,78
India,Rajasthan,Bhilwara,"Pratap Nagar, Bhilwara - RSPCB",30-01-2026 17:00:00,25.339605,74.618883,OZONE,4,60,29
India,Rajasthan,Bhiwadi,"Vasundhara Nagar_UIT, Bhiwadi - RSPCB",30-01-2026 17:00:00,28.207266,76.829265,NO2,20,80,42
India,Rajasthan,Churu,"Subash Chowk, Churu - RSPCB",30-01-2026 17:00:00,28.296139,74.961696,CO,2,78,25
India,TamilNadu,Coimbatore,"PSG College of Arts and Science, Coimbatore - TNPCB",30-01-2026 17:00:00,11.0328,77.0349,NH3,1,1,1
India,TamilNadu,Coimbatore,"PSG College of Arts and Science, Coimbatore - TNPCB",30-01-2026 17:00:00,11.0328,77.0349,SO2,3,6,3
India,TamilNadu,Coimbatore,"PSG College of Arts and Science, Coimbatore - TNPCB",30-01-2026 17:00:00,11.0328,77.0349,OZONE,4,7,5
India,TamilNadu,Coimbatore,"SIDCO Kurichi, Coimbatore - TNPCB",30-01-2026 17:00:00,10.942451,76.978996,PM2.5,3,139,85
India,TamilNadu,Coimbatore,"SIDCO Kurichi, Coimbatore - TNPCB",30-01-2026 17:00:00,10.942451,76.978996,PM10,2,99,71
India,TamilNadu,Coimbatore,"SIDCO Kurichi, Coimbatore - TNPCB",30-01-2026 17:00:00,10.942451,76.978996,SO2,22,24,23
India,TamilNadu,Coimbatore,"SIDCO Kurichi, Coimbatore - TNPCB",30-01-2026 17:00:00,10.942451,76.978996,OZONE,10,14,10
India,TamilNadu,Gummidipoondi,"Anthoni Pillai Nagar, Gummidipoondi - TNPCB",30-01-2026 17:00:00,13.4127,80.1081,PM10,90,362,191
India,TamilNadu,Madurai,"Uchapatti, Madurai - TNPCB",30-01-2026 17:00:00,9.865935,78.022669,PM10,78,136,106
India,TamilNadu,Nagapattinam,"Velippalayam, Nagapattinam - TNPCB",30-01-2026 17:00:00,10.798548,79.838212,PM2.5,NA,NA,NA
India,TamilNadu,Nagapattinam,"Velippalayam, Nagapattinam - TNPCB",30-01-2026 17:00:00,10.798548,79.838212,NH3,2,2,2
India,TamilNadu,Perundurai,"SIPCOT Industrial Park, Perundurai - TNPCB",30-01-2026 17:00:00,11.258242,77.552761,SO2,13,15,14
India,TamilNadu,Pudukottai,"SIPCOT Nathampannai, Pudukottai - TNPCB",30-01-2026 17:00:00,10.423417,78.784889,PM2.5,62,202,92
India,TamilNadu,Pudukottai,"SIPCOT Nathampannai, Pudukottai - TNPCB",30-01-2026 17:00:00,10.423417,78.784889,PM10,76,160,100
India,Rajasthan,Jodhpur,"Jhalamand, Jodhpur - RSPCB",30-01-2026 17:00:00,26.215415,73.070156,NO2,4,34,14
India,Rajasthan,Jodhpur,"Mandor, Jodhpur - RSPCB",30-01-2026 17:00:00,26.358805,73.047444,PM10,33,97,61
India,Rajasthan,Jodhpur,"Mandor, Jodhpur - RSPCB",30-01-2026 17:00:00,26.358805,73.047444,SO2,4,19,8
India,Rajasthan,Jodhpur,"Mandor, Jodhpur - RSPCB",30-01-2026 17:00:00,26.358805,73.047444,OZONE,42,101,71
India,Rajasthan,Jodhpur,"Samrat Ashok Udhyan, Jodhpur - RSPCB",30-01-2026 17:00:00,26.253384,72.976571,PM2.5,22,92,55
India,Rajasthan,Jodhpur,"Samrat Ashok Udhyan, Jodhpur - RSPCB",30-01-2026 17:00:00,26.253384,72.976571,NO2,15,88,36
India,Rajasthan,Karauli,"Satyawati Vihar, Karauli - RSPCB",30-01-2026 17:00:00,26.506177,77.025989,PM2.5,23,172,60
India,Rajasthan,Karauli,"Satyawati Vihar, Karauli - RSPCB",30-01-2026 17:00:00,26.506177,77.025989,PM10,20,117,53
India,Rajasthan,Karauli,"Satyawati Vihar, Karauli - RSPCB",30-01-2026 17:00:00,26.506177,77.025989,SO2,7,10,8
India,Rajasthan,Kota,"Dhanmandi, Kota - RSPCB",30-01-2026 17:00:00,25.164090,75.858137,SO2,1,27,7
India,Rajasthan,Kota,"Nayapura, Kota - RSPCB",30-01-2026 17:00:00,25.196024,75.855668,NO2,14,84,38
India,Rajasthan,Kota,"Nayapura, Kota - RSPCB",30-01-2026 17:00:00,25.196024,75.855668,CO,18,103,27
India,Rajasthan,Jalore,"Mudtra Sili, Jalore - RSPCB",30-01-2026 17:00:00,25.344694,72.626208,NO2,15,117,47
India,Rajasthan,Jhalawar,"Rajlaxmi Nagar, Jhalawar - RSPCB",30-01-2026 17:00:00,24.588397,76.172782,PM10,50,114,81
India,Rajasthan,Jhalawar,"Rajlaxmi Nagar, Jhalawar - RSPCB",30-01-2026 17:00:00,24.588397,76.172782,CO,29,68,39
India,Rajasthan,Jhunjhunu,"Indra Nagar, Jhunjhunu - RSPCB",30-01-2026 17:00:00,28.108988,75.386577,NO2,15,137,52
India,Rajasthan,Jhunjhunu,"Indra Nagar, Jhunjhunu - RSPCB",30-01-2026 17:00:00,28.108988,75.386577,OZONE,4,130,96
India,Rajasthan,Jodhpur,"Collectorate, Jodhpur - RSPCB",30-01-2026 17:00:00,26.268249,73.0193853,PM10,13,128,61
India,Rajasthan,Jodhpur,"Collectorate, Jodhpur - RSPCB",30-01-2026 17:00:00,26.268249,73.0193853,OZONE,7,110,57
India,Rajasthan,Jodhpur,"Digari Kalan, Jodhpur - RSPCB",30-01-2026 17:00:00,26.295810,73.082283,PM2.5,27,147,63
India,Rajasthan,Jodhpur,"Digari Kalan, Jodhpur - RSPCB",30-01-2026 17:00:00,26.295810,73.082283,SO2,2,14,5
India,Rajasthan,Jodhpur,"Jhalamand, Jodhpur - RSPCB",30-01-2026 17:00:00,26.215415,73.070156,PM2.5,22,177,65
India,TamilNadu,Chennai,"Manali, Chennai - CPCB",30-01-2026 17:00:00,13.164544,80.26285,PM10,83,127,114
India,TamilNadu,Chennai,"Perungudi, Chennai - TNPCB",30-01-2026 17:00:00,12.9533,80.2357,PM10,79,362,120
India,TamilNadu,Chennai,"Perungudi, Chennai - TNPCB",30-01-2026 17:00:00,12.9533,80.2357,NH3,1,2,1
India,TamilNadu,Chennai,"Perungudi, Chennai - TNPCB",30-01-2026 17:00:00,12.9533,80.2357,CO,54,85,65
India,TamilNadu,Chennai,"Perungudi, Chennai - TNPCB",30-01-2026 17:00:00,12.9533,80.2357,OZONE,7,32,10
India,TamilNadu,Chennai,"Royapuram, Chennai - TNPCB",30-01-2026 17:00:00,13.1036,80.2909,NH3,NA,NA,NA
India,TamilNadu,Chennai,"Velachery Res. Area, Chennai - CPCB",30-01-2026 17:00:00,13.0052189,80.2398125,PM2.5,69,183,110
India,TamilNadu,Chennai,"Velachery Res. Area, Chennai - CPCB",30-01-2026 17:00:00,13.0052189,80.2398125,SO2,6,8,7
India,TamilNadu,Chennai,"Velachery Res. Area, Chennai - CPCB",30-01-2026 17:00:00,13.0052189,80.2398125,OZONE,2,8,7
India,TamilNadu,Coimbatore,"PSG College of Arts and Science, Coimbatore - TNPCB",30-01-2026 17:00:00,11.0328,77.0349,NO2,10,11,11
India,TamilNadu,Ramanathapuram,"Chalai Bazaar, Ramanathapuram - TNPCB",30-01-2026 17:00:00,9.36399,78.831977,CO,13,19,16
India,TamilNadu,Thanjavur,"Parisutham Nagar, Thanjavur - TNPCB",30-01-2026 17:00:00,10.7654824,79.1389968,PM10,NA,NA,NA
India,TamilNadu,Thanjavur,"Parisutham Nagar, Thanjavur - TNPCB",30-01-2026 17:00:00,10.7654824,79.1389968,NO2,NA,NA,NA
India,Telangana,Hyderabad,"Bollaram Industrial Area, Hyderabad - TSPCB",30-01-2026 17:00:00,17.540891,78.358528,CO,18,90,51
India,Telangana,Hyderabad,"Central University, Hyderabad - TSPCB",30-01-2026 17:00:00,17.460103,78.334361,NH3,1,4,3
India,Telangana,Hyderabad,"ECIL Kapra, Hyderabad - TSPCB",30-01-2026 17:00:00,17.470431,78.566959,PM10,57,70,63
India,Telangana,Hyderabad,"ECIL Kapra, Hyderabad - TSPCB",30-01-2026 17:00:00,17.470431,78.566959,CO,15,34,29
India,Telangana,Hyderabad,"ICRISAT Patancheru, Hyderabad - TSPCB",30-01-2026 17:00:00,17.518400,78.278777,SO2,1,16,6
India,Rajasthan,Kota,"Shrinath Puram, Kota - RSPCB",30-01-2026 17:00:00,25.14389,75.821256,PM10,95,170,121
India,Rajasthan,Kota,"Shrinath Puram, Kota - RSPCB",30-01-2026 17:00:00,25.14389,75.821256,NO2,9,13,11
India,Rajasthan,Nagaur,"Karni Colony, Nagaur - RSPCB",30-01-2026 17:00:00,27.213494,73.734444,PM2.5,30,97,61
India,Rajasthan,Pali,"Indira Colony Vistar, Pali - RSPCB",30-01-2026 17:00:00,25.771061, 73.340227,CO,7,58,29
India,Rajasthan,Rajsamand,"Dhoinda, Rajsamand - RSPCB",30-01-2026 17:00:00,25.036360,73.883502,CO,20,101,35
India,Rajasthan,Sawai Madhopur,"Sahu Nagar, Sawai Madhopur - RSPCB",30-01-2026 17:00:00,26.031443,76.359327,PM2.5,40,306,111
India,Rajasthan,Sawai Madhopur,"Sahu Nagar, Sawai Madhopur - RSPCB",30-01-2026 17:00:00,26.031443,76.359327,NH3,6,9,7
India,Rajasthan,Sawai Madhopur,"Sahu Nagar, Sawai Madhopur - RSPCB",30-01-2026 17:00:00,26.031443,76.359327,CO,22,82,34
India,Telangana,Hyderabad,"IDA Pashamylaram, Hyderabad - TSPCB",30-01-2026 17:00:00,17.5316895,78.218939,PM10,NA,NA,NA
India,Telangana,Hyderabad,"IDA Pashamylaram, Hyderabad - TSPCB",30-01-2026 17:00:00,17.5316895,78.218939,SO2,NA,NA,NA
India,Telangana,Hyderabad,"IITH Kandi, Hyderabad - TSPCB",30-01-2026 17:00:00,17.585705,78.126199,NO2,NA,NA,NA
India,Telangana,Hyderabad,"Kompally Municipal Office, Hyderabad - TSPCB",30-01-2026 17:00:00,17.544899,78.486949,PM2.5,47,61,51
India,Telangana,Hyderabad,"Nacharam_TSIIC IALA, Hyderabad - TSPCB",30-01-2026 17:00:00,17.429398,78.569354,NO2,7,16,10
India,Telangana,Hyderabad,"New Malakpet, Hyderabad - TSPCB",30-01-2026 17:00:00,17.37206,78.50864,CO,24,45,33
India,Rajasthan,Sri Ganganagar,"Old City, Sri Ganganagar - RSPCB",30-01-2026 17:00:00,29.931624,73.864511,PM10,48,284,118
India,Rajasthan,Sri Ganganagar,"Old City, Sri Ganganagar - RSPCB",30-01-2026 17:00:00,29.931624,73.864511,SO2,3,8,4
India,Rajasthan,Tonk,"Shastri Nagar, Tonk - RSPCB",30-01-2026 17:00:00,26.159933,75.780517,SO2,2,21,6
India,Rajasthan,Udaipur,"Ashok Nagar, Udaipur - RSPCB",30-01-2026 17:00:00,24.5886166,73.6321397,SO2,7,10,8
India,Sikkim,Gangtok,"Zero Point GICI, Gangtok - SSPCB",30-01-2026 17:00:00,27.338530,88.614099,OZONE,19,22,22
India,TamilNadu,Chennai,"Arumbakkam, Chennai - TNPCB",30-01-2026 17:00:00,13.0664,80.2112 ,NH3,1,2,2
India,TamilNadu,Chennai,"Manali Village, Chennai - TNPCB",30-01-2026 17:00:00,13.1662,80.2584,PM2.5,60,203,121
India,Uttar_Pradesh,Gorakhpur,"Madan Mohan Malaviya University of Technology, Gorakhpur - UPPCB",30-01-2026 17:00:00,26.730136,83.433859,OZONE,1,2,1
India,Uttar_Pradesh,Greater Noida,"Knowledge Park - III, Greater Noida - UPPCB",30-01-2026 17:00:00,28.47272,77.482000,NH3,14,17,16
India,Uttar_Pradesh,Greater Noida,"Knowledge Park - III, Greater Noida - UPPCB",30-01-2026 17:00:00,28.47272,77.482000,SO2,4,8,6
India,Uttar_Pradesh,Greater Noida,"Knowledge Park - V, Greater Noida - UPPCB",30-01-2026 17:00:00,28.557054,77.453663,PM10,151,262,197
India,Uttar_Pradesh,Greater Noida,"Knowledge Park - V, Greater Noida - UPPCB",30-01-2026 17:00:00,28.557054,77.453663,NO2,86,123,103
India,Uttar_Pradesh,Greater Noida,"Knowledge Park - V, Greater Noida - UPPCB",30-01-2026 17:00:00,28.557054,77.453663,NH3,12,18,16
India,Uttar_Pradesh,Hapur,"Anand Vihar, Hapur - UPPCB",30-01-2026 17:00:00,28.725645,77.749675,OZONE,1,56,33
India,Uttar_Pradesh,Kanpur,"FTI Kidwai Nagar, Kanpur - UPPCB",30-01-2026 17:00:00,26.428282,80.327067,PM10,44,103,70
India,Uttar_Pradesh,Kanpur,"FTI Kidwai Nagar, Kanpur - UPPCB",30-01-2026 17:00:00,26.428282,80.327067,NO2,27,27,27
India,Uttar_Pradesh,Agra,"Manoharpur, Agra - UPPCB",30-01-2026 17:00:00,27.23711,78.01936,NH3,4,4,4
India,Uttar_Pradesh,Agra,"Manoharpur, Agra - UPPCB",30-01-2026 17:00:00,27.23711,78.01936,OZONE,6,37,10
India,Uttar_Pradesh,Agra,"Sanjay Palace, Agra - UPPCB",30-01-2026 17:00:00,27.19865833,78.00598056,PM10,86,402,175
India,Uttar_Pradesh,Agra,"Sanjay Palace, Agra - UPPCB",30-01-2026 17:00:00,27.19865833,78.00598056,SO2,18,20,19
India,Uttar_Pradesh,Agra,"Shahjahan Garden, Agra - UPPCB",30-01-2026 17:00:00,27.169338,78.03582,PM2.5,22,154,67
India,Uttar_Pradesh,Agra,"Shahjahan Garden, Agra - UPPCB",30-01-2026 17:00:00,27.169338,78.03582,NO2,7,9,8
India,Uttar_Pradesh,Agra,"Shahjahan Garden, Agra - UPPCB",30-01-2026 17:00:00,27.169338,78.03582,SO2,20,27,24
India,Uttar_Pradesh,Agra,"Shastripuram, Agra - UPPCB",30-01-2026 17:00:00,27.19862,77.92066,PM10,37,167,84
India,Uttar_Pradesh,Baghpat,"Sardar Patel Inter College, Baghpat - UPPCB",30-01-2026 17:00:00,28.964949,77.278761,PM10,90,170,129
India,Uttar_Pradesh,Baghpat,"Sardar Patel Inter College, Baghpat - UPPCB",30-01-2026 17:00:00,28.964949,77.278761,NO2,31,86,58
India,Uttar_Pradesh,Baghpat,"Sardar Patel Inter College, Baghpat - UPPCB",30-01-2026 17:00:00,28.964949,77.278761,SO2,7,31,12
India,Uttar_Pradesh,Baghpat,"Sardar Patel Inter College, Baghpat - UPPCB",30-01-2026 17:00:00,28.964949,77.278761,CO,10,42,26
India,Uttar_Pradesh,Bareilly,"Civil Lines, Bareilly - UPPCB",30-01-2026 17:00:00,28.359581,79.414455,CO,46,64,53
India,Uttar_Pradesh,Bareilly,"Rajendra Nagar, Bareilly - UPPCB",30-01-2026 17:00:00,28.38910936,79.42963708,PM2.5,33,53,42
India,Uttar_Pradesh,Bareilly,"Rajendra Nagar, Bareilly - UPPCB",30-01-2026 17:00:00,28.38910936,79.42963708,PM10,54,97,73
India,Uttar_Pradesh,Bareilly,"Rajendra Nagar, Bareilly - UPPCB",30-01-2026 17:00:00,28.38910936,79.42963708,SO2,37,39,38
India,Uttar_Pradesh,Bulandshahr,"Yamunapuram, Bulandshahr - UPPCB",30-01-2026 17:00:00,28.406963,77.849831,CO,30,76,49
India,Uttar_Pradesh,Firozabad,"Nagla Bhau, Firozabad - UPPCB",30-01-2026 17:00:00,27.168897,78.376960,NH3,2,2,2
India,Uttar_Pradesh,Firozabad,"Nagla Bhau, Firozabad - UPPCB",30-01-2026 17:00:00,27.168897,78.376960,SO2,1,44,14
India,Uttar_Pradesh,Firozabad,"Vibhab Nagar, Firozabad - UPPCB",30-01-2026 17:00:00,27.1594,78.3953,NO2,15,15,15
India,Uttar_Pradesh,Ghaziabad,"Indirapuram, Ghaziabad - UPPCB",30-01-2026 17:00:00,28.646233,77.358075,PM2.5,182,367,308
India,Uttar_Pradesh,Ghaziabad,"Indirapuram, Ghaziabad - UPPCB",30-01-2026 17:00:00,28.646233,77.358075,OZONE,9,22,14
India,Uttar_Pradesh,Ghaziabad,"Loni, Ghaziabad - UPPCB",30-01-2026 17:00:00,28.757294,77.278792,PM2.5,152,474,342
India,Uttar_Pradesh,Ghaziabad,"Loni, Ghaziabad - UPPCB",30-01-2026 17:00:00,28.757294,77.278792,OZONE,2,79,41
India,Uttar_Pradesh,Ghaziabad,"Sanjay Nagar, Ghaziabad - UPPCB",30-01-2026 17:00:00,28.685382,77.453839,NO2,61,66,63
India,Uttar_Pradesh,Ghaziabad,"Sanjay Nagar, Ghaziabad - UPPCB",30-01-2026 17:00:00,28.685382,77.453839,SO2,3,16,11
India,Uttar_Pradesh,Kanpur,"NSI Kalyanpur, Kanpur - UPPCB",30-01-2026 17:00:00,26.509954,80.249612,PM2.5,43,87,56
India,Uttar_Pradesh,Kanpur,"NSI Kalyanpur, Kanpur - UPPCB",30-01-2026 17:00:00,26.509954,80.249612,SO2,21,27,23
India,Uttar_Pradesh,Kanpur,"NSI Kalyanpur, Kanpur - UPPCB",30-01-2026 17:00:00,26.509954,80.249612,OZONE,15,17,16
India,Uttar_Pradesh,Kanpur,"Nehru Nagar, Kanpur - UPPCB",30-01-2026 17:00:00,26.4703136,80.3229863,OZONE,6,13,11
India,Uttar_Pradesh,Khurja,"Kalindi Kunj, Khurja - UPPCB",30-01-2026 17:00:00,28.2348927,77.8683002,PM2.5,15,88,52
India,Telangana,Hyderabad,"Somajiguda, Hyderabad - TSPCB",30-01-2026 17:00:00,17.417094,78.457437,SO2,14,16,15
India,Telangana,Hyderabad,"Somajiguda, Hyderabad - TSPCB",30-01-2026 17:00:00,17.417094,78.457437,CO,12,34,18
India,Telangana,Hyderabad,"Zoo Park, Hyderabad - TSPCB",30-01-2026 17:00:00,17.349694,78.451437,PM10,103,149,124
India,Telangana,Hyderabad,"Ramachandrapuram, Hyderabad - TSPCB",30-01-2026 17:00:00,17.528544,78.286195,NH3,4,5,4
India,Telangana,Hyderabad,"Ramachandrapuram, Hyderabad - TSPCB",30-01-2026 17:00:00,17.528544,78.286195,OZONE,23,36,28
India,Uttar_Pradesh,Ghaziabad,"Vasundhara, Ghaziabad - UPPCB",30-01-2026 17:00:00,28.6603346,77.3572563,OZONE,8,94,54
India,Uttar_Pradesh,Prayagraj,"Motilal Nehru NIT, Prayagraj - UPPCB",30-01-2026 17:00:00,25.494,81.863,SO2,37,57,45
India,Uttar_Pradesh,Prayagraj,"Motilal Nehru NIT, Prayagraj - UPPCB",30-01-2026 17:00:00,25.494,81.863,OZONE,7,21,16
India,Uttar_Pradesh,Prayagraj,"Nagar Nigam, Prayagraj - UPPCB",30-01-2026 17:00:00,25.44919916 ,81.82735986 ,NH3,9,18,12
India,Uttar_Pradesh,Varanasi,"Ardhali Bazar, Varanasi - UPPCB",30-01-2026 17:00:00,25.3505986,82.9083074,CO,12,28,19
India,Uttar_Pradesh,Varanasi,"Bhelupur, Varanasi - UPPCB",30-01-2026 17:00:00,25.301778,82.996789,NH3,1,1,1
India,Uttar_Pradesh,Varanasi,"Bhelupur, Varanasi - UPPCB",30-01-2026 17:00:00,25.301778,82.996789,SO2,28,31,29
India,Uttar_Pradesh,Varanasi,"IESD Banaras Hindu University, Varanasi - UPPCB",30-01-2026 17:00:00,25.262326,82.995408,SO2,22,38,26
India,Uttar_Pradesh,Varanasi,"Maldahiya, Varanasi - UPPCB",30-01-2026 17:00:00,25.32393,82.99687,PM10,38,67,55
India,Uttar_Pradesh,Varanasi,"Maldahiya, Varanasi - UPPCB",30-01-2026 17:00:00,25.32393,82.99687,CO,6,15,7
India,Uttar_Pradesh,Vrindavan,"Omex Eternity, Vrindavan - UPPCB",30-01-2026 17:00:00,27.5714090,77.6557570,NH3,1,10,8
India,Uttar_Pradesh,Vrindavan,"Omex Eternity, Vrindavan - UPPCB",30-01-2026 17:00:00,27.5714090,77.6557570,CO,20,41,32
India,Uttarakhand,Dehradun,"Doon University, Dehradun - UKPCB",30-01-2026 17:00:00,30.269444,78.044167,PM10,24,183,117
India,Uttarakhand,Dehradun,"Doon University, Dehradun - UKPCB",30-01-2026 17:00:00,30.269444,78.044167,NO2,1,4,2
India,Uttarakhand,Kashipur,"Govt. Girls Inter College, Kashipur - UKPCB",30-01-2026 17:00:00,29.2124114,78.9611753,NO2,NA,NA,NA
India,West_Bengal,Asansol,"Asansol Court Area, Asansol - WBPCB",30-01-2026 17:00:00,23.685297,86.945968,NH3,3,9,5
India,West_Bengal,Asansol,"Evelyn Lodge, Asansol - WBPCB",30-01-2026 17:00:00,23.6979360,86.9443950,SO2,5,14,7
India,West_Bengal,Asansol,"Mahabir Colliery, Asansol - WBPCB",30-01-2026 17:00:00,23.6181830,87.1057180,NO2,7,17,12
India,West_Bengal,Asansol,"Trivenidevi Bhalotia College, Asansol - WBPCB",30-01-2026 17:00:00,23.616515,87.119133,PM10,54,101,69
India,West_Bengal,Barrackpore,"SVSPA Campus, Barrackpore - WBPCB",30-01-2026 17:00:00,22.7605581,88.3617589,NH3,5,7,6
India,Uttar_Pradesh,Meerut,"Pallavpuram Phase 2, Meerut - UPPCB",30-01-2026 17:00:00,29.063510,77.709723,PM10,73,152,117
India,Uttar_Pradesh,Meerut,"Pallavpuram Phase 2, Meerut - UPPCB",30-01-2026 17:00:00,29.063510,77.709723,NH3,4,6,5
India,Uttar_Pradesh,Moradabad,"Buddhi Vihar, Moradabad - UPPCB",30-01-2026 17:00:00,28.83526,78.74460,PM2.5,35,85,57
India,Uttar_Pradesh,Moradabad,"Eco Herbal Park, Moradabad - UPPCB",30-01-2026 17:00:00,28.840739,78.697531,PM2.5,41,97,65
India,Uttar_Pradesh,Moradabad,"Jigar Colony, Moradabad - UPPCB",30-01-2026 17:00:00,28.856664,78.772638,PM2.5,39,99,71
India,Uttar_Pradesh,Moradabad,"Jigar Colony, Moradabad - UPPCB",30-01-2026 17:00:00,28.856664,78.772638,SO2,24,81,52
India,Uttar_Pradesh,Moradabad,"Kashiram Nagar, Moradabad - UPPCB",30-01-2026 17:00:00,28.849399,78.742362,PM10,42,100,71
India,Uttar_Pradesh,Moradabad,"Kashiram Nagar, Moradabad - UPPCB",30-01-2026 17:00:00,28.849399,78.742362,OZONE,10,17,12
India,Uttar_Pradesh,Moradabad,"Transport Nagar, Moradabad - UPPCB",30-01-2026 17:00:00,28.802625,78.753728,PM10,42,114,66
India,West_Bengal,Durgapur,"Mahishkapur Road_B-Zone, Durgapur - WBPCB",30-01-2026 17:00:00,23.567923,87.306843,CO,16,70,25
India,West_Bengal,Durgapur,"PCBL Residential Complex, Durgapur - WBPCB",30-01-2026 17:00:00,23.5087640,87.3544400,NO2,29,51,36
India,West_Bengal,Durgapur,"PCBL Residential Complex, Durgapur - WBPCB",30-01-2026 17:00:00,23.5087640,87.3544400,SO2,5,8,6
India,West_Bengal,Durgapur,"PCBL Residential Complex, Durgapur - WBPCB",30-01-2026 17:00:00,23.5087640,87.3544400,CO,43,79,53
India,Uttar_Pradesh,Lucknow,"Kukrail Picnic Spot-1, Lucknow - UPPCB",30-01-2026 17:00:00,26.90723,80.98579,NH3,6,6,6
India,Uttar_Pradesh,Lucknow,"Kukrail Picnic Spot-1, Lucknow - UPPCB",30-01-2026 17:00:00,26.90723,80.98579,OZONE,12,22,19
India,Uttar_Pradesh,Lucknow,"Lalbagh, Lucknow - CPCB",30-01-2026 17:00:00,26.8458805,80.9365541,PM10,158,415,286
India,Uttar_Pradesh,Lucknow,"Lalbagh, Lucknow - CPCB",30-01-2026 17:00:00,26.8458805,80.9365541,NO2,29,36,33
India,Uttar_Pradesh,Noida,"Sector - 62, Noida - IMD",30-01-2026 17:00:00,28.6245479,77.3577104,NO2,9,43,20
India,Uttar_Pradesh,Prayagraj,"Jhunsi, Prayagraj - UPPCB",30-01-2026 17:00:00,25.425602,81.917152,PM10,24,118,75
India,Uttar_Pradesh,Lucknow,"Talkatora District Industries Center, Lucknow - CPCB",30-01-2026 17:00:00,26.83399722,80.8917361,NO2,28,31,30
India,Uttar_Pradesh,Meerut,"Ganga Nagar, Meerut - UPPCB",30-01-2026 17:00:00,28.999264,77.7590354,NH3,13,24,15
India,West_Bengal,Durgapur,"Womens College_City Center, Durgapur - WBPCB",30-01-2026 17:00:00,23.549395,87.300496,PM10,68,148,106
India,West_Bengal,Durgapur,"Womens College_City Center, Durgapur - WBPCB",30-01-2026 17:00:00,23.549395,87.300496,NH3,2,3,3
India,West_Bengal,Haldia,"Priyambada Housing Estate, Haldia - WBPCB",30-01-2026 17:00:00,22.06047,88.109737,PM10,53,209,110
India,West_Bengal,Howrah,"Belur Math, Howrah - WBPCB",30-01-2026 17:00:00,22.629801,88.352017,NO2,29,145,87
India,West_Bengal,Howrah,"Belur Math, Howrah - WBPCB",30-01-2026 17:00:00,22.629801,88.352017,CO,14,101,18
India,West_Bengal,Howrah,"Botanical Garden, Howrah - WBPCB",30-01-2026 17:00:00,22.554954,88.292568,SO2,5,10,8
India,West_Bengal,Howrah,"Dasnagar, Howrah - WBPCB",30-01-2026 17:00:00,22.6025571,88.3105664,PM10,50,167,106
India,West_Bengal,Howrah,"Ghusuri, Howrah - WBPCB",30-01-2026 17:00:00,22.611968,88.347422,SO2,6,13,10
India,West_Bengal,Howrah,"Padmapukur, Howrah - WBPCB",30-01-2026 17:00:00,22.5687319,88.2797276,CO,26,120,47
India,West_Bengal,Howrah,"Padmapukur, Howrah - WBPCB",30-01-2026 17:00:00,22.5687319,88.2797276,OZONE,10,71,59
India,West_Bengal,Kolkata,"Ballygunge, Kolkata - WBPCB",30-01-2026 17:00:00,22.5367507,88.3638022,PM10,84,227,141
India,West_Bengal,Kolkata,"Bidhannagar, Kolkata - WBPCB",30-01-2026 17:00:00,22.58157048,88.41002457,PM2.5,41,206,106
India,West_Bengal,Kolkata,"Bidhannagar, Kolkata - WBPCB",30-01-2026 17:00:00,22.58157048,88.41002457,NO2,13,30,16
India,West_Bengal,Kolkata,"Jadavpur, Kolkata - WBPCB",30-01-2026 17:00:00,22.49929,88.36917,PM10,95,252,152
India,West_Bengal,Kolkata,"Rabindra Bharati University, Kolkata - WBPCB",30-01-2026 17:00:00,22.627847,88.380669,PM2.5,82,421,225
India,West_Bengal,Kolkata,"Rabindra Bharati University, Kolkata - WBPCB",30-01-2026 17:00:00,22.627847,88.380669,NH3,12,16,13
India,West_Bengal,Kolkata,"Rabindra Sarobar, Kolkata - WBPCB",30-01-2026 17:00:00,22.51106,88.35142,SO2,11,25,17
India,West_Bengal,Kolkata,"Victoria, Kolkata - WBPCB",30-01-2026 17:00:00,22.5448082,88.3403691,NO2,32,51,43
India,West_Bengal,Kolkata,"Victoria, Kolkata - WBPCB",30-01-2026 17:00:00,22.5448082,88.3403691,OZONE,5,49,39
India,West_Bengal,Siliguri,"Ward-32 Bapupara, Siliguri - WBPCB",30-01-2026 17:00:00,26.6879226,88.4152495,PM2.5,63,100,83
India,West_Bengal,Siliguri,"Ward-32 Bapupara, Siliguri - WBPCB",30-01-2026 17:00:00,26.6879226,88.4152495,SO2,13,16,14
India,Bihar,Araria,"Kharahiya Basti, Araria - BSPCB",30-01-2026 17:00:00,26.146529,87.454184,SO2,13,61,37
India,Bihar,Araria,"Kharahiya Basti, Araria - BSPCB",30-01-2026 17:00:00,26.146529,87.454184,OZONE,9,10,10
India,Bihar,Arrah,"New DM Office, Arrah - BSPCB",30-01-2026 17:00:00,25.5626095,84.663264,NO2,6,8,7
India,Bihar,Aurangabad,"Gurdeo Nagar, Aurangabad - BSPCB",30-01-2026 17:00:00,24.75746,84.366208,NH3,1,2,2
India,Bihar,Begusarai,"Lohiyanagar, Begusarai - BSPCB",30-01-2026 17:00:00,25.42742023,86.13886079,NO2,5,13,8
India,Bihar,Begusarai,"Lohiyanagar, Begusarai - BSPCB",30-01-2026 17:00:00,25.42742023,86.13886079,OZONE,28,34,31
India,Bihar,Bettiah,"Kamalnath Nagar, Bettiah - BSPCB",30-01-2026 17:00:00,26.80365,84.51954,CO,10,130,48
India,Bihar,Bhagalpur,"DM Office_Kachari Chowk, Bhagalpur - BSPCB",30-01-2026 17:00:00,25.251013,86.989001,PM2.5,25,70,46
India,Bihar,Bhagalpur,"DM Office_Kachari Chowk, Bhagalpur - BSPCB",30-01-2026 17:00:00,25.251013,86.989001,NH3,1,1,1
India,Bihar,Bhagalpur,"DM Office_Kachari Chowk, Bhagalpur - BSPCB",30-01-2026 17:00:00,25.251013,86.989001,SO2,32,69,49
India,Andhra_Pradesh,Tirumala,"Toll Gate, Tirumala - APPCB",30-01-2026 17:00:00,13.67,79.35,PM10,78,147,112
India,Andhra_Pradesh,Tirumala,"Toll Gate, Tirumala - APPCB",30-01-2026 17:00:00,13.67,79.35,NH3,1,3,2
India,Andhra_Pradesh,Tirumala,"Toll Gate, Tirumala - APPCB",30-01-2026 17:00:00,13.67,79.35,OZONE,32,95,58
India,Andhra_Pradesh,Tirupati,"Vaikuntapuram, Tirupati - APPCB",30-01-2026 17:00:00,13.615387,79.409230,NH3,6,7,7
India,Andhra_Pradesh,Vijayawada,"HB Colony, Vijayawada - APPCB",30-01-2026 17:00:00,16.536107,80.594233,NH3,4,6,5
India,Andhra_Pradesh,Vijayawada,"Kanuru, Vijayawada - APPCB",30-01-2026 17:00:00,16.486692,80.699436,PM2.5,50,110,80
India,Andhra_Pradesh,Vijayawada,"Kanuru, Vijayawada - APPCB",30-01-2026 17:00:00,16.486692,80.699436,NH3,6,7,7
India,Andhra_Pradesh,Vijayawada,"Kanuru, Vijayawada - APPCB",30-01-2026 17:00:00,16.486692,80.699436,CO,44,77,55
India,Andhra_Pradesh,Vijayawada,"Rajiv Gandhi Park, Vijayawada - APPCB",30-01-2026 17:00:00,16.509717,80.612222,PM2.5,93,160,131
India,Andhra_Pradesh,Vijayawada,"Rajiv Gandhi Park, Vijayawada - APPCB",30-01-2026 17:00:00,16.509717,80.612222,NH3,3,5,4
India,Andhra_Pradesh,Vijayawada,"Rajiv Gandhi Park, Vijayawada - APPCB",30-01-2026 17:00:00,16.509717,80.612222,OZONE,3,36,23
India,Bihar,Bhagalpur,"Mayaganj, Bhagalpur - BSPCB",30-01-2026 17:00:00,25.265194,87.012947,NO2,7,8,7
India,Bihar,Bhagalpur,"Mayaganj, Bhagalpur - BSPCB",30-01-2026 17:00:00,25.265194,87.012947,SO2,53,63,58
India,Bihar,Bhagalpur,"Mayaganj, Bhagalpur - BSPCB",30-01-2026 17:00:00,25.265194,87.012947,OZONE,15,29,23
India,Bihar,Bihar Sharif,"D M Colony, Bihar Sharif - BSPCB",30-01-2026 17:00:00,25.204762,85.514960,PM2.5,53,83,67
India,Bihar,Bihar Sharif,"D M Colony, Bihar Sharif - BSPCB",30-01-2026 17:00:00,25.204762,85.514960,PM10,43,67,54
India,Bihar,Buxar,"Charitra Van, Buxar - BSPCB",30-01-2026 17:00:00,25.567520,83.966379,OZONE,8,33,23
India,Bihar,Gaya,"Kareemganj, Gaya - BSPCB",30-01-2026 17:00:00,24.792403,84.992416,PM2.5,53,160,98
India,Bihar,Gaya,"Kareemganj, Gaya - BSPCB",30-01-2026 17:00:00,24.792403,84.992416,CO,10,140,112
India,Andhra_Pradesh,Anantapur,"Gulzarpet, Anantapur - APPCB",30-01-2026 17:00:00,14.675886,77.593027,PM2.5,66,98,84
India,Andhra_Pradesh,Anantapur,"Gulzarpet, Anantapur - APPCB",30-01-2026 17:00:00,14.675886,77.593027,SO2,11,18,15
India,Andhra_Pradesh,Anantapur,"Gulzarpet, Anantapur - APPCB",30-01-2026 17:00:00,14.675886,77.593027,CO,26,42,34
India,Andhra_Pradesh,Chittoor,"Gangineni Cheruvu, Chittoor - APPCB",30-01-2026 17:00:00,13.204880,79.097889,NH3,7,9,8
India,Andhra_Pradesh,Kadapa,"Yerramukkapalli, Kadapa - APPCB",30-01-2026 17:00:00,14.465052,78.824187,NO2,21,26,25
India,Andhra_Pradesh,Rajamahendravaram,"Anand Kala Kshetram, Rajamahendravaram - APPCB",30-01-2026 17:00:00,16.9872867,81.7363176,OZONE,NA,NA,NA
India,Arunachal_Pradesh,Naharlagun,"Naharlagun, Naharlagun - APSPCB",30-01-2026 17:00:00,27.103358,93.679645,NH3,1,1,1
India,Assam,Byrnihat,"Central Academy for SFS, Byrnihat - PCBA",30-01-2026 17:00:00,26.071318,91.87488,NH3,4,4,4
India,Assam,Byrnihat,"Central Academy for SFS, Byrnihat - PCBA",30-01-2026 17:00:00,26.071318,91.87488,OZONE,14,31,20
India,Assam,Guwahati,"LGBI Airport, Guwahati - PCBA",30-01-2026 17:00:00,26.10887,91.589544,PM2.5,29,128,55
India,Assam,Guwahati,"Pan Bazaar, Guwahati - PCBA",30-01-2026 17:00:00,26.187500,91.744194,SO2,26,53,38
India,Assam,Guwahati,"Pan Bazaar, Guwahati - PCBA",30-01-2026 17:00:00,26.187500,91.744194,OZONE,17,18,17
India,Bihar,Gaya,"SFTI Kusdihra, Gaya - BSPCB",30-01-2026 17:00:00,24.762518,84.982348,PM10,43,72,54
India,Bihar,Gaya,"SFTI Kusdihra, Gaya - BSPCB",30-01-2026 17:00:00,24.762518,84.982348,SO2,7,12,8
India,Bihar,Gaya,"SFTI Kusdihra, Gaya - BSPCB",30-01-2026 17:00:00,24.762518,84.982348,OZONE,10,53,36
India,Bihar,Hajipur,"Industrial Area, Hajipur - BSPCB",30-01-2026 17:00:00,25.697189,85.245900,SO2,NA,NA,NA
India,Bihar,Hajipur,"Industrial Area, Hajipur - BSPCB",30-01-2026 17:00:00,25.697189,85.245900,OZONE,46,84,66
India,Bihar,Katihar,"Mirchaibari, Katihar - BSPCB",30-01-2026 17:00:00,25.560083,87.553265,PM10,23,57,40
India,Bihar,Katihar,"Mirchaibari, Katihar - BSPCB",30-01-2026 17:00:00,25.560083,87.553265,NH3,1,1,1
India,Bihar,Munger,"Town Hall, Munger - BSPCB",30-01-2026 17:00:00,25.376776,86.471523,NH3,4,12,6
India,Bihar,Munger,"Town Hall, Munger - BSPCB",30-01-2026 17:00:00,25.376776,86.471523,CO,24,44,28
India,Bihar,Munger,"Town Hall, Munger - BSPCB",30-01-2026 17:00:00,25.376776,86.471523,OZONE,6,13,9
India,Bihar,Muzaffarpur,"Buddha Colony, Muzaffarpur - BSPCB",30-01-2026 17:00:00,26.11442,85.39813,CO,30,54,38
India,Bihar,Muzaffarpur,"MIT-Daudpur Kothi, Muzaffarpur - BSPCB",30-01-2026 17:00:00,26.1403345,85.3650192,NH3,4,7,6
India,Bihar,Muzaffarpur,"MIT-Daudpur Kothi, Muzaffarpur - BSPCB",30-01-2026 17:00:00,26.1403345,85.3650192,SO2,13,18,14
India,Bihar,Katihar,"Mirchaibari, Katihar - BSPCB",30-01-2026 17:00:00,25.560083,87.553265,OZONE,7,33,24
India,Bihar,Kishanganj,"SDM Office_Khagra, Kishanganj - BSPCB",30-01-2026 17:00:00,26.0881305,87.93840336,NH3,3,3,3
India,Bihar,Manguraha,"Forest Rest House, Manguraha - BSPCB",30-01-2026 17:00:00,27.308328,84.531742,OZONE,8,11,9
India,Bihar,Motihari,"Gandak Colony, Motihari - BSPCB",30-01-2026 17:00:00,26.63086,84.90051,CO,12,21,16
India,Andaman and Nicobar,Sri Vijaya Puram,"Police Line, Sri Vijaya Puram - ANPCC",30-01-2026 17:00:00,11.654054,92.734055,NO2,NA,NA,NA
India,Assam,Nalbari,"Bata Chowk, Nalbari - PCBA",30-01-2026 17:00:00,26.446912,91.439057,PM10,90,114,100
India,Bihar,Muzaffarpur,"Muzaffarpur Collectorate, Muzaffarpur - BSPCB",30-01-2026 17:00:00,26.1209,85.3647,OZONE,8,20,12
India,Bihar,Patna,"DRM Office Danapur, Patna - BSPCB",30-01-2026 17:00:00,25.586562,85.043586,PM2.5,67,90,75
India,Bihar,Patna,"DRM Office Danapur, Patna - BSPCB",30-01-2026 17:00:00,25.586562,85.043586,NO2,8,52,17
India,Bihar,Patna,"DRM Office Danapur, Patna - BSPCB",30-01-2026 17:00:00,25.586562,85.043586,NH3,5,9,6
India,Bihar,Patna,"Govt. High School Shikarpur, Patna - BSPCB",30-01-2026 17:00:00,25.592539,85.227158,NO2,14,19,16
India,Bihar,Patna,"Govt. High School Shikarpur, Patna - BSPCB",30-01-2026 17:00:00,25.592539,85.227158,SO2,13,18,16
India,Bihar,Patna,"Govt. High School Shikarpur, Patna - BSPCB",30-01-2026 17:00:00,25.592539,85.227158,OZONE,7,13,10
India,Bihar,Patna,"Muradpur, Patna - BSPCB",30-01-2026 17:00:00,25.619651,85.147382,PM10,76,99,85
India,Bihar,Patna,"Muradpur, Patna - BSPCB",30-01-2026 17:00:00,25.619651,85.147382,NO2,5,9,7
India,Bihar,Patna,"Samanpura, Patna - BSPCB",30-01-2026 17:00:00,25.596727,85.085624,PM10,107,130,115
India,Chhattisgarh,Korba,"Urja Nagar, Korba - CECB",30-01-2026 17:00:00,22.348441,82.549611,NO2,18,22,20
India,Chhattisgarh,Kunjemura,"OP Jindal School, Kunjemura - CECB",30-01-2026 17:00:00,22.126650,83.483212,PM2.5,76,177,135
India,Chhattisgarh,Milupara,"Govt. Higher Secondary School, Milupara - CECB",30-01-2026 17:00:00,22.1910172,83.5197009,PM10,64,310,124
India,Chhattisgarh,Milupara,"Govt. Higher Secondary School, Milupara - CECB",30-01-2026 17:00:00,22.1910172,83.5197009,OZONE,1,132,85
India,Chhattisgarh,Raipur,"AIIMS, Raipur - CECB",30-01-2026 17:00:00,21.258815,81.578979,OZONE,1,3,1
India,Chhattisgarh,Raipur,"Bhatagaon New ISBT, Raipur - CECB",30-01-2026 17:00:00,21.219665,81.630094,CO,31,52,40
India,Chhattisgarh,Raipur,"Bhatagaon New ISBT, Raipur - CECB",30-01-2026 17:00:00,21.219665,81.630094,OZONE,3,10,4
India,Chhattisgarh,Raipur,"Krishak Nagar, Raipur - CECB",30-01-2026 17:00:00,21.237755,81.705301,NO2,21,31,26
India,Bihar,Rajgir,"Dangi Tola, Rajgir - BSPCB",30-01-2026 17:00:00,25.03280,85.41948,PM2.5,18,117,60
India,Bihar,Rajgir,"Dangi Tola, Rajgir - BSPCB",30-01-2026 17:00:00,25.03280,85.41948,NO2,8,10,9
India,Bihar,Rajgir,"Dangi Tola, Rajgir - BSPCB",30-01-2026 17:00:00,25.03280,85.41948,OZONE,31,34,33
India,Bihar,Samastipur,"DM Office_Kasipur, Samastipur - BSPCB",30-01-2026 17:00:00,25.859655,85.77944,NH3,1,1,1
India,Bihar,Sasaram,"Dada Peer, Sasaram - BSPCB",30-01-2026 17:00:00,24.952822,84.002396,PM2.5,18,35,25
India,Bihar,Sasaram,"Dada Peer, Sasaram - BSPCB",30-01-2026 17:00:00,24.952822,84.002396,PM10,39,78,54
India,Bihar,Siwan,"Chitragupta Nagar, Siwan - BSPCB",30-01-2026 17:00:00,26.2271665,84.3570427,PM2.5,28,45,36
India,Bihar,Siwan,"Chitragupta Nagar, Siwan - BSPCB",30-01-2026 17:00:00,26.2271665,84.3570427,NH3,1,1,1
India,Chhattisgarh,Raipur,"Krishak Nagar, Raipur - CECB",30-01-2026 17:00:00,21.237755,81.705301,OZONE,9,27,17
India,Chhattisgarh,Raipur,"Siltara Phase-II, Raipur - CECB",30-01-2026 17:00:00,21.371751,81.664929,SO2,3,13,5
India,Delhi,Delhi,"Alipur, Delhi - DPCC",30-01-2026 17:00:00,28.815329,77.153010,PM2.5,85,366,251
India,Delhi,Delhi,"Alipur, Delhi - DPCC",30-01-2026 17:00:00,28.815329,77.153010,OZONE,8,50,34
India,Delhi,Delhi,"Anand Vihar, Delhi - DPCC",30-01-2026 17:00:00,28.647622,77.3158090,PM2.5,163,375,311
India,Delhi,Delhi,"Anand Vihar, Delhi - DPCC",30-01-2026 17:00:00,28.647622,77.3158090,SO2,11,28,20
India,Delhi,Delhi,"Ashok Vihar, Delhi - DPCC",30-01-2026 17:00:00,28.695381,77.181665,OZONE,1,81,37
India,Delhi,Delhi,"Chandni Chowk, Delhi - IITM",30-01-2026 17:00:00,28.656756,77.227234,PM10,121,387,211
India,Delhi,Delhi,"Chandni Chowk, Delhi - IITM",30-01-2026 17:00:00,28.656756,77.227234,NO2,20,105,47
India,Delhi,Delhi,"Chandni Chowk, Delhi - IITM",30-01-2026 17:00:00,28.656756,77.227234,SO2,14,28,19
India,Delhi,Delhi,"DTU, Delhi - CPCB",30-01-2026 17:00:00,28.7500499,77.1112615,NO2,38,47,46
India,Delhi,Delhi,"Dr. Karni Singh Shooting Range, Delhi - DPCC",30-01-2026 17:00:00,28.498571,77.264840,PM2.5,98,354,286
India,Chandigarh,Chandigarh,"Sector-25, Chandigarh - CPCC",30-01-2026 17:00:00,30.751462,76.762879,SO2,1,23,15
India,Chandigarh,Chandigarh,"Sector-53, Chandigarh - CPCC",30-01-2026 17:00:00,30.719859,76.738637,SO2,8,18,12
India,Chhattisgarh,Bhilai,"32Bungalows, Bhilai - CECB",30-01-2026 17:00:00,21.194815,81.314770,PM2.5,13,43,30
India,Chhattisgarh,Bhilai,"Civic Center, Bhilai - Bhilai Steel Plant",30-01-2026 17:00:00,21.185571,81.343175,NO2,3,107,16
India,Delhi,Delhi,"Bawana, Delhi - DPCC",30-01-2026 17:00:00,28.776200,77.051074,NH3,6,9,8
India,Delhi,Delhi,"Burari Crossing, Delhi - IMD",30-01-2026 17:00:00,28.7256504,77.2011573,PM10,102,279,170
India,Delhi,Delhi,"Burari Crossing, Delhi - IMD",30-01-2026 17:00:00,28.7256504,77.2011573,NO2,80,143,106
India,Delhi,Delhi,"Burari Crossing, Delhi - IMD",30-01-2026 17:00:00,28.7256504,77.2011573,OZONE,9,130,52
India,Chhattisgarh,Bhilai,"Hathkhoj, Bhilai - CECB",30-01-2026 17:00:00,21.224231,81.408350,PM2.5,1,94,66
India,Chhattisgarh,Korba,"Rampur, Korba - CECB",30-01-2026 17:00:00,22.368195,82.746431,CO,24,68,37
India,Chhattisgarh,Korba,"Rampur, Korba - CECB",30-01-2026 17:00:00,22.368195,82.746431,OZONE,4,16,8
India,Bihar,Patna,"Samanpura, Patna - BSPCB",30-01-2026 17:00:00,25.596727,85.085624,NH3,5,6,5
India,Bihar,Purnia,"Mariam Nagar, Purnia - BSPCB",30-01-2026 17:00:00,25.366336,87.117468,PM10,51,68,59
India,Bihar,Purnia,"Mariam Nagar, Purnia - BSPCB",30-01-2026 17:00:00,25.366336,87.117468,NH3,3,3,3
India,Delhi,Delhi,"Mundka, Delhi - DPCC",30-01-2026 17:00:00,28.684678,77.076574,SO2,10,17,13
India,Delhi,Delhi,"NSIT Dwarka, Delhi - CPCB",30-01-2026 17:00:00,28.60909,77.0325413,NO2,33,81,62
India,Delhi,Delhi,"Najafgarh, Delhi - DPCC",30-01-2026 17:00:00,28.570173,76.933762,NH3,6,14,11
India,Delhi,Delhi,"Najafgarh, Delhi - DPCC",30-01-2026 17:00:00,28.570173,76.933762,OZONE,2,31,10
India,Delhi,Delhi,"Narela, Delhi - DPCC",30-01-2026 17:00:00,28.822836,77.101981,PM2.5,57,320,158
India,Delhi,Delhi,"Nehru Nagar, Delhi - DPCC",30-01-2026 17:00:00,28.567890,77.250515,NH3,4,10,7
India,Delhi,Delhi,"Nehru Nagar, Delhi - DPCC",30-01-2026 17:00:00,28.567890,77.250515,OZONE,2,294,285
India,Delhi,Delhi,"North Campus, DU, Delhi - IMD",30-01-2026 17:00:00,28.6573814,77.1585447,PM2.5,122,355,264
India,Delhi,Delhi,"North Campus, DU, Delhi - IMD",30-01-2026 17:00:00,28.6573814,77.1585447,CO,33,134,70
India,Delhi,Delhi,"Rohini, Delhi - DPCC",30-01-2026 17:00:00,28.732528,77.119920,NO2,21,80,50
India,Delhi,Delhi,"Rohini, Delhi - DPCC",30-01-2026 17:00:00,28.732528,77.119920,NH3,9,14,11
India,Delhi,Delhi,"Shadipur, Delhi - CPCB",30-01-2026 17:00:00,28.6514781,77.1473105,NO2,49,149,83
India,Delhi,Delhi,"Sirifort, Delhi - CPCB",30-01-2026 17:00:00,28.5504249,77.2159377,NH3,4,5,4
India,Delhi,Delhi,"Sonia Vihar, Delhi - DPCC",30-01-2026 17:00:00,28.710508,77.249485,PM2.5,163,393,305
India,Delhi,Delhi,"Sonia Vihar, Delhi - DPCC",30-01-2026 17:00:00,28.710508,77.249485,NH3,6,8,8
India,Delhi,Delhi,"Sri Aurobindo Marg, Delhi - DPCC",30-01-2026 17:00:00,28.531346,77.190156,NH3,1,44,7
India,Delhi,Delhi,"Okhla Phase-2, Delhi - DPCC",30-01-2026 17:00:00,28.530785,77.271255,SO2,11,62,16
India,Delhi,Delhi,"Patparganj, Delhi - DPCC",30-01-2026 17:00:00,28.623763,77.287209,NH3,7,9,8
India,Delhi,Delhi,"Patparganj, Delhi - DPCC",30-01-2026 17:00:00,28.623763,77.287209,CO,54,104,70
India,Delhi,Delhi,"Pusa, Delhi - DPCC",30-01-2026 17:00:00,28.639652,77.146275,CO,66,117,86
India,Delhi,Delhi,"Pusa, Delhi - IMD",30-01-2026 17:00:00,28.636110,77.173332,CO,96,124,104
India,Delhi,Delhi,"Pusa, Delhi - IMD",30-01-2026 17:00:00,28.636110,77.173332,OZONE,1,288,288
India,Delhi,Delhi,"R K Puram, Delhi - DPCC",30-01-2026 17:00:00,28.563262,77.186937,NO2,53,108,72
India,Gujarat,Ahmedabad,"Raikhad, Ahmedabad - IITM",30-01-2026 17:00:00,23.020509,72.579261,CO,8,38,19
India,Gujarat,Ahmedabad,"Rakhial, Ahmedabad - IITM",30-01-2026 17:00:00,23.016834,72.625775,NO2,10,40,23
India,Gujarat,Ahmedabad,"Rakhial, Ahmedabad - IITM",30-01-2026 17:00:00,23.016834,72.625775,OZONE,32,61,43
India,Gujarat,Ahmedabad,"SAC ISRO Bopal, Ahmedabad - IITM",30-01-2026 17:00:00,23.041137,72.456691,NO2,17,46,27
India,Gujarat,Ahmedabad,"SAC ISRO Bopal, Ahmedabad - IITM",30-01-2026 17:00:00,23.041137,72.456691,OZONE,18,66,37
India,Gujarat,Ahmedabad,"SAC ISRO Satellite, Ahmedabad - IITM",30-01-2026 17:00:00,23.023389,72.515201,NH3,4,9,6
India,Gujarat,Ahmedabad,"SAC ISRO Satellite, Ahmedabad - IITM",30-01-2026 17:00:00,23.023389,72.515201,SO2,4,30,11
India,Gujarat,Bhavnagar,"Vidhyanagar, Bhavnagar - Nexteng Enviro",30-01-2026 17:00:00,21.755417,72.139056,NH3,3,7,6
India,Gujarat,Gandhinagar,"GIFT City, Gandhinagar - IITM",30-01-2026 17:00:00,23.163798,72.677768,CO,4,52,27
India,Gujarat,Gandhinagar,"IIPHG Lekawada, Gandhinagar - IITM",30-01-2026 17:00:00,23.243639,72.68994,PM2.5,61,116,88
India,Gujarat,Gandhinagar,"IIPHG Lekawada, Gandhinagar - IITM",30-01-2026 17:00:00,23.243639,72.68994,OZONE,22,42,33
India,Gujarat,Gandhinagar,"Sector-10, Gandhinagar - GPCB",30-01-2026 17:00:00,23.221714,72.654328,NO2,26,31,28
India,Delhi,Delhi,"Lodhi Road, Delhi - IMD",30-01-2026 17:00:00,28.5918245,77.2273074,NO2,35,54,43
India,Delhi,Delhi,"Lodhi Road, Delhi - IMD",30-01-2026 17:00:00,28.5918245,77.2273074,CO,57,92,63
India,Delhi,Delhi,"Major Dhyan Chand National Stadium, Delhi - DPCC",30-01-2026 17:00:00,28.611281,77.237738,SO2,6,15,9
India,Delhi,Delhi,"Major Dhyan Chand National Stadium, Delhi - DPCC",30-01-2026 17:00:00,28.611281,77.237738,CO,56,101,70
India,Delhi,Delhi,"Mandir Marg, Delhi - DPCC",30-01-2026 17:00:00,28.636429,77.201067,OZONE,7,233,158
India,Delhi,Delhi,"Vivek Vihar, Delhi - DPCC",30-01-2026 17:00:00,28.672342,77.315260,NO2,32,106,55
India,Delhi,Delhi,"Vivek Vihar, Delhi - DPCC",30-01-2026 17:00:00,28.672342,77.315260,CO,9,169,18
India,Gujarat,Ahmedabad,"Gyaspur, Ahmedabad - IITM",30-01-2026 17:00:00,22.977134,72.553024,NO2,52,113,72
India,Gujarat,Ahmedabad,"Gyaspur, Ahmedabad - IITM",30-01-2026 17:00:00,22.977134,72.553024,NH3,4,10,6
India,Gujarat,Ahmedabad,"Maninagar, Ahmedabad - GPCB",30-01-2026 17:00:00,23.002657,72.591912,PM2.5,72,194,103
India,Delhi,Delhi,"IIT Delhi, Delhi - IITM",30-01-2026 17:00:00,28.542460,77.191651,PM10,NA,NA,NA
India,Delhi,Delhi,"ITO, Delhi - CPCB",30-01-2026 17:00:00,28.628624,77.241060,PM10,93,168,131
India,Delhi,Delhi,"ITO, Delhi - CPCB",30-01-2026 17:00:00,28.628624,77.241060,NO2,38,64,52
India,Delhi,Delhi,"Lodhi Road, Delhi - IMD",30-01-2026 17:00:00,28.5918245,77.2273074,PM10,89,150,109
India,Delhi,Delhi,"Dwarka-Sector 8, Delhi - DPCC ",30-01-2026 17:00:00,28.5710274,77.0719006,PM2.5,NA,NA,NA
India,Delhi,Delhi,"IGI Airport (T3), Delhi - IMD",30-01-2026 17:00:00,28.5627763,77.1180053,CO,14,106,34
India,Haryana,Kurukshetra,"Sector-7, Kurukshetra - HSPCB",30-01-2026 17:00:00,29.966942,76.875879,NH3,5,5,5
India,Haryana,Kurukshetra,"Sector-7, Kurukshetra - HSPCB",30-01-2026 17:00:00,29.966942,76.875879,SO2,1,15,6
India,Haryana,Kurukshetra,"Sector-7, Kurukshetra - HSPCB",30-01-2026 17:00:00,29.966942,76.875879,CO,16,32,26
India,Haryana,Kurukshetra,"Sector-7, Kurukshetra - HSPCB",30-01-2026 17:00:00,29.966942,76.875879,OZONE,6,48,28
India,Haryana,Narnaul,"Shastri Nagar, Narnaul - HSPCB",30-01-2026 17:00:00,28.060249,76.113115,NO2,52,73,59
India,Haryana,Narnaul,"Shastri Nagar, Narnaul - HSPCB",30-01-2026 17:00:00,28.060249,76.113115,SO2,3,5,4
India,Haryana,Palwal,"Shyam Nagar, Palwal - HSPCB",30-01-2026 17:00:00,28.1485564,77.3320667,PM10,29,69,43
India,Haryana,Palwal,"Shyam Nagar, Palwal - HSPCB",30-01-2026 17:00:00,28.1485564,77.3320667,CO,12,50,33
India,Haryana,Gurugram,"Vikas Sadan, Gurugram - HSPCB",30-01-2026 17:00:00,28.4501238,77.0263051,PM2.5,119,342,250
India,Haryana,Gurugram,"Vikas Sadan, Gurugram - HSPCB",30-01-2026 17:00:00,28.4501238,77.0263051,SO2,2,8,5
India,Haryana,Hisar,"Urban Estate-II, Hisar - HSPCB",30-01-2026 17:00:00,29.140560,75.744941,CO,28,102,33
India,Haryana,Jind,"Police Lines, Jind - HSPCB",30-01-2026 17:00:00,29.307814,76.337619,CO,4,102,75
India,Haryana,Kaithal,"Rishi Nagar, Kaithal - HSPCB",30-01-2026 17:00:00,29.8006,76.4155,CO,10,66,39
India,Haryana,Panipat,"Sector-18, Panipat - HSPCB",30-01-2026 17:00:00,29.432304,76.972765,SO2,18,19,19
India,Haryana,Panipat,"Sector-18, Panipat - HSPCB",30-01-2026 17:00:00,29.432304,76.972765,OZONE,30,30,30
India,Haryana,Rohtak,"MD University, Rohtak - HSPCB",30-01-2026 17:00:00,28.52123,76.37138,NO2,10,12,11
India,Haryana,Sirsa,"F-Block, Sirsa - HSPCB",30-01-2026 17:00:00,29.536400,75.015800,OZONE,42,56,49
India,Haryana,Yamuna Nagar,"Gobind Pura, Yamuna Nagar - HSPCB",30-01-2026 17:00:00,30.1480566,77.2893471,PM10,68,115,92
India,Haryana,Gurugram,"NISE Gwal Pahari, Gurugram - IMD",30-01-2026 17:00:00,28.422681,77.148944,PM2.5,57,334,239
India,Haryana,Gurugram,"NISE Gwal Pahari, Gurugram - IMD",30-01-2026 17:00:00,28.422681,77.148944,PM10,110,343,191
India,Haryana,Gurugram,"NISE Gwal Pahari, Gurugram - IMD",30-01-2026 17:00:00,28.422681,77.148944,NO2,27,76,44
India,Haryana,Gurugram,"Sector-51, Gurugram - HSPCB",30-01-2026 17:00:00,28.4227,77.0667,CO,18,101,31
India,Haryana,Gurugram,"Sector-51, Gurugram - HSPCB",30-01-2026 17:00:00,28.4227,77.0667,OZONE,3,16,14
India,Haryana,Faridabad,"New Industrial Town, Faridabad - HSPCB",30-01-2026 17:00:00,28.39072,77.30059,PM10,110,148,120
India,Haryana,Faridabad,"New Industrial Town, Faridabad - HSPCB",30-01-2026 17:00:00,28.39072,77.30059,CO,10,13,11
India,Haryana,Faridabad,"Sector 11, Faridabad - HSPCB",30-01-2026 17:00:00,28.376058,77.315741,NH3,10,10,10
India,Haryana,Fatehabad,"Huda Sector, Fatehabad - HSPCB",30-01-2026 17:00:00,29.503664,75.467934,PM10,2,11,5
India,Haryana,Bahadurgarh,"Arya Nagar, Bahadurgarh - HSPCB",30-01-2026 17:00:00,28.6701,76.9254,NH3,12,13,13
India,Haryana,Ballabgarh,"Nathu Colony, Ballabgarh - HSPCB",30-01-2026 17:00:00,28.3419248,77.319699,SO2,3,7,4
India,Haryana,Panchkula,"Sector-6, Panchkula - HSPCB ",30-01-2026 17:00:00,30.7057778,76.8531805555555,NO2,24,26,25
India,Haryana,Panchkula,"Sector-6, Panchkula - HSPCB ",30-01-2026 17:00:00,30.7057778,76.8531805555555,SO2,15,15,15
India,Haryana,Panchkula,"Sector-6, Panchkula - HSPCB ",30-01-2026 17:00:00,30.7057778,76.8531805555555,OZONE,7,15,13
India,Haryana,Dharuhera,"Municipal Corporation Office, Dharuhera -  HSPCB",30-01-2026 17:00:00,28.206800,76.799700,PM2.5,107,356,213
India,Haryana,Dharuhera,"Municipal Corporation Office, Dharuhera -  HSPCB",30-01-2026 17:00:00,28.206800,76.799700,CO,54,102,68
India,Gujarat,Vapi,"Phase-1 GIDC, Vapi - GPCB",30-01-2026 17:00:00,20.362421,72.918013,PM2.5,NA,NA,NA
India,Gujarat,Vapi,"Phase-1 GIDC, Vapi - GPCB",30-01-2026 17:00:00,20.362421,72.918013,PM10,NA,NA,NA
India,Gujarat,Vapi,"Phase-1 GIDC, Vapi - GPCB",30-01-2026 17:00:00,20.362421,72.918013,NO2,NA,NA,NA
India,Karnataka,Bengaluru,"Silk Board, Bengaluru - KSPCB",30-01-2026 17:00:00,12.917348,77.622813,NO2,40,94,63
India,Karnataka,Bengaluru,"Silk Board, Bengaluru - KSPCB",30-01-2026 17:00:00,12.917348,77.622813,OZONE,30,72,55
India,Karnataka,Chamarajanagar,"Urban, Chamarajanagar - KSPCB",30-01-2026 17:00:00,11.55358,76.55521,NO2,14,35,22
India,Karnataka,Chikkaballapur,"Chikkaballapur Rural, Chikkaballapur - KSPCB",30-01-2026 17:00:00,13.428828,77.731418,PM10,62,244,153
India,Karnataka,Chikkaballapur,"Chikkaballapur Rural, Chikkaballapur - KSPCB",30-01-2026 17:00:00,13.428828,77.731418,SO2,30,49,43
India,Karnataka,Chikkaballapur,"Chikkaballapur Rural, Chikkaballapur - KSPCB",30-01-2026 17:00:00,13.428828,77.731418,OZONE,19,25,22
India,Karnataka,Chikkamagaluru,"Kalyana Nagara, Chikkamagaluru - KSPCB",30-01-2026 17:00:00,13.328028,75.797056,SO2,2,10,4
India,Karnataka,Chikkamagaluru,"Kalyana Nagara, Chikkamagaluru - KSPCB",30-01-2026 17:00:00,13.328028,75.797056,CO,8,11,10
India,Karnataka,Davanagere,"Devaraj Urs Badavane, Davanagere - KSPCB",30-01-2026 17:00:00,14.475800,75.905200,PM2.5,60,254,111
India,Karnataka,Davanagere,"Devaraj Urs Badavane, Davanagere - KSPCB",30-01-2026 17:00:00,14.475800,75.905200,NH3,2,4,3
India,Karnataka,Davanagere,"Devaraj Urs Badavane, Davanagere - KSPCB",30-01-2026 17:00:00,14.475800,75.905200,SO2,1,13,5
India,Karnataka,Dharwad,"Kalabhavan, Dharwad - KSPCB",30-01-2026 17:00:00,15.459706,75.008381,OZONE,28,37,33
India,Kerala,Kannur,"Thavakkara, Kannur - Kerala PCB",30-01-2026 17:00:00,11.875000,75.373200,PM10,91,126,99
India,Kerala,Thiruvananthapuram,"Kariavattom, Thiruvananthapuram - Kerala PCB",30-01-2026 17:00:00,8.563700,76.886500,PM2.5,2,369,216
India,Kerala,Thiruvananthapuram,"Kariavattom, Thiruvananthapuram - Kerala PCB",30-01-2026 17:00:00,8.563700,76.886500,PM10,13,181,101
India,Kerala,Thiruvananthapuram,"Kariavattom, Thiruvananthapuram - Kerala PCB",30-01-2026 17:00:00,8.563700,76.886500,NO2,6,7,6
India,Kerala,Thiruvananthapuram,"Kariavattom, Thiruvananthapuram - Kerala PCB",30-01-2026 17:00:00,8.563700,76.886500,SO2,1,36,12
India,Kerala,Thiruvananthapuram,"Kariavattom, Thiruvananthapuram - Kerala PCB",30-01-2026 17:00:00,8.563700,76.886500,OZONE,36,37,37
India,Kerala,Thiruvananthapuram,"Plammoodu, Thiruvananthapuram - Kerala PCB",30-01-2026 17:00:00,8.5149093,76.9435879,SO2,8,25,14
India,Madhya Pradesh,Bhopal,"Idgah Hills, Bhopal - MPPCB",30-01-2026 17:00:00,23.264759,77.381568,NO2,19,49,30
India,Madhya Pradesh,Bhopal,"Idgah Hills, Bhopal - MPPCB",30-01-2026 17:00:00,23.264759,77.381568,NH3,4,6,4
India,Madhya Pradesh,Bhopal,"Idgah Hills, Bhopal - MPPCB",30-01-2026 17:00:00,23.264759,77.381568,SO2,9,14,10
India,Madhya Pradesh,Bhopal,"Idgah Hills, Bhopal - MPPCB",30-01-2026 17:00:00,23.264759,77.381568,CO,23,56,31
India,Himachal Pradesh,Baddi,"HIMUDA Complex Phase-1, Baddi - HPPCB",30-01-2026 17:00:00,30.943887,76.801991,NO2,4,31,18
India,Himachal Pradesh,Baddi,"HIMUDA Complex Phase-1, Baddi - HPPCB",30-01-2026 17:00:00,30.943887,76.801991,NH3,2,8,4
